Vers 57
USE_SERIAL_FEEDBACK=false
DEVELOPMENT_MODE=false
USE_RMC_ONLY=false

$GPGGA,141200.600,4308.2924,N,07726.2683,W,1,04,3.05,149.0,M,-34.4,M,,*57
$GPRMC,141200.600,A,4308.2924,N,07726.2683,W,0.17,113.64,020419,,,A*7C
$GPGGA,141200.800,4308.2925,N,07726.2682,W,1,04,3.05,148.6,M,-34.4,M,,*5E
$GPRMC,141200.800,A,4308.2925,N,07726.2682,W,0.14,89.78,020419,,,A*4E
$GPGGA,141201.000,4308.2924,N,07726.2681,W,1,04,3.05,148.4,M,-34.4,M,,*57
$GPRMC,141201.000,A,4308.2924,N,07726.2681,W,0.16,94.64,020419,,,A*46
$GPGGA,141201.200,4308.2923,N,07726.2680,W,1,04,3.06,148.2,M,-34.4,M,,*56
$GPRMC,141201.200,A,4308.2923,N,07726.2680,W,0.10,131.18,020419,,,A*71
$GPGGA,141201.400,4308.2922,N,07726.2679,W,1,04,3.05,148.2,M,-34.4,M,,*54
$GPRMC,141201.400,A,4308.2922,N,07726.2679,W,0.04,14.01,020419,,,A*4B
$GPGGA,141201.600,4308.2923,N,07726.2679,W,1,04,3.33,148.4,M,-34.4,M,,*54
$GPRMC,141201.600,A,4308.2923,N,07726.2679,W,0.15,1.59,020419,,,A*71
$GPGGA,141201.800,4308.2926,N,07726.2679,W,1,04,3.33,148.5,M,-34.4,M,,*5E
$GPRMC,141201.800,A,4308.2926,N,07726.2679,W,0.27,357.61,020419,,,A*70
$GPGGA,141202.000,4308.2928,N,07726.2679,W,1,04,3.33,148.7,M,-34.4,M,,*59
$GPRMC,141202.000,A,4308.2928,N,07726.2679,W,0.38,2.16,020419,,,A*78
$GPGGA,141202.200,4308.2932,N,07726.2679,W,1,04,3.33,149.0,M,-34.4,M,,*56
$GPRMC,141202.200,A,4308.2932,N,07726.2679,W,0.58,357.66,020419,,,A*73
$GPGGA,141202.400,4308.2934,N,07726.2678,W,1,04,3.33,149.2,M,-34.4,M,,*55
$GPRMC,141202.400,A,4308.2934,N,07726.2678,W,0.59,359.16,020419,,,A*7A
$GPGGA,141202.600,4308.2934,N,07726.2677,W,1,04,3.33,149.2,M,-34.4,M,,*58
$GPRMC,141202.600,A,4308.2934,N,07726.2677,W,0.46,355.36,020419
$GPGGA,141202.800,4308.2935,N,07726.2677,W,1,04,3.33,149.3,M,-34.4,M,,*56
$GPRMC,141202.800,A,4308.2935,N,07726.2677,W,0.44,354.45,020419,,,A*7F
$GPGGA,141203.000,4308.2935,N,07726.2676,W,1,04,3.33,149.4,M,-34.4,M,,*59
$GPRMC,141203.000,A,4308.2935,N,07726.2676,W,0.38,353.12,0204199
$GPGGA,141203.200,4308.2936,N,07726.2675,W,1,04,3.33,149.2,M,-34.4,M,,*5D
$GPRMC,141203.200,A,4308.2936,N,07726.2675,W,0.33,342.70,020419,,,A*74
$GPGGA,141203.400,4308.2937,N,07726.2675,W,1,04,3.05,148.8,M,-34.4,M,,*54
$GPRMC,141203.400,A,4308.2937,N,07726.2675,W,0.29,328.77,0204193
$GPGGA,141203.600,4308.2937,N,07726.2674,W,1,04,3.05,148.4,M,-34.4,M,,*5B
$GPRMC,141203.600,A,4308.2937,N,07726.2674,W,0.27,323.94,020419,,,A*78
$GPGGA,141203.800,4308.2938,N,07726.2674,W,1,04,3.06,148.1,M,-34.4,M,,*5C
$GPRMC,141203.800,A,4308.2938,N,07726.2674,W,0.31,327.38,020419,,,A*7C
$GPGGA,141204.000,4308.2939,N,07726.2673,W,1,04,3.05,148.0,M,-34.4,M,,*57
$GPRMC,141204.000,A,4308.2939,N,07726.2673,W,0.34,330.72,020419,,,A*78
$GPGGA,141204.200,4308.2940,N,07726.2673,W,1,04,3.05,148.0,M,-34.4,M,,*5B
$GPRMC,141204.200,A,4308.2940,N,07726.2673,W,0.39,330.59,020419,,,A*70
$GPGGA,141204.400,4308.2942,N,07726.2674,W,1,04,3.06,148.0,M,-34.4,M,,*5B
$GPRMC,141204.400,A,4308.2942,N,07726.2674,W,0.42,321.16,020419,,,A*74
$GPGGA,141204.600,4308.2943,N,07726.2673,W,1,04,3.06,147.9,M,-34.4,M,,*59
$GPRMC,141204.600,A,4308.2943,N,07726.2673,W,0.43,318.28,020419,,,A*76
$GPGGA,141204.800,4308.2944,N,07726.2673,W,1,04,3.05,147.8,M,-34.4,M,,*52
$GPRMC,141204.800,A,4308.2944,N,07726.2673,W,0.44,318.38,020419,,,A*79
$GPGGA,141205.000,4308.2944,N,07726.2673,W,1,04,3.05,147.7,M,-34.4,M,,*54
$GPRMC,141205.000,A,4308.2944,N,07726.2673,W,0.42,322.53,020419,,,A*72
$GPGGA,141205.200,4308.2945,N,07726.2673,W,1,04,3.06,147.5,M,-34.4,M,,*56
$GPRMC,141205.200,A,4308.2945,N,07726.2673,W,0.43,330.00,020419,,,A*75
$GPGGA,141205.400,4308.2946,N,07726.2672,W,1,04,3.06,147.3,M,-34.4,M,,*54
$GPRMC,141205.400,A,4308.2946,N,07726.2672,W,0.41,331.45,020419,,,A*73
$GPGGA,141205.600,4308.2947,N,07726.2671,W,1,04,3.06,146.8,M,-34.4,M,,*5E
$GPRMC,141205.600,A,4308.2947,N,07726.2671,W,0.32,328.57,020419,,,A*7C
$GPGGA,141205.800,4308.2947,N,07726.2670,W,1,04,3.05,146.2,M,-34.4,M,,*58
$GPRMC,141205.800,A,4308.2947,N,07726.2670,W,0.25,327.07,020419,,,A*7F
$GPGGA,141206.000,4308.2948,N,07726.2669,W,1,04,3.05,145.7,M,-34.4,M,,*52
$GPRMC,141206.000,A,4308.2948,N,07726.2669,W,0.22,345.05,020419,,,A*72
$GPGGA,141206.200,4308.2949,N,07726.2668,W,1,04,3.33,145.2,M,-34.4,M,,*50
$GPRMC,141206.200,A,4308.2949,N,07726.2668,W,0.28,12.11,020419,,,A*4E
$GPGGA,141206.400,4308.2950,N,07726.2667,W,1,04,3.33,144.8,M,-34.4,M,,*5A
$GPRMC,141206.400,A,4308.2950,N,07726.2667,W,0.38,23.30,020419,,,A*4F
$GPGGA,141206.600,4308.2951,N,07726.2666,W,1,04,3.06,144.4,M,-34.4,M,,*52
$GPRMC,141206.600,A,4308.2951,N,07726.2666,W,0.41,29.74,020419,,,A*49
$GPGGA,141206.800,4308.2951,N,07726.2666,W,1,04,3.06,144.3,M,-34.4,M,,*5B
$GPRMC,141206.800,A,4308.2951,N,07726.2666,W,0.38,32.74,020419,,,A*43
$GPGGA,141207.000,4308.2951,N,07726.2665,W,1,04,3.06,143.9,M,-34.4,M,,*5C
$GPRMC,141207.000,A,4308.2951,N,07726.2665,W,0.35,40.83,020419,,,A*49
$GPGGA,141207.200,4308.2951,N,07726.2664,W,1,04,3.06,143.5,M,-34.4,M,,*53
$GPRMC,141207.200,A,4308.2951,N,07726.2664,W,0.32,41.41,020419,,,A*42
$GPGGA,141207.400,4308.2952,N,07726.2664,W,1,04,3.06,143.2,M,-34.4,M,,*51
$GPRMC,141207.400,A,4308.2952,N,07726.2664,W,0.31,44.21,020419,,,A*47
$GPGGA,141207.600,4308.2953,N,07726.2664,W,1,04,3.05,143.0,M,-34.4,M,,*53
$GPRMC,141207.600,A,4308.2953,N,07726.2664,W,0.35,37.26,020419,,,A*43
$GPGGA,141207.800,4308.2954,N,07726.2663,W,1,04,3.06,142.7,M,-34.4,M,,*58
$GPRMC,141207.800,A,4308.2954,N,07726.2663,W,0.35,38.55,020419,,,A*46
$GPGGA,141208.000,4308.2955,N,07726.2663,W,1,04,3.05,142.5,M,-34.4,M,,*5F
$GPRMC,141208.000,A,4308.2955,N,07726.2663,W,0.32,38.66,020419
$GPGGA,141208.200,4308.2955,N,07726.2662,W,1,04,3.05,142.4,M,-34.4,M,,*5D
$GPRMC,141208.200,A,4308.2955,N,07726.2662,W,0.30,43.56,020419,,,A*49
$GPGGA,141208.400,4308.2956,N,07726.2661,W,1,04,3.06,142.3,M,-34.4,M,,*5F
$GPRMC,141208.400,A,4308.2956,N,07726.2661,W,0.28,35.66,020419,
$GPGGA,141208.600,4308.2958,N,07726.2661,W,1,04,3.05,142.4,M,-34.4,M,,*57
$GPRMC,141208.600,A,4308.2958,N,07726.2661,W,0.35,10.27,020419,,,A*46
$GPGGA,141208.800,4308.2959,N,07726.2661,W,1,04,3.33,142.4,M,-34.4,M,,*5D
$GPRMC,141208.800,A,4308.2959,N,07726.2661,W,0.37,7.44,020419,
$GPGGA,141209.000,4308.2960,N,07726.2661,W,1,04,3.33,142.0,M,-34.4,M,,*5A
$GPRMC,141209.000,A,4308.2960,N,07726.2661,W,0.34,0.62,020419,,,A*7B
$GPGGA,141209.200,4308.2960,N,07726.2661,W,1,04,3.34,141.9,M,-34.4,M,,*55
$GPRMC,141209.200,A,4308.2960,N,07726.2661,W,0.27,2.36,020419,,,A*78
$GPGGA,141209.400,4308.2960,N,07726.2660,W,1,04,3.33,141.9,M,-34.4,M,,*55
$GPRMC,141209.400,A,4308.2960,N,07726.2660,W,0.22,10.40,020419,,,A*48
$GPGGA,141209.600,4308.2960,N,07726.2660,W,1,04,3.33,141.9,M,-34.4,M,,*57
$GPRMC,141209.600,A,4308.2960,N,07726.2660,W,0.18,21.90,020419,,,A*4C
$GPGGA,141209.800,4308.2960,N,07726.2660,W,1,04,3.06,141.9,M,-34.4,M,,*5F
$GPRMC,141209.800,A,4308.2960,N,07726.2660,W,0.17,24.73,020419,,,A*45
$GPGGA,141210.000,4308.2960,N,07726.2660,W,1,04,3.06,141.8,M,-34.4,M,,*5E
$GPRMC,141210.000,A,4308.2960,N,07726.2660,W,0.18,23.21,020419,,,A*4A
$GPGGA,141210.200,4308.2961,N,07726.2659,W,1,04,3.06,141.8,M,-34.4,M,,*57
$GPRMC,141210.200,A,4308.2961,N,07726.2659,W,0.16,23.61,020419,,,A*49
$GPGGA,141210.400,4308.2961,N,07726.2659,W,1,04,3.06,141.6,M,-34.4,M,,*5F
$GPRMC,141210.400,A,4308.2961,N,07726.2659,W,0.11,23.41,020419,,,A*4A
$GPGGA,141210.600,4308.2962,N,07726.2659,W,1,04,3.06,141.5,M,-34.4,M,,*5D
$GPRMC,141210.600,A,4308.2962,N,07726.2659,W,0.10,23.17,020419,,,A*49
$GPGGA,141210.800,4308.2962,N,07726.2659,W,1,04,3.06,141.5,M,-34.4,M,,*53
$GPRMC,141210.800,A,4308.2962,N,07726.2659,W,0.09,14.87,020419,,,A*42
$GPGGA,141211.000,4308.2963,N,07726.2659,W,1,04,3.34,141.5,M,-34.4,M,,*5A
$GPRMC,141211.000,A,4308.2963,N,07726.2659,W,0.08,7.74,020419,,,A*75
$GPGGA,141211.200,4308.2963,N,07726.2658,W,1,04,3.34,141.5,M,-34.4,M,,*59
$GPRMC,141211.200,A,4308.2963,N,07726.2658,W,0.08,0.98,020419,,,A*73
$GPGGA,141211.400,4308.2963,N,07726.2658,W,1,04,3.34,141.5,M,-34.4,M,,*5F
$GPRMC,141211.400,A,4308.2963,N,07726.2658,W,0.07,352.67,020419,,,A*7E
$GPGGA,141211.600,4308.2964,N,07726.2658,W,1,04,3.34,141.5,M,-34.4,M,,*5A
$GPRMC,141211.600,A,4308.2964,N,07726.2658,W,0.09,356.06,020419,,,A*76
$GPGGA,141211.800,4308.2964,N,07726.2658,W,1,04,3.34,141.5,M,-34.4,M,,*54
$GPRMC,141211.800,A,4308.2964,N,07726.2658,W,0.11,357.66,020419,,,A*76
$GPGGA,141212.000,4308.2965,N,07726.2658,W,1,04,3.33,141.4,M,-34.4,M,,*58
$GPRMC,141212.000,A,4308.2965,N,07726.2658,W,0.14,359.57,020419,,,A*75
$GPGGA,141212.200,4308.2966,N,07726.2658,W,1,04,3.34,141.3,M,-34.4,M,,*59
$GPRMC,141212.200,A,4308.2966,N,07726.2658,W,0.18,1.54,020419,,,A*75
$GPGGA,141212.400,4308.2966,N,07726.2658,W,1,04,3.34,141.3,M,-34.4,M,,*5F
$GPRMC,141212.400,A,4308.2966,N,07726.2658,W,0.21,0.73,020419,,,A*7D
$GPGGA,141212.600,4308.2967,N,07726.2658,W,1,04,3.34,141.2,M,-34.4,M,,*5D
$GPRMC,141212.600,A,4308.2967,N,07726.2658,W,0.20,359.28,020419
$GPGGA,141212.800,4308.2967,N,07726.2658,W,1,04,3.34,141.2,M,-34.4,M,,*53
$GPRMC,141212.800,A,4308.2967,N,07726.2658,W,0.21,1.54,020419,,,A*74
$GPGGA,141213.000,4308.2967,N,07726.2658,W,1,04,3.34,141.2,M,-34.4,M,,*5A
$GPRMC,141213.000,A,4308.2967,N,07726.2658,W,0.20,3.52,020419,
$GPGGA,141213.200,4308.2967,N,07726.2658,W,1,04,3.34,141.2,M,-34.4,M,,*58
$GPRMC,141213.200,A,4308.2967,N,07726.2658,W,0.17,359.61,020419,,,A*72
$GPGGA,141213.400,4308.2967,N,07726.2658,W,1,04,3.34,141.1,M,-34.4,M,,*5D
$GPRMC,141213.400,A,4308.2967,N,07726.2658,W,0.17,353.35,020419F
$GPGGA,141213.600,4308.2967,N,07726.2658,W,1,04,3.34,141.1,M,-34.4,M,,*5F
$GPRMC,141213.600,A,4308.2967,N,07726.2658,W,0.19,344.24,020419,,,A*75
$GPGGA,141213.800,4308.2968,N,07726.2658,W,1,04,3.06,141.1,M,-34.4,M,,*5F
$GPRMC,141213.800,A,4308.2968,N,07726.2658,W,0.21,342.28,020419,,,A*75
$GPGGA,141214.000,4308.2969,N,07726.2658,W,1,04,3.06,141.1,M,-34.4,M,,*51
$GPRMC,141214.000,A,4308.2969,N,07726.2658,W,0.23,349.20,020419,,,A*7A
$GPGGA,141214.200,4308.2970,N,07726.2658,W,1,04,3.34,141.2,M,-34.4,M,,*59
$GPRMC,141214.200,A,4308.2970,N,07726.2658,W,0.24,353.81,020419,,,A*77
$GPGGA,141214.400,4308.2970,N,07726.2658,W,1,04,3.34,141.3,M,-34.4,M,,*5E
$GPRMC,141214.400,A,4308.2970,N,07726.2658,W,0.23,351.00,020419,,,A*7D
$GPGGA,141214.600,4308.2970,N,07726.2658,W,1,04,3.34,141.3,M,-34.4,M,,*5C
$GPRMC,141214.600,A,4308.2970,N,07726.2658,W,0.28,358.71,020419,,,A*7B
$GPGGA,141214.800,4308.2971,N,07726.2658,W,1,04,3.34,141.4,M,-34.4,M,,*54
$GPRMC,141214.800,A,4308.2971,N,07726.2658,W,0.30,0.94,020419,,,A*78
$GPGGA,141215.000,4308.2971,N,07726.2657,W,1,04,3.34,141.4,M,-34.4,M,,*52
$GPRMC,141215.000,A,4308.2971,N,07726.2657,W,0.31,6.11,020419,,,A*74
$GPGGA,141215.200,4308.2972,N,07726.2657,W,1,04,3.34,141.4,M,-34.4,M,,*53
$GPRMC,141215.200,A,4308.2972,N,07726.2657,W,0.34,6.09,020419,,,A*79
$GPGGA,141215.400,4308.2972,N,07726.2657,W,1,04,3.34,141.4,M,-34.4,M,,*55
$GPRMC,141215.400,A,4308.2972,N,07726.2657,W,0.38,6.23,020419,,,A*7B
$GPGGA,141215.600,4308.2973,N,07726.2657,W,1,04,3.34,141.5,M,-34.4,M,,*57
$GPRMC,141215.600,A,4308.2973,N,07726.2657,W,0.41,9.56,020419,,,A*7B
$GPGGA,141215.800,4308.2973,N,07726.2657,W,1,04,3.34,141.5,M,-34.4,M,,*59
$GPRMC,141215.800,A,4308.2973,N,07726.2657,W,0.41,10.16,020419,,,A*49
$GPGGA,141216.000,4308.2973,N,07726.2657,W,1,04,3.34,141.5,M,-34.4,M,,*52
$GPRMC,141216.000,A,4308.2973,N,07726.2657,W,0.36,6.61,020419,,,A*75
$GPGGA,141216.200,4308.2972,N,07726.2658,W,1,04,3.34,141.6,M,-34.4,M,,*5D
$GPRMC,141216.200,A,4308.2972,N,07726.2658,W,0.32,0.96,020419,,,A*73
$GPGGA,141216.400,4308.2973,N,07726.2659,W,1,04,3.34,141.6,M,-34.4,M,,*5B
$GPRMC,141216.400,A,4308.2973,N,07726.2659,W,0.33,350.10,020419,,,A*7C
$GPGGA,141216.600,4308.2973,N,07726.2659,W,1,04,3.34,141.7,M,-34.4,M,,*58
$GPRMC,141216.600,A,4308.2973,N,07726.2659,W,0.32,345.79,020419,,,A*74
$GPGGA,141216.800,4308.2973,N,07726.2659,W,1,04,3.34,141.7,M,-34.4,M,,*56
$GPRMC,141216.800,A,4308.2973,N,07726.2659,W,0.31,345.21,020419,,,A*74
$GPGGA,141217.000,4308.2973,N,07726.2659,W,1,04,3.34,141.8,M,-34.4,M,,*50
$GPRMC,141217.000,A,4308.2973,N,07726.2659,W,0.28,357.08,020419,,,A*7D
$GPGGA,141217.200,4308.2973,N,07726.2658,W,1,04,3.34,141.8,M,-34.4,M,,*53
$GPRMC,141217.200,A,4308.2973,N,07726.2658,W,0.27,7.40,020419,,,A*7B
$GPGGA,141217.400,4308.2973,N,07726.2658,W,1,04,3.34,141.9,M,-34.4,M,,*54
$GPRMC,141217.400,A,4308.2973,N,07726.2658,W,0.25,15.61,020419,,,A*4F
$GPGGA,141217.600,4308.2973,N,07726.2658,W,1,04,3.06,141.9,M,-34.4,M,,*57
$GPRMC,141217.600,A,4308.2973,N,07726.2658,W,0.22,20.69,020419
$GPGGA,141217.800,4308.2972,N,07726.2658,W,1,04,3.06,141.9,M,-34.4,M,,*58
$GPRMC,141217.800,A,4308.2972,N,07726.2658,W,0.18,17.18,020419,,,A*40
$GPGGA,141218.000,4308.2973,N,07726.2658,W,1,04,3.06,142.0,M,-34.4,M,,*54
$GPRMC,141218.000,A,4308.2973,N,07726.2658,W,0.18,21.40,020419,
$GPGGA,141218.200,4308.2973,N,07726.2657,W,1,04,3.06,142.0,M,-34.4,M,,*59
$GPRMC,141218.200,A,4308.2973,N,07726.2657,W,0.22,27.09,020419,,,A*41
$GPGGA,141218.400,4308.2974,N,07726.2657,W,1,04,3.06,142.0,M,-34.4,M,,*58
$GPRMC,141218.400,A,4308.2974,N,07726.2657,W,0.24,30.55,020419,
$GPGGA,141218.600,4308.2974,N,07726.2657,W,1,04,3.06,142.1,M,-34.4,M,,*5B
$GPRMC,141218.600,A,4308.2974,N,07726.2657,W,0.23,35.04,020419,,,A*4D
$GPGGA,141218.800,4308.2974,N,07726.2657,W,1,04,3.06,142.1,M,-34.4,M,,*55
$GPRMC,141218.800,A,4308.2974,N,07726.2657,W,0.23,36.99,020419,,,A*44
$GPGGA,141219.000,4308.2974,N,07726.2656,W,1,04,3.06,142.1,M,-34.4,M,,*5D
$GPRMC,141219.000,A,4308.2974,N,07726.2656,W,0.24,41.19,020419,,,A*43
$GPGGA,141219.200,4308.2975,N,07726.2656,W,1,04,3.06,142.1,M,-34.4,M,,*5E
$GPRMC,141219.200,A,4308.2975,N,07726.2656,W,0.24,42.47,020419,,,A*48
$GPGGA,141219.400,4308.2975,N,07726.2656,W,1,04,3.06,142.1,M,-34.4,M,,*58
$GPRMC,141219.400,A,4308.2975,N,07726.2656,W,0.25,41.88,020419,,,A*4F
$GPGGA,141219.600,4308.2975,N,07726.2656,W,1,04,3.06,142.1,M,-34.4,M,,*5A
$GPRMC,141219.600,A,4308.2975,N,07726.2656,W,0.25,42.93,020419,,,A*44
$GPGGA,141219.800,4308.2975,N,07726.2656,W,1,04,3.06,142.1,M,-34.4,M,,*54
$GPRMC,141219.800,A,4308.2975,N,07726.2656,W,0.27,45.28,020419,,,A*4F
$GPGGA,141220.000,4308.2975,N,07726.2655,W,1,04,3.06,142.1,M,-34.4,M,,*55
$GPRMC,141220.000,A,4308.2975,N,07726.2655,W,0.29,44.08,020419,,,A*43
$GPGGA,141220.200,4308.2975,N,07726.2655,W,1,04,3.06,142.2,M,-34.4,M,,*54
$GPRMC,141220.200,A,4308.2975,N,07726.2655,W,0.30,46.52,020419,,,A*44
$GPGGA,141220.400,4308.2974,N,07726.2655,W,1,04,3.06,142.2,M,-34.4,M,,*53
$GPRMC,141220.400,A,4308.2974,N,07726.2655,W,0.27,51.35,020419,,,A*42
$GPGGA,141220.600,4308.2973,N,07726.2655,W,1,04,3.06,142.2,M,-34.4,M,,*56
$GPRMC,141220.600,A,4308.2973,N,07726.2655,W,0.19,68.65,020419,,,A*45
$GPGGA,141220.800,4308.2972,N,07726.2655,W,1,04,3.06,142.2,M,-34.4,M,,*59
$GPRMC,141220.800,A,4308.2972,N,07726.2655,W,0.19,74.64,020419,,,A*46
$GPGGA,141221.000,4308.2972,N,07726.2654,W,1,04,3.06,142.2,M,-34.4,M,,*51
$GPRMC,141221.000,A,4308.2972,N,07726.2654,W,0.24,78.38,020419,,,A*45
$GPGGA,141221.200,4308.2971,N,07726.2654,W,1,04,3.06,142.2,M,-34.4,M,,*50
$GPRMC,141221.200,A,4308.2971,N,07726.2654,W,0.27,87.17,020419,,,A*4A
$GPGGA,141221.400,4308.2972,N,07726.2654,W,1,04,3.06,142.3,M,-34.4,M,,*54
$GPRMC,141221.400,A,4308.2972,N,07726.2654,W,0.25,70.58,020419,,,A*4E
$GPGGA,141221.600,4308.2972,N,07726.2654,W,1,04,3.06,142.3,M,-34.4,M,,*56
$GPRMC,141221.600,A,4308.2972,N,07726.2654,W,0.27,61.06,020419,,,A*45
$GPGGA,141221.800,4308.2972,N,07726.2654,W,1,04,3.06,142.3,M,-34.4,M,,*58
$GPRMC,141221.800,A,4308.2972,N,07726.2654,W,0.27,55.06,020419,,,A*4C
$GPGGA,141222.000,4308.2973,N,07726.2654,W,1,04,3.06,142.3,M,-34.4,M,,*52
$GPRMC,141222.000,A,4308.2973,N,07726.2654,W,0.27,45.68,020419,,,A*4F
$GPGGA,141222.200,4308.2972,N,07726.2654,W,1,04,3.06,142.4,M,-34.4,M,,*56
$GPRMC,141222.200,A,4308.2972,N,07726.2654,W,0.26,41.64,020419
$GPGGA,141222.400,4308.2972,N,07726.2654,W,1,04,3.06,142.4,M,-34.4,M,,*50
$GPRMC,141222.400,A,4308.2972,N,07726.2654,W,0.24,30.49,020419,,,A*48
$GPGGA,141222.600,4308.2969,N,07726.2655,W,1,04,3.06,142.5,M,-34.4,M,,*58
$GPRMC,141222.600,A,4308.2969,N,07726.2655,W,0.10,14.80,020419,
$GPGGA,141222.800,4308.2968,N,07726.2655,W,1,04,3.34,142.8,M,-34.4,M,,*5B
$GPRMC,141222.800,A,4308.2968,N,07726.2655,W,0.07,16.70,020419,,,A*41
$GPGGA,141223.000,4308.2967,N,07726.2655,W,1,04,3.06,143.0,M,-34.4,M,,*55
$GPRMC,141223.000,A,4308.2967,N,07726.2655,W,0.09,44.05,020419,
$GPGGA,141223.200,4308.2967,N,07726.2655,W,1,04,3.06,143.2,M,-34.4,M,,*55
$GPRMC,141223.200,A,4308.2967,N,07726.2655,W,0.12,60.61,020419,,,A*40
$GPGGA,141223.400,4308.2966,N,07726.2654,W,1,04,3.06,143.4,M,-34.4,M,,*55
$GPRMC,141223.400,A,4308.2966,N,07726.2654,W,0.19,63.95,020419,,,A*45
$GPGGA,141223.600,4308.2968,N,07726.2654,W,1,04,3.06,143.6,M,-34.4,M,,*5B
$GPRMC,141223.600,A,4308.2968,N,07726.2654,W,0.32,42.16,020419,,,A*48
$GPGGA,141223.800,4308.2967,N,07726.2654,W,1,04,3.06,143.7,M,-34.4,M,,*5B
$GPRMC,141223.800,A,4308.2967,N,07726.2654,W,0.32,40.09,020419,,,A*45
$GPGGA,141224.000,4308.2966,N,07726.2655,W,1,04,3.06,143.9,M,-34.4,M,,*5A
$GPRMC,141224.000,A,4308.2966,N,07726.2655,W,0.32,32.54,020419,,,A*47
$GPGGA,141224.200,4308.2966,N,07726.2655,W,1,04,3.06,144.0,M,-34.4,M,,*56
$GPRMC,141224.200,A,4308.2966,N,07726.2655,W,0.30,18.49,020419,,,A*43
$GPGGA,141224.400,4308.2965,N,07726.2656,W,1,04,3.06,144.1,M,-34.4,M,,*51
$GPRMC,141224.400,A,4308.2965,N,07726.2656,W,0.27,14.49,020419,,,A*4F
$GPGGA,141224.600,4308.2965,N,07726.2656,W,1,04,3.34,144.2,M,-34.4,M,,*51
$GPRMC,141224.600,A,4308.2965,N,07726.2656,W,0.27,16.65,020419,,,A*41
$GPGGA,141224.800,4308.2965,N,07726.2656,W,1,04,3.06,144.3,M,-34.4,M,,*5F
$GPRMC,141224.800,A,4308.2965,N,07726.2656,W,0.30,13.33,020419,,,A*4F
$GPGGA,141225.000,4308.2964,N,07726.2657,W,1,04,3.34,144.4,M,-34.4,M,,*50
$GPRMC,141225.000,A,4308.2964,N,07726.2657,W,0.32,11.40,020419,,,A*42
$GPGGA,141225.200,4308.2964,N,07726.2657,W,1,04,3.34,144.6,M,-34.4,M,,*50
$GPRMC,141225.200,A,4308.2964,N,07726.2657,W,0.36,22.65,020419,,,A*43
$GPGGA,141225.400,4308.2963,N,07726.2657,W,1,04,3.06,144.7,M,-34.4,M,,*51
$GPRMC,141225.400,A,4308.2963,N,07726.2657,W,0.36,31.00,020419,,,A*43
$GPGGA,141225.600,4308.2961,N,07726.2656,W,1,04,3.06,144.7,M,-34.4,M,,*50
$GPRMC,141225.600,A,4308.2961,N,07726.2656,W,0.33,68.32,020419,,,A*4A
$GPGGA,141225.800,4308.2958,N,07726.2656,W,1,04,3.06,144.8,M,-34.4,M,,*5B
$GPRMC,141225.800,A,4308.2958,N,07726.2656,W,0.29,91.53,020419,,,A*44
$GPGGA,141226.000,4308.2956,N,07726.2656,W,1,04,3.06,144.9,M,-34.4,M,,*5F
$GPRMC,141226.000,A,4308.2956,N,07726.2656,W,0.32,119.15,020419,,,A*78
$GPGGA,141226.200,4308.2954,N,07726.2656,W,1,04,3.06,144.9,M,-34.4,M,,*5F
$GPRMC,141226.200,A,4308.2954,N,07726.2656,W,0.33,129.33,020419,,,A*7E
$GPGGA,141226.400,4308.2953,N,07726.2656,W,1,04,3.06,145.0,M,-34.4,M,,*56
$GPRMC,141226.400,A,4308.2953,N,07726.2656,W,0.36,122.45,020419,,,A*70
$GPGGA,141226.600,4308.2953,N,07726.2655,W,1,04,3.06,145.1,M,-34.4,M,,*56
$GPRMC,141226.600,A,4308.2953,N,07726.2655,W,0.44,112.10,020419,,,A*77
$GPGGA,141226.800,4308.2953,N,07726.2655,W,1,04,3.06,145.1,M,-34.4,M,,*58
$GPRMC,141226.800,A,4308.2953,N,07726.2655,W,0.42,110.63,020419,,,A*79
$GPGGA,141227.000,4308.2952,N,07726.2655,W,1,03,3.61,145.2,M,-34.4,M,,*55
$GPRMC,141227.000,A,4308.2952,N,07726.2655,W,0.41,108.33,020419,,,A*7E
$GPGGA,141227.200,4308.2952,N,07726.2655,W,1,03,3.61,145.3,M,-34.4,M,,*56
$GPRMC,141227.200,A,4308.2952,N,07726.2655,W,0.38,97.81,020419,$GPGGA,141227.400,4308.2953,N,07726.2655,W,1,03,3.61,145.3,M,-34.4,M,,*51
$GPRMC,141227.600,A,4308.2954,N,07726.2654,W,0.36,64.09,020419,,,A*4D
$GPGGA,141227.800,4308.2953,N,07726.2654,W,1,04,3.06,145.4,M,-34.4,M,,*5D
$GPRMC,141228.000,A,4308.2954,N,07726.2654,W,0.37,54.74,020419,,,A*4C
$GPGGA,141228.200,4308.2955,N,07726.2654,W,1,04,3.06,145.5,M,-34.4,M,,*5F
$GPRMC,141228.400,A,4308.2956,N,07726.2654,W,0.46,21.77,020419,,,A*4D
$GPGGA,141228.600,4308.2956,N,07726.2654,W,1,04,3.06,145.6,M,-34.4,M,,*5B
$GPRMC,141228.800,A,4308.2956,N,07726.2654,W,0.54,26.13,020419,,,A*47
$GPGGA,141229.000,4308.2955,N,07726.2654,W,1,04,3.06,145.6,M,-34.4,M,,*5F
$GPRMC,141229.200,A,4308.2955,N,07726.2653,W,0.52,35.25,020419,,,A*49
$GPGGA,141229.400,4308.2956,N,07726.2653,W,1,03,3.61,145.7,M,-34.4,M,,*58
$GPRMC,141229.600,A,4308.2957,N,07726.2652,W,0.70,35.82,020419,,,A*43
$GPGGA,141229.800,4308.2957,N,07726.2652,W,1,04,3.06,145.7,M,-34.4,M,,*52
$GPRMC,141230.000,A,4308.2957,N,07726.2652,W,0.75,32.09,020419,,,A*4C
$GPGGA,141230.200,4308.2958,N,07726.2652,W,1,04,3.06,145.8,M,-34.4,M,,*50
$GPRMC,141230.400,A,4308.2958,N,07726.2651,W,0.82,33.16,020419,,,A*43
$GPGGA,141230.600,4308.2960,N,07726.2652,W,1,04,3.06,145.8,M,-34.4,M,,*5F
$GPRMC,141230.800,A,4308.2962,N,07726.2652,W,0.98,22.97,020419,,,A*47
$GPGGA,141231.000,4308.2963,N,07726.2652,W,1,04,3.06,145.8,M,-34.4,M,,*5B
$GPRMC,141231.200,A,4308.2965,N,07726.2652,W,1.40,14.19,020419,,,A*4C
$GPGGA,141231.400,4308.2968,N,07726.2651,W,1,04,3.35,145.8,M,-34.4,M,,*57
$GPRMC,141231.600,A,4308.2970,N,07726.2651,W,1.78,12.22,020419,,,A*4A
$GPGGA,141231.800,4308.2972,N,07726.2651,W,1,04,3.35,145.7,M,-34.4,M,,*5F
$GPRMC,141232.000,A,4308.2976,N,07726.2651,W,2.07,11.28,020419,,,A*4B
$GPGGA,141232.200,4308.2978,N,07726.2652,W,1,04,3.35,145.6,M,-34.4,M,,*5E
$GPRMC,141232.400,A,4308.2981,N,07726.2652,W,2.76,10.01,020419,,,A*48
$GPGGA,141232.600,4308.2984,N,07726.2652,W,1,04,3.35,145.5,M,-34.4,M,,*5A
$GPRMC,141232.800,A,4308.2986,N,07726.2652,W,3.26,7.87,020419,,,A*7F
$GPGGA,141233.000,4308.2989,N,07726.2652,W,1,04,3.35,145.5,M,-34.4,M,,*50
$GPRMC,141233.200,A,4308.2992,N,07726.2652,W,3.73,6.67,020419,,,A*7E
$GPGGA,141233.400,4308.2994,N,07726.2651,W,1,04,3.35,145.4,M,-34.4,M,,*5A
$GPRMC,141233.600,A,4308.2996,N,07726.2651,W,3.63,6.88,020419,,,A*7D
$GPGGA,141233.800,4308.2999,N,07726.2651,W,1,04,3.35,145.4,M,-34.4,M,,*5B
$GPRMC,141234.000,A,4308.3002,N,07726.2651,W,4.01,5.31,020419,,,A*7B
$GPGGA,141234.200,4308.3005,N,07726.2651,W,1,04,3.35,145.4,M,-34.4,M,,*5B
$GPRMC,141234.400,A,4308.3008,N,07726.2651,W,4.31,4.97,020419,,,A*7B
$GPGGA,141234.600,4308.3011,N,07726.2651,W,1,04,3.35,145.4,M,-34.4,M,,*5A
$GPRMC,141234.800,A,4308.3014,N,07726.2650,W,4.47,5.58,020419,,,A*78
$GPGGA,141235.000,4308.3017,N,07726.2650,W,1,04,3.35,145.3,M,-34.4,M,,*5D
$GPRMC,141235.200,A,4308.3019,N,07726.2650,W,4.23,8.03,020419,,,A*7F
$GPGGA,141235.400,4308.3022,N,07726.2649,W,1,04,3.35,145.4,M,-34.4,M,,*50
$GPRMC,141235.600,A,4308.3024,N,07726.2649,W,4.18,10.51,020419,,,A*4B
$GPGGA,141235.800,4308.3026,N,07726.2648,W,1,04,3.35,145.3,M,-34.4,M,,*5E
$GPRMC,141236.000,A,4308.3029,N,07726.2648,W,4.07,11.82,020419,,,A*43
$GPGGA,141236.200,4308.3031,N,07726.2648,W,1,04,3.35,145.3,M,-34.4,M,,*51
$GPRMC,141236.400,A,4308.3032,N,07726.2647,W,3.66,15.89,020419,,,A*4D
$GPGGA,141236.600,4308.3034,N,07726.2646,W,1,04,3.06,145.3,M,-34.4,M,,*5E
$GPRMC,141236.800,A,4308.3036,N,07726.2645,W,4.23,21.68,020419,,,A*49
$GPGGA,141237.000,4308.3038,N,07726.2644,W,1,04,3.06,145.3,M,-34.4,M,,*57
$GPRMC,141237.200,A,4308.3040,N,07726.2643,W,3.85,17.20,020419,,,A*47
$GPGGA,141237.400,4308.3043,N,07726.2642,W,1,04,3.06,145.3,M,-34.4,M,,*59
$GPRMC,141237.600,A,4308.3044,N,07726.2640,W,3.92,24.29,020419,,,A*4B
$GPGGA,141237.800,4308.3046,N,07726.2639,W,1,04,3.06,145.4,M,-34.4,M,,*5B
$GPRMC,141238.000,A,4308.3048,N,07726.2637,W,4.16,32.00,020419,,,A*49
$GPGGA,141238.200,4308.3049,N,07726.2635,W,1,04,3.06,145.4,M,-34.4,M,,*5D
$GPRMC,141238.400,A,4308.3051,N,07726.2633,W,3.89,40.71,020419,,,A*43
$GPGGA,141238.600,4308.3051,N,07726.2630,W,1,03,3.62,145.3,M,-34.4,M,,*57
$GPRMC,141238.800,A,4308.3052,N,07726.2628,W,3.24,53.69,020419,,,A*4A
$GPGGA,141239.000,4308.3053,N,07726.2626,W,1,04,3.06,145.3,M,-34.4,M,,*50
$GPRMC,141239.200,A,4308.3054,N,07726.2624,W,3.50,58.18,020419,,,A*45
$GPGGA,141239.400,4308.3055,N,07726.2621,W,1,04,3.06,145.3,M,-34.4,M,,*55
$GPRMC,141239.600,A,4308.3056,N,07726.2619,W,3.22,61.57,020419,,,A*49
$GPGGA,141239.800,4308.3057,N,07726.2617,W,1,04,3.06,145.3,M,-34.4,M,,*5E
$GPRMC,141240.000,A,4308.3057,N,07726.2615,W,2.86,73.84,020419,,,A*4E
$GPGGA,141240.200,4308.3057,N,07726.2613,W,1,04,3.06,145.3,M,-34.4,M,,*5E
$GPRMC,141240.400,A,4308.3058,N,07726.2611,W,1.83,79.47,020419,,,A*42
$GPGGA,141240.600,4308.3058,N,07726.2610,W,1,04,3.06,145.2,M,-34.4,M,,*57
$GPRMC,141240.800,A,4308.3058,N,07726.2609,W,1.28,79.85,020419,,,A*48
$GPGGA,141241.000,4308.3058,N,07726.2608,W,1,04,3.06,145.2,M,-34.4,M,,*59
$GPRMC,141241.200,A,4308.3058,N,07726.2608,W,0.79,63.40,020419,,,A*45
$GPGGA,141241.400,4308.3059,N,07726.2609,W,1,04,3.06,145.2,M,-34.4,M,,*5D
$GPRMC,141241.600,A,4308.3060,N,07726.2610,W,0.74,4.30,020419,,,A*78
$GPGGA,141241.800,4308.3061,N,07726.2611,W,1,04,3.36,145.1,M,-34.4,M,,*53
$GPRMC,141242.000,A,4308.3062,N,07726.2613,W,1.09,327.16,020419,,,A*71
$GPGGA,141242.200,4308.3062,N,07726.2614,W,1,04,3.06,145.1,M,-34.4,M,,*5F
$GPRMC,141242.400,A,4308.3063,N,07726.2616,W,1.57,310.34,020419,,,A*7E
$GPGGA,141242.600,4308.3063,N,07726.2619,W,1,04,3.07,145.1,M,-34.4,M,,*56
$GPRMC,141242.800,A,4308.3063,N,07726.2621,W,2.76,286.89,020419,,,A*7E
$GPGGA,141243.000,4308.3063,N,07726.2625,W,1,04,3.06,145.1,M,-34.4,M,,*5F
$GPRMC,141243.200,A,4308.3063,N,07726.2629,W,4.44,282.00,020419,,,A*7F
$GPGGA,141243.400,4308.3063,N,07726.2634,W,1,04,3.06,145.1,M,-34.4,M,,*5B
$GPRMC,141243.600,A,4308.3063,N,07726.2641,W,6.53,280.75,020419,,,A*71
$GPGGA,141243.800,4308.3063,N,07726.2647,W,1,04,3.06,145.1,M,-34.4,M,,*53
$GPRMC,141244.000,A,4308.3063,N,07726.2654,W,8.04,277.76,020419,,,A*73
$GPGGA,141244.200,4308.3064,N,07726.2661,W,1,04,3.07,145.2,M,-34.4,M,,*5F
$GPRMC,141244.400,A,4308.3064,N,07726.2671,W,9.25,280.92,020419,,,A*77
$GPGGA,141244.600,4308.3065,N,07726.2678,W,1,04,3.36,145.2,M,-34.4,M,,*50
$GPRMC,141244.800,A,4308.3065,N,07726.2685,W,9.35,277.31,020419,,,A*71
$GPGGA,141245.000,4308.3065,N,07726.2693,W,1,04,3.06,145.3,M,-34.4,M,,*50
$GPRMC,141245.200,A,4308.3065,N,07726.2702,W,10.16,273.91,020419,,,A*43
$GPGGA,141245.400,4308.3067,N,07726.2712,W,1,04,3.06,145.4,M,-34.4,M,,*59
$GPRMC,141245.600,A,4308.3069,N,07726.2723,W,12.34,277.93,020419,,,A*4C
$GPGGA,141245.800,4308.3071,N,07726.2733,W,1,04,3.06,145.5,M,-34.4,M,,*50
$GPRMC,141246.000,A,4308.3073,N,07726.2744,W,13.48,279.19,020419,,,A*45
$GPGGA,141246.200,4308.3075,N,07726.2755,W,1,04,3.07,145.5,M,-34.4,M,,*5C
$GPRMC,141246.400,A,4308.3078,N,07726.2767,W,14.93,280.81,020419,,,A*4D
$GPGGA,141246.600,4308.3080,N,07726.2779,W,1,04,3.36,145.6,M,-34.4,M,,*5D
$GPRMC,141246.800,A,4308.3082,N,07726.2791,W,15.83,281.03,020419,,,A*46
$GPGGA,141247.000,4308.3084,N,07726.2804,W,1,04,3.06,145.7,M,-34.4,M,,*59
$GPRMC,141247.200,A,4308.3086,N,07726.2817,W,16.77,280.62,020419,,,A*46
$GPGGA,141247.400,4308.3088,N,07726.2829,W,1,04,3.07,145.8,M,-34.4,M,,*50
$GPRMC,141247.600,A,4308.3090,N,07726.2842,W,16.85,280.47,020419,,,A*4F
$GPGGA,141247.800,4308.3092,N,07726.2855,W,1,04,3.07,145.9,M,-34.4,M,,*5D
$GPRMC,141248.000,A,4308.3095,N,07726.2867,W,16.90,281.24,020419,,,A*44
$GPGGA,141248.200,4308.3097,N,07726.2879,W,1,04,3.07,146.0,M,-34.4,M,,*59
$GPRMC,141248.400,A,4308.3100,N,07726.2892,W,17.21,281.78,020419,,,A*45
$GPGGA,141248.600,4308.3103,N,07726.2905,W,1,04,3.07,146.1,M,-34.4,M,,*5A
$GPRMC,141248.800,A,4308.3108,N,07726.2917,W,16.83,285.47,020419,,,A*4C
$GPGGA,141249.000,4308.3118,N,07726.2929,W,1,04,3.07,146.2,M,-34.4,M,,*5A
$GPRMC,141249.200,A,4308.3124,N,07726.2941,W,17.14,293.17,020419,,,A*47
$GPGGA,141249.400,4308.3129,N,07726.2953,W,1,04,3.07,146.3,M,-34.4,M,,*50
$GPRMC,141249.600,A,4308.3138,N,07726.2965,W,17.89,296.81,020419,,,A*46
$GPGGA,141249.800,4308.3142,N,07726.2978,W,1,04,3.07,146.4,M,-34.4,M,,*5F
$GPRMC,141250.000,A,4308.3147,N,07726.2992,W,19.04,297.19,020419,,,A*43
$GPGGA,141250.200,4308.3153,N,07726.3005,W,1,04,3.07,146.6,M,-34.4,M,,*5D
$GPRMC,141250.400,A,4308.3158,N,07726.3019,W,19.67,297.29,020419,,,A*44
$GPGGA,141250.600,4308.3163,N,07726.3032,W,1,04,3.07,146.7,M,-34.4,M,,*5F
$GPRMC,141250.800,A,4308.3168,N,07726.3045,W,19.79,297.92,020419,,,A*4D
$GPGGA,141251.000,4308.3174,N,07726.3058,W,1,04,3.07,146.8,M,-34.4,M,,*5D
$GPRMC,141251.200,A,4308.3180,N,07726.3072,W,20.34,298.35,020419,,,A*45
$GPGGA,141251.400,4308.3186,N,07726.3086,W,1,04,3.07,146.9,M,-34.4,M,,*56
$GPRMC,141251.600,A,4308.3192,N,07726.3101,W,21.33,298.64,020419,,,A*45
$GPGGA,141251.800,4308.3199,N,07726.3115,W,1,04,3.07,146.9,M,-34.4,M,,*5F
$GPRMC,141252.000,A,4308.3205,N,07726.3130,W,21.88,298.76,020419,,,A*4C
$GPGGA,141252.200,4308.3212,N,07726.3146,W,1,04,3.07,147.0,M,-34.4,M,,*58
$GPRMC,141252.400,A,4308.3219,N,07726.3161,W,22.99,298.76,020419,,,A*42
$GPGGA,141252.600,4308.3226,N,07726.3176,W,1,04,3.07,147.1,M,-34.4,M,,*59
$GPRMC,141252.800,A,4308.3234,N,07726.3192,W,23.63,299.19,020419,,,A*41
$GPGGA,141253.000,4308.3242,N,07726.3207,W,1,04,3.07,147.1,M,-34.4,M,,*59
$GPRMC,141253.200,A,4308.3250,N,07726.3223,W,24.36,299.60,020419,,,A*48
$GPGGA,141253.400,4308.3258,N,07726.3239,W,1,04,3.07,147.2,M,-34.4,M,,*58
$GPRMC,141253.600,A,4308.3267,N,07726.3255,W,24.92,300.14,020419,,,A*45
$GPGGA,141253.800,4308.3275,N,07726.3272,W,1,04,3.07,147.2,M,-34.4,M,,*54
$GPRMC,141254.000,A,4308.3283,N,07726.3289,W,25.48,300.05,020419,,,A*49
$GPGGA,141254.200,4308.3334,N,07726.3297,W,1,06,1.22,147.8,M,-34.4,M,,*5B
$GPRMC,141254.400,A,4308.3357,N,07726.3312,W,26.42,302.69,020419,,,A*47
$GPGGA,141254.600,4308.3375,N,07726.3327,W,1,06,1.22,148.2,M,-34.4,M,,*55
$GPRMC,141254.800,A,4308.3390,N,07726.3344,W,26.86,303.30,020419,,,A*46
$GPGGA,141255.000,4308.3403,N,07726.3360,W,1,06,1.22,148.4,M,-34.4,M,,*51
$GPRMC,141255.200,A,4308.3414,N,07726.3378,W,27.07,302.95,020419,,,A*4F
$GPGGA,141255.400,4308.3425,N,07726.3395,W,1,06,1.22,148.7,M,-34.4,M,,*58
$GPRMC,141255.600,A,4308.3436,N,07726.3412,W,27.24,304.00,020419,,,A*4B
$GPGGA,141255.800,4308.3447,N,07726.3429,W,1,06,1.22,148.9,M,-34.4,M,,*5E
$GPRMC,141256.000,A,4308.3458,N,07726.3446,W,27.20,305.46,020419,,,A*40
$GPGGA,141256.200,4308.3468,N,07726.3462,W,1,06,1.22,149.1,M,-34.4,M,,*5C
$GPRMC,141256.400,A,4308.3479,N,07726.3479,W,27.55,307.38,020419,,,A*42
$GPGGA,141256.600,4308.3490,N,07726.3495,W,1,06,1.22,149.3,M,-34.4,M,,*55
$GPRMC,141256.800,A,4308.3501,N,07726.3511,W,27.64,309.27,020419,,,A*4D
$GPGGA,141257.000,4308.3512,N,07726.3527,W,1,06,1.22,149.4,M,-34.4,M,,*56
$GPRMC,141257.200,A,4308.3523,N,07726.3543,W,27.37,309.63,020419,,,A*47
$GPGGA,141257.400,4308.3534,N,07726.3558,W,1,06,1.22,149.6,M,-34.4,M,,*5C
$GPRMC,141257.600,A,4308.3545,N,07726.3571,W,27.53,314.55,020419,,,A*49
$GPGGA,141257.800,4308.3557,N,07726.3586,W,1,05,1.29,149.9,M,-34.4,M,,*51
$GPRMC,141258.000,A,4308.3571,N,07726.3602,W,27.52,317.45,020419,,,A*43
$GPGGA,141258.200,4308.3583,N,07726.3614,W,1,05,1.29,150.1,M,-34.4,M,,*55
$GPRMC,141258.400,A,4308.3596,N,07726.3627,W,27.64,322.15,020419,,,A*4F
$GPGGA,141258.600,4308.3609,N,07726.3640,W,1,06,1.22,150.4,M,-34.4,M,,*5C
$GPRMC,141258.800,A,4308.3623,N,07726.3652,W,28.39,325.47,020419,,,A*4B
$GPGGA,141259.000,4308.3637,N,07726.3663,W,1,06,1.22,150.6,M,-34.4,M,,*55
$GPRMC,141259.200,A,4308.3651,N,07726.3674,W,28.65,329.68,020419,,,A*49
$GPGGA,141259.400,4308.3665,N,07726.3685,W,1,06,1.22,150.8,M,-34.4,M,,*50
$GPRMC,141259.600,A,4308.3679,N,07726.3696,W,29.16,331.55,020419,,,A*49
$GPGGA,141259.800,4308.3694,N,07726.3706,W,1,06,1.22,150.9,M,-34.4,M,,*59
$GPRMC,141300.000,A,4308.3708,N,07726.3715,W,29.24,334.07,020419,,,A*4C
$GPGGA,141300.200,4308.3723,N,07726.3723,W,1,08,1.05,151.0,M,-34.4,M,,*57
$GPRMC,141300.400,A,4308.3738,N,07726.3730,W,29.36,338.26,020419,,,A*40
$GPGGA,141300.600,4308.3753,N,07726.3738,W,1,08,1.05,151.2,M,-34.4,M,,*5C
$GPRMC,141300.800,A,4308.3768,N,07726.3744,W,29.13,341.48,020419,,,A*4B
$GPGGA,141301.000,4308.3782,N,07726.3748,W,1,08,1.05,151.3,M,-34.4,M,,*51
$GPRMC,141301.200,A,4308.3798,N,07726.3753,W,29.16,345.86,020419,,,A*4A
$GPGGA,141301.400,4308.3814,N,07726.3756,W,1,08,1.05,151.4,M,-34.4,M,,*5D
$GPRMC,141301.600,A,4308.3830,N,07726.3760,W,28.98,348.92,020419,,,A*4C
$GPGGA,141301.800,4308.3845,N,07726.3763,W,1,08,1.05,151.5,M,-34.4,M,,*52
$GPRMC,141302.000,A,4308.3861,N,07726.3765,W,28.84,351.71,020419,,,A*40
$GPGGA,141302.200,4308.3878,N,07726.3766,W,1,07,1.16,151.7,M,-34.4,M,,*5F
$GPRMC,141302.400,A,4308.3896,N,07726.3768,W,29.39,356.35,020419,,,A*41
$GPGGA,141302.600,4308.3913,N,07726.3769,W,1,08,1.05,151.8,M,-34.4,M,,*5A
$GPRMC,141302.800,A,4308.3930,N,07726.3769,W,29.69,358.28,020419,,,A*46
$GPGGA,141303.000,4308.3947,N,07726.3769,W,1,08,1.05,152.0,M,-34.4,M,,*57
$GPRMC,141303.200,A,4308.3964,N,07726.3767,W,30.00,2.32,020419,,,A*42
$GPGGA,141303.400,4308.3981,N,07726.3765,W,1,08,1.05,152.1,M,-34.4,M,,*54
$GPRMC,141303.600,A,4308.3998,N,07726.3761,W,30.57,6.13,020419,,,A*46
$GPGGA,141303.800,4308.4015,N,07726.3759,W,1,07,1.16,152.2,M,-34.4,M,,*5A
$GPRMC,141304.000,A,4308.4032,N,07726.3756,W,30.70,7.97,020419,,,A*45
$GPGGA,141304.200,4308.4049,N,07726.3752,W,1,07,1.16,152.3,M,-34.4,M,,*54
$GPRMC,141304.400,A,4308.4066,N,07726.3749,W,31.32,9.12,020419,,,A*4A
$GPGGA,141304.600,4308.4084,N,07726.3745,W,1,07,1.16,152.4,M,-34.4,M,,*50
$GPRMC,141304.800,A,4308.4101,N,07726.3741,W,31.30,9.78,020419,,,A*40
$GPGGA,141305.000,4308.4118,N,07726.3736,W,1,07,1.16,152.5,M,-34.4,M,,*56
$GPRMC,141305.200,A,4308.4135,N,07726.3732,W,31.04,10.58,020419,,,A*75
$GPGGA,141305.400,4308.4152,N,07726.3727,W,1,07,1.16,152.6,M,-34.4,M,,*5F
$GPRMC,141305.600,A,4308.4168,N,07726.3722,W,30.48,10.09,020419,,,A*75
$GPGGA,141305.800,4308.4184,N,07726.3718,W,1,07,1.16,152.7,M,-34.4,M,,*55
$GPRMC,141306.000,A,4308.4200,N,07726.3713,W,30.32,10.17,020419,,,A*7D
$GPGGA,141306.200,4308.4216,N,07726.3709,W,1,07,1.16,152.9,M,-34.4,M,,*5A
$GPRMC,141306.400,A,4308.4232,N,07726.3705,W,29.99,9.83,020419,,,A*43
$GPGGA,141306.600,4308.4248,N,07726.3700,W,1,07,1.16,153.0,M,-34.4,M,,*54
$GPRMC,141306.800,A,4308.4264,N,07726.3696,W,29.04,10.02,020419,,,A*72
$GPGGA,141307.000,4308.4280,N,07726.3692,W,1,07,1.16,153.1,M,-34.4,M,,*5C
$GPRMC,141307.200,A,4308.4295,N,07726.3689,W,28.60,9.40,020419,,,A*44
$GPGGA,141307.400,4308.4311,N,07726.3685,W,1,07,1.16,153.3,M,-34.4,M,,*55
$GPRMC,141307.600,A,4308.4326,N,07726.3681,W,28.13,9.07,020419,,,A*46
$GPGGA,141307.800,4308.4341,N,07726.3677,W,1,07,1.16,153.5,M,-34.4,M,,*57
$GPRMC,141308.000,A,4308.4355,N,07726.3674,W,27.95,9.48,020419,,,A*4B
$GPGGA,141308.200,4308.4370,N,07726.3670,W,1,07,1.16,153.6,M,-34.4,M,,*54
$GPRMC,141308.400,A,4308.4384,N,07726.3667,W,26.27,8.84,020419,,,A*48
$GPGGA,141308.600,4308.4398,N,07726.3664,W,1,08,1.19,153.8,M,-34.4,M,,*5D
$GPRMC,141308.800,A,4308.4412,N,07726.3661,W,24.92,8.67,020419,,,A*4B
$GPGGA,141309.000,4308.4426,N,07726.3658,W,1,08,1.19,154.0,M,-34.4,M,,*58
$GPRMC,141309.200,A,4308.4438,N,07726.3655,W,22.94,9.24,020419,,,A*49
$GPGGA,141309.400,4308.4451,N,07726.3652,W,1,08,1.19,154.1,M,-34.4,M,,*57
$GPRMC,141309.600,A,4308.4462,N,07726.3649,W,20.58,9.81,020419,,,A*42
$GPGGA,141309.800,4308.4473,N,07726.3647,W,1,08,1.19,154.2,M,-34.4,M,,*5C
$GPRMC,141310.000,A,4308.4484,N,07726.3644,W,18.28,10.06,020419,,,A*72
$GPGGA,141310.200,4308.4493,N,07726.3642,W,1,08,1.19,154.3,M,-34.4,M,,*54
$GPRMC,141310.400,A,4308.4502,N,07726.3639,W,15.98,11.02,020419,,,A*70
$GPGGA,141310.600,4308.4511,N,07726.3638,W,1,08,1.19,154.4,M,-34.4,M,,*51
$GPRMC,141310.800,A,4308.4519,N,07726.3637,W,13.34,11.47,020419,,,A*79
$GPGGA,141311.000,4308.4527,N,07726.3635,W,1,08,1.19,154.4,M,-34.4,M,,*5E
$GPRMC,141311.200,A,4308.4534,N,07726.3634,W,10.65,11.53,020419,,,A*7C
$GPGGA,141311.400,4308.4540,N,07726.3634,W,1,08,1.19,154.4,M,-34.4,M,,*5A
$GPRMC,141311.600,A,4308.4545,N,07726.3632,W,7.81,11.39,020419,,,A*48
$GPGGA,141311.800,4308.4549,N,07726.3632,W,1,08,1.19,154.5,M,-34.4,M,,*58
$GPRMC,141312.000,A,4308.4552,N,07726.3631,W,5.43,10.43,020419,,,A*48
$GPGGA,141312.200,4308.4555,N,07726.3630,W,1,08,1.19,154.4,M,-34.4,M,,*5F
$GPRMC,141312.400,A,4308.4558,N,07726.3629,W,3.87,13.58,020419,,,A*48
$GPGGA,141312.600,4308.4560,N,07726.3629,W,1,08,1.19,154.5,M,-34.4,M,,*54
$GPRMC,141312.800,A,4308.4562,N,07726.3628,W,2.59,11.96,020419,,,A*4E
$GPGGA,141313.000,4308.4563,N,07726.3628,W,1,08,1.05,154.4,M,-34.4,M,,*5D
$GPRMC,141313.200,A,4308.4564,N,07726.3627,W,1.28,11.96,020419,,,A*49
$GPGGA,141313.400,4308.4565,N,07726.3628,W,1,08,1.19,154.5,M,-34.4,M,,*53
$GPRMC,141313.600,A,4308.4565,N,07726.3628,W,0.40,11.96,020419,,,A*4C
$GPGGA,141313.800,4308.4566,N,07726.3628,W,1,08,1.19,154.5,M,-34.4,M,,*5C
$GPRMC,141314.000,A,4308.4567,N,07726.3628,W,0.63,11.96,020419,,,A*4E
$GPGGA,141314.200,4308.4567,N,07726.3627,W,1,08,1.19,154.4,M,-34.4,M,,*5E
$GPRMC,141314.400,A,4308.4568,N,07726.3626,W,2.49,11.96,020419,,,A*41
$GPGGA,141314.600,4308.4570,N,07726.3626,W,1,08,1.19,154.5,M,-34.4,M,,*5C
$GPRMC,141314.800,A,4308.4572,N,07726.3625,W,4.19,7.16,020419,,,A*79
$GPGGA,141315.000,4308.4574,N,07726.3625,W,1,08,1.19,154.6,M,-34.4,M,,*5F
$GPRMC,141315.200,A,4308.4577,N,07726.3625,W,6.05,4.41,020419,,,A*79
$GPGGA,141315.400,4308.4581,N,07726.3624,W,1,08,1.19,154.7,M,-34.4,M,,*51
$GPRMC,141315.600,A,4308.4584,N,07726.3625,W,6.23,354.70,020419,,,A*71
$GPGGA,141315.800,4308.4588,N,07726.3625,W,1,08,1.19,154.7,M,-34.4,M,,*55
$GPRMC,141316.000,A,4308.4591,N,07726.3626,W,6.60,350.57,020419,,,A*75
$GPGGA,141316.200,4308.4596,N,07726.3628,W,1,08,1.19,154.8,M,-34.4,M,,*51
$GPRMC,141316.400,A,4308.4600,N,07726.3631,W,7.97,335.70,020419,,,A*73
$GPGGA,141316.600,4308.4605,N,07726.3634,W,1,08,1.05,154.9,M,-34.4,M,,*5D
$GPRMC,141316.800,A,4308.4611,N,07726.3635,W,9.03,325.13,020419,,,A*7C
$GPGGA,141317.000,4308.4616,N,07726.3640,W,1,08,1.05,154.9,M,-34.4,M,,*5B
$GPRMC,141317.200,A,4308.4620,N,07726.3644,W,9.42,318.57,020419,,,A*78
$GPGGA,141317.400,4308.4624,N,07726.3650,W,1,08,1.05,154.9,M,-34.4,M,,*5F
$GPRMC,141317.600,A,4308.4628,N,07726.3657,W,10.69,304.85,020419,,,A*45
$GPGGA,141317.800,4308.4631,N,07726.3665,W,1,08,1.05,155.0,M,-34.4,M,,*59
$GPRMC,141318.000,A,4308.4635,N,07726.3673,W,11.96,297.44,020419,,,A*41
$GPGGA,141318.200,4308.4638,N,07726.3681,W,1,08,1.05,155.0,M,-34.4,M,,*5F
$GPRMC,141318.400,A,4308.4640,N,07726.3690,W,14.08,291.32,020419,,,A*4F
$GPGGA,141318.600,4308.4642,N,07726.3700,W,1,08,1.19,155.0,M,-34.4,M,,*53
$GPRMC,141318.800,A,4308.4644,N,07726.3710,W,15.49,287.24,020419,,,A*4A
$GPGGA,141319.000,4308.4647,N,07726.3722,W,1,08,1.05,155.1,M,-34.4,M,,*5D
$GPRMC,141319.200,A,4308.4649,N,07726.3734,W,16.54,287.04,020419,,,A*47
$GPGGA,141319.400,4308.4652,N,07726.3747,W,1,08,1.05,155.2,M,-34.4,M,,*5D
$GPRMC,141319.600,A,4308.4655,N,07726.3760,W,17.43,286.98,020419,,,A*4C
$GPGGA,141319.800,4308.4658,N,07726.3773,W,1,08,1.05,155.3,M,-34.4,M,,*5D
$GPRMC,141320.000,A,4308.4661,N,07726.3787,W,18.03,285.94,020419,,,A*4A
$GPGGA,141320.200,4308.4664,N,07726.3801,W,1,08,1.05,155.4,M,-34.4,M,,*5F
$GPRMC,141320.400,A,4308.4666,N,07726.3817,W,19.09,283.11,020419,,,A*4F
$GPGGA,141320.600,4308.4667,N,07726.3833,W,1,08,1.05,155.5,M,-34.4,M,,*58
$GPRMC,141320.800,A,4308.4668,N,07726.3849,W,19.90,278.88,020419,,,A*42
$GPGGA,141321.000,4308.4670,N,07726.3865,W,1,08,1.05,155.6,M,-34.4,M,,*59
$GPRMC,141321.200,A,4308.4672,N,07726.3882,W,20.79,278.34,020419,,,A*4F
$GPGGA,141321.400,4308.4672,N,07726.3901,W,1,08,1.05,155.6,M,-34.4,M,,*5C
$GPRMC,141321.600,A,4308.4674,N,07726.3918,W,22.28,275.61,020419,,,A*44
$GPGGA,141321.800,4308.4675,N,07726.3935,W,1,08,1.05,155.6,M,-34.4,M,,*50
$GPRMC,141322.000,A,4308.4677,N,07726.3953,W,22.47,275.48,020419,,,A*4F
$GPGGA,141322.200,4308.4678,N,07726.3970,W,1,08,1.05,155.6,M,-34.4,M,,*55
$GPRMC,141322.400,A,4308.4679,N,07726.3987,W,22.32,276.40,020419,,,A*45
$GPGGA,141322.600,4308.4681,N,07726.4005,W,1,08,1.19,155.5,M,-34.4,M,,*55
$GPRMC,141322.800,A,4308.4683,N,07726.4022,W,22.28,276.71,020419,,,A*44
$GPGGA,141323.000,4308.4684,N,07726.4039,W,1,08,1.19,155.3,M,-34.4,M,,*5E
$GPRMC,141323.200,A,4308.4686,N,07726.4056,W,22.21,277.18,020419,,,A*4E
$GPGGA,141323.400,4308.4688,N,07726.4073,W,1,08,1.19,155.3,M,-34.4,M,,*58
$GPRMC,141323.600,A,4308.4689,N,07726.4091,W,21.91,276.50,020419,,,A*4B
$GPGGA,141323.800,4308.4691,N,07726.4107,W,1,08,1.05,155.3,M,-34.4,M,,*53
$GPRMC,141324.000,A,4308.4692,N,07726.4124,W,21.26,276.62,020419,,,A*42
$GPGGA,141324.200,4308.4693,N,07726.4140,W,1,09,1.18,155.3,M,-34.4,M,,*52
$GPRMC,141324.400,A,4308.4695,N,07726.4156,W,20.43,277.43,020419,,,A*44
$GPGGA,141324.600,4308.4697,N,07726.4172,W,1,09,1.18,155.3,M,-34.4,M,,*53
$GPRMC,141324.800,A,4308.4698,N,07726.4187,W,19.46,277.65,020419,,,A*42
$GPGGA,141325.000,4308.4699,N,07726.4201,W,1,09,1.18,155.3,M,-34.4,M,,*5D
$GPRMC,141325.200,A,4308.4701,N,07726.4215,W,18.43,277.55,020419,,,A*47
$GPGGA,141325.400,4308.4702,N,07726.4229,W,1,09,1.03,155.3,M,-34.4,M,,*5A
$GPRMC,141325.600,A,4308.4704,N,07726.4242,W,17.25,277.47,020419,,,A*48
$GPGGA,141325.800,4308.4705,N,07726.4255,W,1,09,1.03,155.3,M,-34.4,M,,*5A
$GPRMC,141326.000,A,4308.4706,N,07726.4268,W,16.01,278.60,020419,,,A*4A
$GPGGA,141326.200,4308.4708,N,07726.4280,W,1,09,1.03,155.3,M,-34.4,M,,*56
$GPRMC,141326.400,A,4308.4709,N,07726.4291,W,14.62,277.50,020419,,,A*4C
$GPGGA,141326.600,4308.4710,N,07726.4303,W,1,09,1.18,155.2,M,-34.4,M,,*5A
$GPRMC,141326.800,A,4308.4711,N,07726.4313,W,12.93,277.45,020419,,,A*4E
$GPGGA,141327.000,4308.4712,N,07726.4322,W,1,09,1.03,155.2,M,-34.4,M,,*56
$GPRMC,141327.200,A,4308.4713,N,07726.4330,W,10.97,278.01,020419,,,A*4F
$GPGGA,141327.400,4308.4714,N,07726.4339,W,1,09,1.03,155.3,M,-34.4,M,,*5F
$GPRMC,141327.600,A,4308.4715,N,07726.4346,W,9.16,278.37,020419,,,A*78
$GPGGA,141327.800,4308.4715,N,07726.4352,W,1,09,1.03,155.3,M,-34.4,M,,*5F
$GPRMC,141328.000,A,4308.4716,N,07726.4358,W,7.29,277.98,020419,,,A*75
$GPGGA,141328.200,4308.4717,N,07726.4363,W,1,09,1.03,155.3,M,-34.4,M,,*5A
$GPRMC,141328.400,A,4308.4717,N,07726.4368,W,5.54,276.47,020419,,,A*78
$GPGGA,141328.600,4308.4717,N,07726.4372,W,1,09,1.18,155.2,M,-34.4,M,,*55
$GPRMC,141328.800,A,4308.4718,N,07726.4375,W,4.17,276.07,020419,,,A*75
$GPGGA,141329.000,4308.4718,N,07726.4377,W,1,09,1.18,155.2,M,-34.4,M,,*58
$GPRMC,141329.200,A,4308.4718,N,07726.4380,W,3.13,277.61,020419,,,A*76
$GPGGA,141329.400,4308.4718,N,07726.4382,W,1,09,1.03,155.2,M,-34.4,M,,*5C
$GPRMC,141329.600,A,4308.4718,N,07726.4384,W,2.30,277.61,020419,,,A*76
$GPGGA,141329.800,4308.4718,N,07726.4386,W,1,09,1.03,155.2,M,-34.4,M,,*54
$GPRMC,141330.000,A,4308.4718,N,07726.4387,W,1.23,277.61,020419,,,A*7A
$GPGGA,141330.200,4308.4719,N,07726.4388,W,1,09,1.03,155.2,M,-34.4,M,,*59
$GPRMC,141330.400,A,4308.4719,N,07726.4388,W,0.23,277.61,020419,,,A*71
$GPGGA,141330.600,4308.4719,N,07726.4388,W,1,09,1.03,155.3,M,-34.4,M,,*5C
$GPRMC,141330.800,A,4308.4719,N,07726.4388,W,0.11,277.61,020419,,,A*7C
$GPGGA,141331.000,4308.4719,N,07726.4388,W,1,09,1.03,155.3,M,-34.4,M,,*5B
$GPRMC,141331.200,A,4308.4720,N,07726.4388,W,0.06,277.61,020419,,,A*7B
$GPGGA,141331.400,4308.4720,N,07726.4388,W,1,09,1.03,155.4,M,-34.4,M,,*52
$GPRMC,141331.600,A,4308.4721,N,07726.4388,W,0.04,277.61,020419,,,A*7C
$GPGGA,141331.800,4308.4722,N,07726.4388,W,1,09,1.03,155.4,M,-34.4,M,,*5C
$GPRMC,141332.000,A,4308.4722,N,07726.4388,W,0.05,277.61,020419,,,A*7B
$GPGGA,141332.200,4308.4723,N,07726.4388,W,1,09,1.03,155.5,M,-34.4,M,,*55
$GPRMC,141332.400,A,4308.4723,N,07726.4388,W,0.04,277.61,020419,,,A*7F
$GPGGA,141332.600,4308.4724,N,07726.4388,W,1,09,1.03,155.5,M,-34.4,M,,*56
$GPRMC,141332.800,A,4308.4724,N,07726.4387,W,0.03,277.61,020419,,,A*7C
$GPGGA,141333.000,4308.4724,N,07726.4387,W,1,09,1.03,155.5,M,-34.4,M,,*5E
$GPRMC,141333.200,A,4308.4724,N,07726.4387,W,0.02,277.61,020419,,,A*76
$GPGGA,141333.400,4308.4724,N,07726.4387,W,1,09,1.03,155.5,M,-34.4,M,,*5A
$GPRMC,141333.600,A,4308.4724,N,07726.4387,W,0.00,277.61,020419,,,A*70
$GPGGA,141333.800,4308.4724,N,07726.4387,W,1,09,1.18,155.5,M,-34.4,M,,*5C
$GPRMC,141334.000,A,4308.4724,N,07726.4387,W,0.00,277.61,020419,,,A*71
$GPGGA,141334.200,4308.4724,N,07726.4387,W,1,09,1.18,155.5,M,-34.4,M,,*51
$GPRMC,141334.400,A,4308.4724,N,07726.4387,W,0.00,277.61,020419,,,A*75
$GPGGA,141334.600,4308.4724,N,07726.4387,W,1,09,1.18,155.5,M,-34.4,M,,*55
$GPRMC,141334.800,A,4308.4724,N,07726.4387,W,0.00,277.61,020419,,,A*79
$GPGGA,141335.000,4308.4724,N,07726.4387,W,1,09,1.18,155.5,M,-34.4,M,,*52
$GPRMC,141335.200,A,4308.4724,N,07726.4387,W,0.00,277.61,020419,,,A*72
$GPGGA,141335.400,4308.4724,N,07726.4387,W,1,09,1.18,155.5,M,-34.4,M,,*56
$GPRMC,141335.600,A,4308.4724,N,07726.4387,W,0.00,277.61,020419,,,A*76
$GPGGA,141335.800,4308.4724,N,07726.4387,W,1,09,1.18,155.5,M,-34.4,M,,*5A
$GPRMC,141336.000,A,4308.4724,N,07726.4387,W,0.00,277.61,020419,,,A*73
$GPGGA,141336.200,4308.4724,N,07726.4387,W,1,09,1.18,155.5,M,-34.4,M,,*53
$GPRMC,141336.400,A,4308.4724,N,07726.4387,W,0.00,277.61,020419,,,A*77
$GPGGA,141336.600,4308.4724,N,07726.4387,W,1,09,1.18,155.5,M,-34.4,M,,*57
$GPRMC,141336.800,A,4308.4724,N,07726.4387,W,0.00,277.61,020419,,,A*7B
$GPGGA,141337.000,4308.4724,N,07726.4387,W,1,09,1.18,155.5,M,-34.4,M,,*50
$GPRMC,141337.200,A,4308.4724,N,07726.4387,W,0.00,277.61,020419,,,A*70
$GPGGA,141337.400,4308.4724,N,07726.4387,W,1,09,1.18,155.5,M,-34.4,M,,*54
$GPRMC,141337.600,A,4308.4724,N,07726.4387,W,0.00,277.61,020419,,,A*74
$GPGGA,141337.800,4308.4724,N,07726.4387,W,1,09,1.18,155.5,M,-34.4,M,,*58
$GPRMC,141338.000,A,4308.4724,N,07726.4387,W,0.00,277.61,020419,,,A*7D
$GPGGA,141338.200,4308.4724,N,07726.4387,W,1,09,1.18,155.5,M,-34.4,M,,*5D
$GPRMC,141338.400,A,4308.4724,N,07726.4387,W,0.00,277.61,020419,,,A*79
$GPGGA,141338.600,4308.4724,N,07726.4387,W,1,09,1.18,155.5,M,-34.4,M,,*59
$GPRMC,141338.800,A,4308.4724,N,07726.4387,W,0.00,277.61,020419,,,A*75
$GPGGA,141339.000,4308.4724,N,07726.4387,W,1,09,1.18,155.5,M,-34.4,M,,*5E
$GPRMC,141339.200,A,4308.4724,N,07726.4387,W,0.00,277.61,020419,,,A*7E
$GPGGA,141339.400,4308.4724,N,07726.4387,W,1,09,1.18,155.5,M,-34.4,M,,*5A
$GPRMC,141339.600,A,4308.4724,N,07726.4387,W,0.00,277.61,020419,,,A*7A
$GPGGA,141339.800,4308.4724,N,07726.4387,W,1,09,1.18,155.5,M,-34.4,M,,*56
$GPRMC,141340.000,A,4308.4724,N,07726.4387,W,0.00,277.61,020419,,,A*72
$GPGGA,141340.200,4308.4724,N,07726.4387,W,1,09,1.18,155.5,M,-34.4,M,,*52
$GPRMC,141340.400,A,4308.4724,N,07726.4387,W,0.00,277.61,020419,,,A*76
$GPGGA,141340.600,4308.4724,N,07726.4387,W,1,09,1.18,155.5,M,-34.4,M,,*56
$GPRMC,141340.800,A,4308.4724,N,07726.4387,W,0.00,277.61,020419,,,A*7A
$GPGGA,141341.000,4308.4724,N,07726.4387,W,1,09,1.18,155.5,M,-34.4,M,,*51
$GPRMC,141341.200,A,4308.4724,N,07726.4387,W,0.00,277.61,020419,,,A*71
$GPGGA,141341.400,4308.4724,N,07726.4387,W,1,09,1.18,155.5,M,-34.4,M,,*55
$GPRMC,141341.600,A,4308.4724,N,07726.4387,W,0.00,277.61,020419,,,A*75
$GPGGA,141341.800,4308.4724,N,07726.4387,W,1,09,1.18,155.5,M,-34.4,M,,*59
$GPRMC,141342.000,A,4308.4724,N,07726.4387,W,0.00,277.61,020419,,,A*70
$GPGGA,141342.200,4308.4724,N,07726.4387,W,1,09,1.18,155.5,M,-34.4,M,,*50
$GPRMC,141342.400,A,4308.4724,N,07726.4387,W,0.00,277.61,020419,,,A*74
$GPGGA,141342.600,4308.4724,N,07726.4387,W,1,09,1.18,155.5,M,-34.4,M,,*54
$GPRMC,141342.800,A,4308.4724,N,07726.4387,W,0.00,277.61,020419,,,A*78
$GPGGA,141343.000,4308.4724,N,07726.4387,W,1,09,1.18,155.5,M,-34.4,M,,*53
$GPRMC,141343.200,A,4308.4724,N,07726.4387,W,0.00,277.61,020419,,,A*73
$GPGGA,141343.400,4308.4724,N,07726.4387,W,1,09,1.18,155.5,M,-34.4,M,,*57
$GPRMC,141343.600,A,4308.4724,N,07726.4387,W,0.00,277.61,020419,,,A*77
$GPGGA,141343.800,4308.4724,N,07726.4387,W,1,09,1.18,155.5,M,-34.4,M,,*5B
$GPRMC,141344.000,A,4308.4724,N,07726.4387,W,0.00,277.61,020419,,,A*76
$GPGGA,141344.200,4308.4724,N,07726.4387,W,1,09,1.18,155.5,M,-34.4,M,,*56
$GPRMC,141344.400,A,4308.4724,N,07726.4387,W,0.00,277.61,020419,,,A*72
$GPGGA,141344.600,4308.4724,N,07726.4387,W,1,09,1.18,155.5,M,-34.4,M,,*52
$GPRMC,141344.800,A,4308.4724,N,07726.4387,W,0.00,277.61,020419,,,A*7E
$GPGGA,141345.000,4308.4724,N,07726.4387,W,1,09,1.18,155.5,M,-34.4,M,,*55
$GPRMC,141345.200,A,4308.4724,N,07726.4387,W,0.00,277.61,020419,,,A*75
$GPGGA,141345.400,4308.4724,N,07726.4387,W,1,09,1.18,155.5,M,-34.4,M,,*51
$GPRMC,141345.600,A,4308.4724,N,07726.4387,W,0.00,277.61,020419,,,A*71
$GPGGA,141345.800,4308.4724,N,07726.4387,W,1,09,1.18,155.5,M,-34.4,M,,*5D
$GPRMC,141346.000,A,4308.4724,N,07726.4387,W,0.00,277.61,020419,,,A*74
$GPGGA,141346.200,4308.4724,N,07726.4387,W,1,09,1.18,155.5,M,-34.4,M,,*54
$GPRMC,141346.400,A,4308.4724,N,07726.4387,W,0.00,277.61,020419,,,A*70
$GPGGA,141346.600,4308.4724,N,07726.4387,W,1,09,1.18,155.5,M,-34.4,M,,*50
$GPRMC,141346.800,A,4308.4724,N,07726.4387,W,0.00,277.61,020419,,,A*7C
$GPGGA,141347.000,4308.4724,N,07726.4387,W,1,09,1.18,155.5,M,-34.4,M,,*57
$GPRMC,141347.200,A,4308.4724,N,07726.4387,W,0.00,277.61,020419,,,A*77
$GPGGA,141347.400,4308.4724,N,07726.4387,W,1,09,1.18,155.5,M,-34.4,M,,*53
$GPRMC,141347.600,A,4308.4724,N,07726.4387,W,0.00,277.61,020419,,,A*73
$GPGGA,141347.800,4308.4724,N,07726.4387,W,1,09,1.18,155.5,M,-34.4,M,,*5F
$GPRMC,141348.000,A,4308.4724,N,07726.4387,W,0.00,277.61,020419,,,A*7A
$GPGGA,141348.200,4308.4724,N,07726.4387,W,1,09,1.18,155.5,M,-34.4,M,,*5A
$GPRMC,141348.400,A,4308.4724,N,07726.4387,W,0.00,277.61,020419,,,A*7E
$GPGGA,141348.600,4308.4724,N,07726.4387,W,1,09,1.18,155.5,M,-34.4,M,,*5E
$GPRMC,141348.800,A,4308.4724,N,07726.4387,W,0.00,277.61,020419,,,A*72
$GPGGA,141349.000,4308.4724,N,07726.4387,W,1,09,1.18,155.5,M,-34.4,M,,*59
$GPRMC,141349.200,A,4308.4724,N,07726.4387,W,0.00,277.61,020419,,,A*79
$GPGGA,141349.400,4308.4724,N,07726.4387,W,1,09,1.18,155.5,M,-34.4,M,,*5D
$GPRMC,141349.600,A,4308.4724,N,07726.4387,W,0.00,277.61,020419,,,A*7D
$GPGGA,141349.800,4308.4724,N,07726.4387,W,1,09,1.18,155.5,M,-34.4,M,,*51
$GPRMC,141350.000,A,4308.4724,N,07726.4387,W,0.00,277.61,020419,,,A*73
$GPGGA,141350.200,4308.4724,N,07726.4387,W,1,09,1.18,155.5,M,-34.4,M,,*53
$GPRMC,141350.400,A,4308.4724,N,07726.4387,W,0.00,277.61,020419,,,A*77
$GPGGA,141350.600,4308.4724,N,07726.4387,W,1,09,1.18,155.5,M,-34.4,M,,*57
$GPRMC,141350.800,A,4308.4724,N,07726.4387,W,0.00,277.61,020419,,,A*7B
$GPGGA,141351.000,4308.4724,N,07726.4387,W,1,09,1.18,155.5,M,-34.4,M,,*50
$GPRMC,141351.200,A,4308.4724,N,07726.4387,W,0.00,277.61,020419,,,A*70
$GPGGA,141351.400,4308.4724,N,07726.4387,W,1,09,1.18,155.5,M,-34.4,M,,*54
$GPRMC,141351.600,A,4308.4724,N,07726.4387,W,0.00,277.61,020419,,,A*74
$GPGGA,141351.800,4308.4724,N,07726.4387,W,1,09,1.18,155.5,M,-34.4,M,,*58
$GPRMC,141352.000,A,4308.4724,N,07726.4387,W,0.00,277.61,020419,,,A*71
$GPGGA,141352.200,4308.4724,N,07726.4387,W,1,09,1.18,155.5,M,-34.4,M,,*51
$GPRMC,141352.400,A,4308.4724,N,07726.4387,W,0.00,277.61,020419,,,A*75
$GPGGA,141352.600,4308.4724,N,07726.4387,W,1,09,1.18,155.5,M,-34.4,M,,*55
$GPRMC,141352.800,A,4308.4724,N,07726.4387,W,0.00,277.61,020419,,,A*79
$GPGGA,141353.000,4308.4724,N,07726.4387,W,1,09,1.18,155.5,M,-34.4,M,,*52
$GPRMC,141353.200,A,4308.4724,N,07726.4387,W,0.24,277.61,020419,,,A*74
$GPGGA,141353.400,4308.4724,N,07726.4387,W,1,09,1.03,155.5,M,-34.4,M,,*5C
$GPRMC,141353.600,A,4308.4724,N,07726.4387,W,0.14,277.61,020419,,,A*73
$GPGGA,141353.800,4308.4724,N,07726.4387,W,1,09,1.03,155.5,M,-34.4,M,,*50
$GPRMC,141354.000,A,4308.4725,N,07726.4392,W,6.41,293.33,020419,,,A*7C
$GPGGA,141354.200,4308.4727,N,07726.4397,W,1,09,1.03,155.5,M,-34.4,M,,*5F
$GPRMC,141354.400,A,4308.4729,N,07726.4402,W,8.11,292.94,020419,,,A*7D
$GPGGA,141354.600,4308.4731,N,07726.4408,W,1,09,1.03,155.6,M,-34.4,M,,*5E
$GPRMC,141354.800,A,4308.4732,N,07726.4415,W,9.79,291.01,020419,,,A*7D
$GPGGA,141355.000,4308.4734,N,07726.4423,W,1,09,1.03,155.6,M,-34.4,M,,*55
$GPRMC,141355.200,A,4308.4736,N,07726.4431,W,11.07,288.67,020419,,,A*4C
$GPGGA,141355.400,4308.4738,N,07726.4440,W,1,09,1.03,155.6,M,-34.4,M,,*58
$GPRMC,141355.600,A,4308.4740,N,07726.4448,W,11.89,288.27,020419,,,A*45
$GPGGA,141355.800,4308.4745,N,07726.4456,W,1,09,1.03,155.6,M,-34.4,M,,*59
$GPRMC,141356.000,A,4308.4742,N,07726.4477,W,15.10,277.73,020419,,,A*4B
$GPGGA,141356.200,4308.4743,N,07726.4490,W,1,09,1.03,155.9,M,-34.4,M,,*53
$GPRMC,141356.400,A,4308.4744,N,07726.4502,W,16.96,276.77,020419,,,A*42
$GPGGA,141356.600,4308.4745,N,07726.4515,W,1,09,1.03,156.0,M,-34.4,M,,*57
$GPRMC,141356.800,A,4308.4747,N,07726.4529,W,19.01,281.56,020419,,,A*4E
$GPGGA,141357.000,4308.4750,N,07726.4544,W,1,09,1.03,156.1,M,-34.4,M,,*51
$GPRMC,141357.200,A,4308.4752,N,07726.4559,W,20.48,281.92,020419,,,A*49
$GPGGA,141357.400,4308.4754,N,07726.4574,W,1,09,1.03,156.2,M,-34.4,M,,*51
$GPRMC,141357.600,A,4308.4757,N,07726.4590,W,21.69,281.54,020419,,,A*45
