Vers 57
USE_SERIAL_FEEDBACK=false
DEVELOPMENT_MODE=false
USE_RMC_ONLY=false

$GPRMC,142918.600,A,4308.3017,N,07726.2670,W,0.00,310.15,140319,,,A*78
$GPGGA,142918.800,4308.3017,N,07726.2670,W,1,09,0.95,156.1,M,-34.4,M,,*54
lng=-77.437782, lat=43.138362, altitude=156.40, speed=0.00, satellites=9, angle=310.1500, fixquality=1
$GPRMC,142919.000,A,4308.3017,N,07726.2670,W,0.12,318.06,140319,,,A*76
$GPGGA,142919.200,4308.3017,N,07726.2671,W,1,09,0.95,156.5,M,-34.4,M,,*5A
lng=-77.437782, lat=43.138362, altitude=156.10, speed=0.12, satellites=9, angle=318.0600, fixquality=1
$GPRMC,142919.400,A,4308.3017,N,07726.2671,W,0.08,335.27,140319,,,A*74
$GPGGA,142919.600,4308.3017,N,07726.2671,W,1,09,0.95,156.4,M,-34.4,M,,*5F
lng=-77.437782, lat=43.138362, altitude=156.50, speed=0.08, satellites=9, angle=335.2700, fixquality=1
$GPRMC,142919.800,A,4308.3017,N,07726.2671,W,0.03,1.25,140319,,,A*75
$GPGGA,142920.000,4308.3017,N,07726.2672,W,1,09,0.97,156.5,M,-34.4,M,,*53
lng=-77.437782, lat=43.138362, altitude=156.40, speed=0.03, satellites=9, angle=1.2500, fixquality=1
$GPRMC,142920.200,A,4308.3017,N,07726.2672,W,0.04,309.28,140319,,,A*77
$GPGGA,142920.400,4308.3017,N,07726.2672,W,1,09,0.95,156.6,M,-34.4,M,,*56
lng=-77.437782, lat=43.138362, altitude=156.50, speed=0.04, satellites=9, angle=309.2800, fixquality=1
$GPRMC,142920.600,A,4308.3018,N,07726.2672,W,0.05,348.68,140319,,,A*7C
$GPGGA,142920.800,4308.3018,N,07726.2673,W,1,09,0.96,156.7,M,-34.4,M,,*56
lng=-77.437782, lat=43.138362, altitude=156.60, speed=0.05, satellites=9, angle=348.6800, fixquality=1
$GPRMC,142921.000,A,4308.3018,N,07726.2673,W,0.04,331.42,140319,,,A*7D
$GPGGA,142921.200,4308.3018,N,07726.2673,W,1,09,0.95,156.6,M,-34.4,M,,*5F
lng=-77.437782, lat=43.138362, altitude=156.70, speed=0.04, satellites=9, angle=331.4200, fixquality=1
$GPRMC,142921.400,A,4308.3019,N,07726.2673,W,0.02,28.59,140319,,,A*4F
$GPGGA,142921.600,4308.3019,N,07726.2673,W,1,09,0.95,156.6,M,-34.4,M,,*5A
lng=-77.437782, lat=43.138362, altitude=156.60, speed=0.02, satellites=9, angle=28.5900, fixquality=1
$GPRMC,142921.800,A,4308.3019,N,07726.2673,W,0.02,66.79,140319,,,A*4B
$GPGGA,142922.000,4308.3019,N,07726.2673,W,1,09,0.95,156.6,M,-34.4,M,,*5F
lng=-77.437782, lat=43.138362, altitude=156.60, speed=0.02, satellites=9, angle=66.7900, fixquality=1
$GPRMC,142922.200,A,4308.3019,N,07726.2673,W,0.01,14.71,140319,,,A*4C
$GPGGA,142922.400,4308.3019,N,07726.2673,W,1,09,0.96,156.6,M,-34.4,M,,*58
lng=-77.437782, lat=43.138362, altitude=156.60, speed=0.01, satellites=9, angle=14.7100, fixquality=1
$GPRMC,142922.600,A,4308.3019,N,07726.2673,W,0.01,30.23,140319,,,A*49
$GPGGA,142922.800,4308.3019,N,07726.2673,W,1,09,0.95,156.5,M,-34.4,M,,*54
lng=-77.437782, lat=43.138362, altitude=156.60, speed=0.01, satellites=9, angle=30.2300, fixquality=1
$GPRMC,142923.000,A,4308.3019,N,07726.2673,W,0.01,138.43,140319,,,A*71
$GPGGA,142923.200,4308.3019,N,07726.2673,W,1,09,0.95,156.4,M,-34.4,M,,*5E
lng=-77.437782, lat=43.138362, altitude=156.50, speed=0.01, satellites=9, angle=138.4300, fixquality=1
$GPRMC,142923.400,A,4308.3019,N,07726.2673,W,0.02,1.62,140319,,,A*7E
$GPGGA,142923.600,4308.3020,N,07726.2673,W,1,09,0.97,156.4,M,-34.4,M,,*52
lng=-77.437782, lat=43.138362, altitude=156.40, speed=0.02, satellites=9, angle=1.6200, fixquality=1
$GPRMC,142923.800,A,4308.3020,N,07726.2672,W,0.01,105.23,140319,,,A*7A
$GPGGA,142924.000,4308.3020,N,07726.2672,W,1,09,0.95,156.3,M,-34.4,M,,*57
lng=-77.437782, lat=43.138362, altitude=156.40, speed=0.01, satellites=9, angle=105.2300, fixquality=1
$GPRMC,142924.200,A,4308.3020,N,07726.2672,W,0.03,326.42,140319,,,A*71
$GPGGA,142924.400,4308.3020,N,07726.2672,W,1,09,0.95,156.4,M,-34.4,M,,*54
lng=-77.437782, lat=43.138362, altitude=156.30, speed=0.03, satellites=9, angle=326.4200, fixquality=1
$GPRMC,142924.600,A,4308.3020,N,07726.2672,W,0.03,11.40,140319,,,A*40
$GPGGA,142924.800,4308.3020,N,07726.2671,W,1,09,0.97,156.4,M,-34.4,M,,*59
lng=-77.437782, lat=43.138362, altitude=156.40, speed=0.03, satellites=9, angle=11.4000, fixquality=1
$GPRMC,142925.000,A,4308.3021,N,07726.2671,W,0.01,353.26,140319,,,A*72
$GPGGA,142925.200,4308.3021,N,07726.2671,W,1,09,0.97,156.4,M,-34.4,M,,*53
lng=-77.437782, lat=43.138370, altitude=156.40, speed=0.01, satellites=9, angle=353.2600, fixquality=1
$GPRMC,142925.400,A,4308.3021,N,07726.2670,W,0.03,184.08,140319,,,A*71
$GPGGA,142925.600,4308.3021,N,07726.2670,W,1,09,0.95,156.3,M,-34.4,M,,*53
lng=-77.437782, lat=43.138370, altitude=156.40, speed=0.03, satellites=9, angle=184.0800, fixquality=1
$GPRMC,142925.800,A,4308.3021,N,07726.2670,W,0.02,11.83,140319,,,A*42
$GPGGA,142926.000,4308.3022,N,07726.2669,W,1,09,0.97,156.4,M,-34.4,M,,*58
lng=-77.437782, lat=43.138370, altitude=156.30, speed=0.02, satellites=9, angle=11.8300, fixquality=1
$GPRMC,142926.200,A,4308.3022,N,07726.2669,W,0.06,193.76,140319,,,A*75
$GPGGA,142926.400,4308.3022,N,07726.2669,W,1,09,0.95,156.5,M,-34.4,M,,*5F
lng=-77.437782, lat=43.138370, altitude=156.40, speed=0.06, satellites=9, angle=193.7600, fixquality=1
$GPRMC,142926.600,A,4308.3022,N,07726.2668,W,0.02,194.12,140319,,,A*71
$GPGGA,142926.800,4308.3022,N,07726.2668,W,1,09,0.95,156.5,M,-34.4,M,,*52
lng=-77.437774, lat=43.138370, altitude=156.50, speed=0.02, satellites=9, angle=194.1200, fixquality=1
$GPRMC,142927.000,A,4308.3022,N,07726.2668,W,0.02,8.64,140319,,,A*73
$GPGGA,142927.200,4308.3022,N,07726.2667,W,1,09,0.97,156.5,M,-34.4,M,,*54
lng=-77.437774, lat=43.138370, altitude=156.50, speed=0.02, satellites=9, angle=8.6400, fixquality=1
$GPRMC,142927.400,A,4308.3022,N,07726.2667,W,0.02,59.82,140319,,,A*44
$GPGGA,142927.600,4308.3022,N,07726.2666,W,1,09,0.95,156.5,M,-34.4,M,,*53
lng=-77.437774, lat=43.138370, altitude=156.50, speed=0.02, satellites=9, angle=59.8200, fixquality=1
$GPRMC,142927.800,A,4308.3022,N,07726.2666,W,0.02,356.20,140319,,,A*7D
$GPGGA,142928.000,4308.3022,N,07726.2666,W,1,09,0.97,156.6,M,-34.4,M,,*5B
lng=-77.437774, lat=43.138370, altitude=156.50, speed=0.02, satellites=9, angle=356.2000, fixquality=1
$GPRMC,142928.200,A,4308.3022,N,07726.2666,W,0.03,82.12,140319,,,A*42
$GPGGA,142928.400,4308.3022,N,07726.2665,W,1,09,0.95,156.7,M,-34.4,M,,*5F
lng=-77.437774, lat=43.138370, altitude=156.60, speed=0.03, satellites=9, angle=82.1200, fixquality=1
$GPRMC,142928.600,A,4308.3022,N,07726.2665,W,0.03,33.88,140319,,,A*4C
$GPGGA,142928.800,4308.3022,N,07726.2665,W,1,09,0.95,156.9,M,-34.4,M,,*5D
lng=-77.437774, lat=43.138370, altitude=156.70, speed=0.03, satellites=9, angle=33.8800, fixquality=1
$GPRMC,142929.000,A,4308.3022,N,07726.2664,W,0.06,192.48,140319,,,A*79
$GPGGA,142929.200,4308.3022,N,07726.2664,W,1,09,0.95,157.1,M,-34.4,M,,*5E
lng=-77.437774, lat=43.138370, altitude=156.90, speed=0.06, satellites=9, angle=192.4800, fixquality=1
$GPRMC,142929.400,A,4308.3022,N,07726.2664,W,0.05,293.39,140319,,,A*7A
$GPGGA,142929.600,4308.3022,N,07726.2664,W,1,09,0.95,157.2,M,-34.4,M,,*59
lng=-77.437774, lat=43.138370, altitude=157.10, speed=0.05, satellites=9, angle=293.3900, fixquality=1
$GPRMC,142929.800,A,4308.3022,N,07726.2664,W,0.01,359.97,140319,,,A*71
$GPGGA,142930.000,4308.3022,N,07726.2664,W,1,09,0.97,157.3,M,-34.4,M,,*54
lng=-77.437774, lat=43.138370, altitude=157.20, speed=0.01, satellites=9, angle=359.9700, fixquality=1
$GPRMC,142930.200,A,4308.3022,N,07726.2663,W,0.05,64.82,140319,,,A*49
$GPGGA,142930.400,4308.3022,N,07726.2663,W,1,10,0.83,157.6,M,-34.4,M,,*5F
lng=-77.437767, lat=43.138370, altitude=157.30, speed=0.05, satellites=9, angle=64.8200, fixquality=1
$GPRMC,142930.600,A,4308.3022,N,07726.2663,W,0.01,296.96,140319,,,A*73
$GPGGA,142930.800,4308.3023,N,07726.2663,W,1,10,0.83,157.8,M,-34.4,M,,*5C
lng=-77.437767, lat=43.138370, altitude=157.60, speed=0.01, satellites=10, angle=296.9600, fixquality=1
$GPRMC,142931.000,A,4308.3023,N,07726.2663,W,0.04,308.27,140319,,,A*7C
$GPGGA,142931.200,4308.3023,N,07726.2663,W,1,10,0.83,157.9,M,-34.4,M,,*56
lng=-77.437767, lat=43.138370, altitude=157.80, speed=0.04, satellites=10, angle=308.2700, fixquality=1
$GPRMC,142931.400,A,4308.3023,N,07726.2663,W,0.05,105.13,140319,,,A*71
$GPGGA,142931.600,4308.3023,N,07726.2663,W,1,10,0.83,158.2,M,-34.4,M,,*56
lng=-77.437767, lat=43.138370, altitude=157.90, speed=0.05, satellites=10, angle=105.1300, fixquality=1
$GPRMC,142931.800,A,4308.3023,N,07726.2663,W,0.04,266.38,140319,,,A*73
$GPGGA,142932.000,4308.3024,N,07726.2663,W,1,10,0.83,158.4,M,-34.4,M,,*52
lng=-77.437767, lat=43.138370, altitude=158.20, speed=0.04, satellites=10, angle=266.3800, fixquality=1
$GPRMC,142932.200,A,4308.3024,N,07726.2663,W,0.04,55.23,140319,,,A*45
$GPGGA,142932.400,4308.3024,N,07726.2663,W,1,10,0.83,158.6,M,-34.4,M,,*54
lng=-77.437767, lat=43.138370, altitude=158.40, speed=0.04, satellites=10, angle=55.2300, fixquality=1
$GPRMC,142932.600,A,4308.3024,N,07726.2663,W,0.04,33.46,140319,,,A*42
$GPGGA,142932.800,4308.3025,N,07726.2662,W,1,10,0.83,158.7,M,-34.4,M,,*59
lng=-77.437767, lat=43.138370, altitude=158.60, speed=0.04, satellites=10, angle=33.4600, fixquality=1
$GPRMC,142933.000,A,4308.3025,N,07726.2662,W,0.02,103.07,140319,,,A*74
$GPGGA,142933.200,4308.3025,N,07726.2662,W,1,10,0.83,158.9,M,-34.4,M,,*5C
lng=-77.437767, lat=43.138378, altitude=158.70, speed=0.02, satellites=10, angle=103.0700, fixquality=1
$GPRMC,142933.400,A,4308.3025,N,07726.2662,W,0.06,305.24,140319,,,A*71
$GPGGA,142933.600,4308.3025,N,07726.2662,W,1,10,0.83,159.0,M,-34.4,M,,*50
lng=-77.437767, lat=43.138378, altitude=158.90, speed=0.06, satellites=10, angle=305.2400, fixquality=1
$GPRMC,142933.800,A,4308.3025,N,07726.2662,W,0.02,242.77,140319,,,A*7D
$GPGGA,142934.000,4308.3026,N,07726.2662,W,1,10,0.83,159.0,M,-34.4,M,,*52
lng=-77.437767, lat=43.138378, altitude=159.00, speed=0.02, satellites=10, angle=242.7700, fixquality=1
$GPRMC,142934.200,A,4308.3026,N,07726.2661,W,0.03,287.80,140319,,,A*70
$GPGGA,142934.400,4308.3026,N,07726.2661,W,1,10,0.83,159.2,M,-34.4,M,,*57
lng=-77.437767, lat=43.138378, altitude=159.00, speed=0.03, satellites=10, angle=287.8000, fixquality=1
$GPRMC,142934.600,A,4308.3027,N,07726.2661,W,0.07,29.79,140319,,,A*41
$GPGGA,142934.800,4308.3027,N,07726.2661,W,1,10,0.83,159.3,M,-34.4,M,,*5B
lng=-77.437767, lat=43.138378, altitude=159.20, speed=0.07, satellites=10, angle=29.7900, fixquality=1
$GPRMC,142935.000,A,4308.3028,N,07726.2661,W,0.02,315.60,140319,,,A*78
$GPGGA,142935.200,4308.3028,N,07726.2660,W,1,10,0.83,159.4,M,-34.4,M,,*59
lng=-77.437767, lat=43.138378, altitude=159.30, speed=0.02, satellites=10, angle=315.6000, fixquality=1
$GPRMC,142935.400,A,4308.3028,N,07726.2660,W,0.03,149.22,140319,,,A*71
$GPGGA,142935.600,4308.3028,N,07726.2660,W,1,10,0.83,159.4,M,-34.4,M,,*5D
lng=-77.437767, lat=43.138378, altitude=159.40, speed=0.03, satellites=10, angle=149.2200, fixquality=1
$GPRMC,142935.800,A,4308.3028,N,07726.2660,W,0.04,331.27,140319,,,A*72
$GPGGA,142936.000,4308.3028,N,07726.2660,W,1,10,0.83,159.3,M,-34.4,M,,*5F
lng=-77.437767, lat=43.138378, altitude=159.40, speed=0.04, satellites=10, angle=331.2700, fixquality=1
$GPRMC,142936.200,A,4308.3028,N,07726.2660,W,0.09,169.58,140319,,,A*71
$GPGGA,142936.400,4308.3027,N,07726.2661,W,1,10,0.83,159.3,M,-34.4,M,,*55
lng=-77.437767, lat=43.138378, altitude=159.30, speed=0.09, satellites=10, angle=169.5800, fixquality=1
$GPRMC,142936.600,A,4308.3027,N,07726.2660,W,0.04,116.46,140319,,,A*70
$GPGGA,142936.800,4308.3027,N,07726.2660,W,1,10,0.83,159.2,M,-34.4,M,,*59
lng=-77.437767, lat=43.138378, altitude=159.30, speed=0.04, satellites=10, angle=116.4600, fixquality=1
$GPRMC,142937.000,A,4308.3027,N,07726.2661,W,0.08,161.43,140319,,,A*7F
$GPGGA,142937.200,4308.3027,N,07726.2661,W,1,10,0.83,159.2,M,-34.4,M,,*53
lng=-77.437767, lat=43.138378, altitude=159.20, speed=0.08, satellites=10, angle=161.4300, fixquality=1
$GPRMC,142937.400,A,4308.3027,N,07726.2661,W,0.02,142.17,140319,,,A*71
$GPGGA,142937.600,4308.3027,N,07726.2661,W,1,10,0.83,159.2,M,-34.4,M,,*57
lng=-77.437767, lat=43.138378, altitude=159.20, speed=0.02, satellites=10, angle=142.1700, fixquality=1
$GPRMC,142937.800,A,4308.3027,N,07726.2661,W,0.08,238.19,140319,,,A*77
$GPGGA,142938.000,4308.3027,N,07726.2661,W,1,10,0.83,159.2,M,-34.4,M,,*5E
lng=-77.437767, lat=43.138378, altitude=159.20, speed=0.08, satellites=10, angle=238.1900, fixquality=1
$GPRMC,142938.200,A,4308.3027,N,07726.2661,W,0.03,232.05,140319,,,A*7E
$GPGGA,142938.400,4308.3027,N,07726.2661,W,1,10,0.83,159.2,M,-34.4,M,,*5A
lng=-77.437767, lat=43.138378, altitude=159.20, speed=0.03, satellites=10, angle=232.0500, fixquality=1
$GPRMC,142938.600,A,4308.3027,N,07726.2661,W,0.05,310.89,140319,,,A*79
$GPGGA,142938.800,4308.3026,N,07726.2661,W,1,10,0.83,159.1,M,-34.4,M,,*54
lng=-77.437767, lat=43.138378, altitude=159.20, speed=0.05, satellites=10, angle=310.8900, fixquality=1
$GPRMC,142939.000,A,4308.3026,N,07726.2661,W,0.05,218.32,140319,,,A*76
$GPGGA,142939.200,4308.3026,N,07726.2661,W,1,10,0.83,159.1,M,-34.4,M,,*5F
lng=-77.437767, lat=43.138378, altitude=159.10, speed=0.05, satellites=10, angle=218.3200, fixquality=1
$GPRMC,142939.400,A,4308.3026,N,07726.2661,W,0.06,162.40,140319,,,A*7A
$GPGGA,142939.600,4308.3026,N,07726.2661,W,1,10,0.83,159.1,M,-34.4,M,,*5B
lng=-77.437767, lat=43.138378, altitude=159.10, speed=0.06, satellites=10, angle=162.4000, fixquality=1
$GPRMC,142939.800,A,4308.3026,N,07726.2661,W,0.10,192.74,140319,,,A*79
$GPGGA,142940.000,4308.3026,N,07726.2661,W,1,10,0.83,159.2,M,-34.4,M,,*50
lng=-77.437767, lat=43.138378, altitude=159.10, speed=0.10, satellites=10, angle=192.7400, fixquality=1
$GPRMC,142940.200,A,4308.3026,N,07726.2661,W,0.02,70.14,140319,,,A*45
$GPGGA,142940.400,4308.3026,N,07726.2660,W,1,10,0.83,159.2,M,-34.4,M,,*55
lng=-77.437767, lat=43.138378, altitude=159.20, speed=0.02, satellites=10, angle=70.1400, fixquality=1
$GPRMC,142940.600,A,4308.3026,N,07726.2660,W,0.04,17.00,140319,,,A*42
$GPGGA,142940.800,4308.3026,N,07726.2660,W,1,10,0.83,159.3,M,-34.4,M,,*58
lng=-77.437767, lat=43.138378, altitude=159.20, speed=0.04, satellites=10, angle=17.0000, fixquality=1
$GPRMC,142941.000,A,4308.3026,N,07726.2660,W,0.04,291.49,140319,,,A*74
$GPGGA,142941.200,4308.3026,N,07726.2660,W,1,10,0.83,159.3,M,-34.4,M,,*53
lng=-77.437767, lat=43.138378, altitude=159.30, speed=0.04, satellites=10, angle=291.4900, fixquality=1
$GPRMC,142941.400,A,4308.3026,N,07726.2660,W,0.03,92.00,140319,,,A*4B
$GPGGA,142941.600,4308.3026,N,07726.2660,W,1,10,0.83,159.3,M,-34.4,M,,*57
lng=-77.437767, lat=43.138378, altitude=159.30, speed=0.03, satellites=10, angle=92.0000, fixquality=1
$GPRMC,142941.800,A,4308.3025,N,07726.2660,W,0.02,310.12,140319,,,A*7F
$GPGGA,142942.000,4308.3025,N,07726.2660,W,1,10,0.83,159.3,M,-34.4,M,,*51
lng=-77.437767, lat=43.138378, altitude=159.30, speed=0.02, satellites=10, angle=310.1200, fixquality=1
$GPRMC,142942.200,A,4308.3025,N,07726.2660,W,0.03,269.55,140319,,,A*7B
$GPGGA,142942.400,4308.3025,N,07726.2660,W,1,10,0.83,159.3,M,-34.4,M,,*55
lng=-77.437767, lat=43.138378, altitude=159.30, speed=0.03, satellites=10, angle=269.5500, fixquality=1
$GPRMC,142942.600,A,4308.3025,N,07726.2660,W,0.02,145.27,140319,,,A*76
$GPGGA,142942.800,4308.3024,N,07726.2660,W,1,10,0.83,159.3,M,-34.4,M,,*58
lng=-77.437767, lat=43.138378, altitude=159.30, speed=0.02, satellites=10, angle=145.2700, fixquality=1
$GPRMC,142943.000,A,4308.3024,N,07726.2660,W,0.04,299.44,140319,,,A*71
$GPGGA,142943.200,4308.3024,N,07726.2660,W,1,10,0.83,159.3,M,-34.4,M,,*53
lng=-77.437767, lat=43.138370, altitude=159.30, speed=0.04, satellites=10, angle=299.4400, fixquality=1
$GPRMC,142943.400,A,4308.3024,N,07726.2659,W,0.05,168.37,140319,,,A*77
$GPGGA,142943.600,4308.3024,N,07726.2659,W,1,10,0.83,159.3,M,-34.4,M,,*5D
lng=-77.437767, lat=43.138370, altitude=159.30, speed=0.05, satellites=10, angle=168.3700, fixquality=1
$GPRMC,142943.800,A,4308.3024,N,07726.2659,W,0.02,341.61,140319,,,A*76
$GPGGA,142944.000,4308.3023,N,07726.2659,W,1,10,0.83,159.2,M,-34.4,M,,*5A
lng=-77.437767, lat=43.138370, altitude=159.30, speed=0.02, satellites=10, angle=341.6100, fixquality=1
$GPRMC,142944.200,A,4308.3023,N,07726.2659,W,0.03,71.15,140319,,,A*4E
$GPGGA,142944.400,4308.3023,N,07726.2659,W,1,10,0.83,159.2,M,-34.4,M,,*5E
lng=-77.437767, lat=43.138370, altitude=159.20, speed=0.03, satellites=10, angle=71.1500, fixquality=1
$GPRMC,142944.600,A,4308.3023,N,07726.2659,W,0.04,46.61,140319,,,A*4A
$GPGGA,142944.800,4308.3023,N,07726.2659,W,1,10,0.83,159.3,M,-34.4,M,,*53
lng=-77.437767, lat=43.138370, altitude=159.20, speed=0.04, satellites=10, angle=46.6100, fixquality=1
$GPRMC,142945.000,A,4308.3023,N,07726.2659,W,0.05,274.24,140319,,,A*7E
$GPGGA,142945.200,4308.3023,N,07726.2658,W,1,10,0.83,159.3,M,-34.4,M,,*59
lng=-77.437767, lat=43.138370, altitude=159.30, speed=0.05, satellites=10, angle=274.2400, fixquality=1
$GPRMC,142945.400,A,4308.3024,N,07726.2658,W,0.05,119.86,140319,,,A*7C
$GPGGA,142945.600,4308.3023,N,07726.2658,W,1,10,0.83,159.4,M,-34.4,M,,*5A
lng=-77.437759, lat=43.138370, altitude=159.30, speed=0.05, satellites=10, angle=119.8600, fixquality=1
$GPRMC,142945.800,A,4308.3023,N,07726.2658,W,0.05,235.16,140319,,,A*73
$GPGGA,142946.000,4308.3023,N,07726.2658,W,1,10,0.83,159.3,M,-34.4,M,,*58
lng=-77.437759, lat=43.138370, altitude=159.40, speed=0.05, satellites=10, angle=235.1600, fixquality=1
$GPRMC,142946.200,A,4308.3023,N,07726.2658,W,0.23,32.17,140319,,,A*4A
$GPGGA,142946.400,4308.3023,N,07726.2658,W,1,10,0.83,159.1,M,-34.4,M,,*5E
lng=-77.437759, lat=43.138370, altitude=159.30, speed=0.23, satellites=10, angle=32.1700, fixquality=1
$GPRMC,142946.600,A,4308.3023,N,07726.2658,W,0.41,0.34,140319,,,A*7A
$GPGGA,142946.800,4308.3022,N,07726.2657,W,1,10,0.84,159.0,M,-34.4,M,,*5A
lng=-77.437759, lat=43.138370, altitude=159.10, speed=0.41, satellites=10, angle=0.3400, fixquality=1
$GPRMC,142947.000,A,4308.3023,N,07726.2658,W,0.60,345.26,140319,,,A*7F
$GPGGA,142947.200,4308.3023,N,07726.2658,W,1,09,0.97,158.9,M,-34.4,M,,*5D
lng=-77.437759, lat=43.138370, altitude=159.00, speed=0.60, satellites=10, angle=345.2600, fixquality=1
$GPRMC,142947.400,A,4308.3025,N,07726.2657,W,1.76,334.73,140319,,,A*72
$GPGGA,142947.600,4308.3026,N,07726.2658,W,1,09,0.94,158.8,M,-34.4,M,,*5E
lng=-77.437759, lat=43.138378, altitude=158.90, speed=1.76, satellites=9, angle=334.7300, fixquality=1
$GPRMC,142947.800,A,4308.3028,N,07726.2657,W,1.73,349.83,140319,,,A*73
$GPGGA,142948.000,4308.3029,N,07726.2657,W,1,10,0.84,158.5,M,-34.4,M,,*53
lng=-77.437759, lat=43.138378, altitude=158.80, speed=1.73, satellites=9, angle=349.8300, fixquality=1
$GPRMC,142948.200,A,4308.3031,N,07726.2654,W,1.84,2.64,140319,,,A*70
$GPGGA,142948.400,4308.3034,N,07726.2651,W,1,10,0.84,158.1,M,-34.4,M,,*59
lng=-77.437759, lat=43.138385, altitude=158.50, speed=1.84, satellites=10, angle=2.6400, fixquality=1
$GPRMC,142948.600,A,4308.3035,N,07726.2648,W,1.89,5.54,140319,,,A*74
$GPGGA,142948.800,4308.3037,N,07726.2646,W,1,10,0.84,157.5,M,-34.4,M,,*5B
lng=-77.437744, lat=43.138393, altitude=158.10, speed=1.89, satellites=10, angle=5.5400, fixquality=1
$GPRMC,142949.000,A,4308.3039,N,07726.2644,W,1.69,5.06,140319,,,A*7A
$GPGGA,142949.200,4308.3042,N,07726.2642,W,1,10,0.84,156.6,M,-34.4,M,,*54
lng=-77.437736, lat=43.138393, altitude=157.50, speed=1.69, satellites=10, angle=5.0600, fixquality=1
$GPRMC,142949.400,A,4308.3044,N,07726.2641,W,1.99,5.35,140319,,,A*7E
$GPGGA,142949.600,4308.3046,N,07726.2641,W,1,10,0.84,155.7,M,-34.4,M,,*55
lng=-77.437736, lat=43.138404, altitude=156.60, speed=1.99, satellites=10, angle=5.3500, fixquality=1
$GPRMC,142949.800,A,4308.3047,N,07726.2643,W,2.03,5.22,140319,,,A*75
$GPGGA,142950.000,4308.3048,N,07726.2645,W,1,10,0.84,155.3,M,-34.4,M,,*55
lng=-77.437736, lat=43.138412, altitude=155.70, speed=2.03, satellites=10, angle=5.2200, fixquality=1
$GPRMC,142950.200,A,4308.3049,N,07726.2647,W,1.98,2.41,140319,,,A*7E
$GPGGA,142950.400,4308.3049,N,07726.2649,W,1,10,0.84,155.4,M,-34.4,M,,*5B
lng=-77.437744, lat=43.138412, altitude=155.30, speed=1.98, satellites=10, angle=2.4100, fixquality=1
$GPRMC,142950.600,A,4308.3050,N,07726.2651,W,2.51,357.14,140319,,,A*70
$GPGGA,142950.800,4308.3050,N,07726.2652,W,1,10,0.84,155.6,M,-34.4,M,,*57
lng=-77.437751, lat=43.138420, altitude=155.40, speed=2.51, satellites=10, angle=357.1400, fixquality=1
$GPRMC,142951.000,A,4308.3051,N,07726.2653,W,2.44,2.43,140319,,,A*71
$GPGGA,142951.200,4308.3052,N,07726.2654,W,1,10,0.84,155.8,M,-34.4,M,,*56
lng=-77.437751, lat=43.138420, altitude=155.60, speed=2.44, satellites=10, angle=2.4300, fixquality=1
$GPRMC,142951.400,A,4308.3053,N,07726.2654,W,2.41,359.36,140319,,,A*7A
$GPGGA,142951.600,4308.3054,N,07726.2655,W,1,10,0.84,155.9,M,-34.4,M,,*54
lng=-77.437759, lat=43.138420, altitude=155.80, speed=2.41, satellites=10, angle=359.3600, fixquality=1
$GPRMC,142951.800,A,4308.3055,N,07726.2655,W,2.67,5.74,140319,,,A*79
$GPGGA,142952.000,4308.3057,N,07726.2655,W,1,10,0.84,156.0,M,-34.4,M,,*58
lng=-77.437759, lat=43.138427, altitude=155.90, speed=2.67, satellites=10, angle=5.7400, fixquality=1
$GPRMC,142952.200,A,4308.3061,N,07726.2652,W,2.61,3.77,140319,,,A*73
$GPGGA,142952.400,4308.3064,N,07726.2651,W,1,10,0.84,156.3,M,-34.4,M,,*5B
lng=-77.437751, lat=43.138435, altitude=156.00, speed=2.61, satellites=10, angle=3.7700, fixquality=1
$GPRMC,142952.600,A,4308.3067,N,07726.2651,W,2.75,2.70,140319,,,A*71
$GPGGA,142952.800,4308.3069,N,07726.2651,W,1,10,0.84,156.4,M,-34.4,M,,*5D
lng=-77.437751, lat=43.138442, altitude=156.30, speed=2.75, satellites=10, angle=2.7000, fixquality=1
$GPRMC,142953.000,A,4308.3072,N,07726.2650,W,2.84,0.02,140319,,,A*7A
$GPGGA,142953.200,4308.3075,N,07726.2650,W,1,10,0.84,156.6,M,-34.4,M,,*58
lng=-77.437751, lat=43.138450, altitude=156.40, speed=2.84, satellites=10, angle=0.0200, fixquality=1
$GPRMC,142953.400,A,4308.3077,N,07726.2650,W,2.85,359.34,140319,,,A*70
$GPGGA,142953.600,4308.3079,N,07726.2650,W,1,10,0.84,156.7,M,-34.4,M,,*51
lng=-77.437751, lat=43.138462, altitude=156.60, speed=2.85, satellites=10, angle=359.3400, fixquality=1
$GPRMC,142953.800,A,4308.3081,N,07726.2650,W,2.97,359.22,140319,,,A*71
$GPGGA,142954.000,4308.3083,N,07726.2650,W,1,10,0.84,156.8,M,-34.4,M,,*5A
lng=-77.437751, lat=43.138469, altitude=156.70, speed=2.97, satellites=10, angle=359.2200, fixquality=1
$GPRMC,142954.200,A,4308.3085,N,07726.2650,W,3.02,359.92,140319,,,A*7E
$GPGGA,142954.400,4308.3086,N,07726.2650,W,1,10,0.84,156.6,M,-34.4,M,,*55
lng=-77.437751, lat=43.138477, altitude=156.80, speed=3.02, satellites=10, angle=359.9200, fixquality=1
$GPRMC,142954.600,A,4308.3086,N,07726.2650,W,3.27,359.51,140319,,,A*71
$GPGGA,142954.800,4308.3088,N,07726.2651,W,1,10,0.84,156.5,M,-34.4,M,,*55
lng=-77.437751, lat=43.138477, altitude=156.60, speed=3.27, satellites=10, angle=359.5100, fixquality=1
$GPRMC,142955.000,A,4308.3089,N,07726.2651,W,3.48,359.67,140319,,,A*74
$GPGGA,142955.200,4308.3091,N,07726.2651,W,1,10,0.84,156.3,M,-34.4,M,,*50
lng=-77.437751, lat=43.138484, altitude=156.50, speed=3.48, satellites=10, angle=359.6700, fixquality=1
$GPRMC,142955.400,A,4308.3092,N,07726.2652,W,3.64,1.31,140319,,,A*7A
$GPGGA,142955.600,4308.3094,N,07726.2652,W,1,10,0.84,156.2,M,-34.4,M,,*53
lng=-77.437751, lat=43.138484, altitude=156.30, speed=3.64, satellites=10, angle=1.3100, fixquality=1
$GPRMC,142955.800,A,4308.3096,N,07726.2653,W,4.42,1.25,140319,,,A*75
$GPGGA,142956.000,4308.3098,N,07726.2653,W,1,10,0.84,156.2,M,-34.4,M,,*5B
lng=-77.437751, lat=43.138492, altitude=156.20, speed=4.42, satellites=10, angle=1.2500, fixquality=1
$GPRMC,142956.200,A,4308.3100,N,07726.2654,W,5.06,0.58,140319,,,A*7F
$GPGGA,142956.400,4308.3103,N,07726.2654,W,1,10,0.84,156.1,M,-34.4,M,,*58
lng=-77.437759, lat=43.138500, altitude=156.20, speed=5.06, satellites=10, angle=0.5800, fixquality=1
$GPRMC,142956.600,A,4308.3106,N,07726.2654,W,5.70,1.42,140319,,,A*76
$GPGGA,142956.800,4308.3109,N,07726.2654,W,1,10,0.84,156.0,M,-34.4,M,,*5F
lng=-77.437759, lat=43.138507, altitude=156.10, speed=5.70, satellites=10, angle=1.4200, fixquality=1
$GPRMC,142957.000,A,4308.3112,N,07726.2654,W,6.23,1.83,140319,,,A*7C
$GPGGA,142957.200,4308.3115,N,07726.2654,W,1,10,0.84,155.8,M,-34.4,M,,*52
lng=-77.437759, lat=43.138515, altitude=156.00, speed=6.23, satellites=10, angle=1.8300, fixquality=1
$GPRMC,142957.400,A,4308.3118,N,07726.2654,W,6.34,0.59,140319,,,A*72
$GPGGA,142957.600,4308.3121,N,07726.2654,W,1,10,0.84,155.6,M,-34.4,M,,*5F
lng=-77.437759, lat=43.138534, altitude=155.80, speed=6.34, satellites=10, angle=0.5900, fixquality=1
$GPRMC,142957.800,A,4308.3124,N,07726.2654,W,6.65,0.69,140319,,,A*76
$GPGGA,142958.000,4308.3128,N,07726.2654,W,1,10,0.84,155.5,M,-34.4,M,,*5C
lng=-77.437759, lat=43.138542, altitude=155.60, speed=6.65, satellites=10, angle=0.6900, fixquality=1
$GPRMC,142958.200,A,4308.3131,N,07726.2654,W,6.58,359.51,140319,,,A*7D
$GPGGA,142958.400,4308.3134,N,07726.2654,W,1,10,0.84,155.3,M,-34.4,M,,*53
lng=-77.437759, lat=43.138549, altitude=155.50, speed=6.58, satellites=10, angle=359.5100, fixquality=1
$GPRMC,142958.600,A,4308.3137,N,07726.2654,W,6.46,0.73,140319,,,A*7F
$GPGGA,142958.800,4308.3140,N,07726.2654,W,1,10,0.84,155.0,M,-34.4,M,,*5F
lng=-77.437759, lat=43.138557, altitude=155.30, speed=6.46, satellites=10, angle=0.7300, fixquality=1
$GPRMC,142959.000,A,4308.3142,N,07726.2653,W,5.99,2.85,140319,,,A*77
$GPGGA,142959.200,4308.3144,N,07726.2653,W,1,10,0.84,154.6,M,-34.4,M,,*50
lng=-77.437751, lat=43.138565, altitude=155.00, speed=5.99, satellites=10, angle=2.8500, fixquality=1
$GPRMC,142959.400,A,4308.3145,N,07726.2652,W,5.03,2.48,140319,,,A*77
$GPGGA,142959.600,4308.3147,N,07726.2652,W,1,10,0.84,154.3,M,-34.4,M,,*53
lng=-77.437751, lat=43.138572, altitude=154.60, speed=5.03, satellites=10, angle=2.4800, fixquality=1
$GPRMC,142959.800,A,4308.3148,N,07726.2651,W,4.26,4.88,140319,,,A*79
$GPGGA,143000.000,4308.3150,N,07726.2651,W,1,10,0.84,154.0,M,-34.4,M,,*57
lng=-77.437751, lat=43.138584, altitude=154.30, speed=4.26, satellites=10, angle=4.8800, fixquality=1
$GPRMC,143000.200,A,4308.3151,N,07726.2650,W,4.02,8.49,140319,,,A*79
$GPGGA,143000.400,4308.3154,N,07726.2649,W,1,10,0.84,153.7,M,-34.4,M,,*5E
lng=-77.437751, lat=43.138584, altitude=154.00, speed=4.02, satellites=10, angle=8.4900, fixquality=1
$GPRMC,143000.600,A,4308.3155,N,07726.2648,W,4.19,11.88,140319,,,A*4F
$GPGGA,143000.800,4308.3157,N,07726.2647,W,1,10,0.84,153.4,M,-34.4,M,,*5C
lng=-77.437744, lat=43.138591, altitude=153.70, speed=4.19, satellites=10, angle=11.8800, fixquality=1
$GPRMC,143001.000,A,4308.3159,N,07726.2646,W,4.29,13.71,140319,,,A*4D
$GPGGA,143001.200,4308.3162,N,07726.2645,W,1,10,0.84,153.2,M,-34.4,M,,*55
lng=-77.437744, lat=43.138599, altitude=153.40, speed=4.29, satellites=10, angle=13.7100, fixquality=1
$GPRMC,143001.400,A,4308.3164,N,07726.2644,W,4.28,15.90,140319,,,A*4D
$GPGGA,143001.600,4308.3166,N,07726.2643,W,1,10,0.84,152.9,M,-34.4,M,,*59
lng=-77.437736, lat=43.138607, altitude=153.20, speed=4.28, satellites=10, angle=15.9000, fixquality=1
$GPRMC,143001.800,A,4308.3168,N,07726.2641,W,3.85,28.02,140319,,,A*4D
$GPGGA,143002.000,4308.3170,N,07726.2640,W,1,09,0.92,152.7,M,-34.4,M,,*59
lng=-77.437736, lat=43.138614, altitude=152.90, speed=3.85, satellites=10, angle=28.0200, fixquality=1
$GPRMC,143002.200,A,4308.3171,N,07726.2639,W,3.92,26.22,140319,,,A*49
$GPGGA,143002.400,4308.3173,N,07726.2638,W,1,10,0.84,152.5,M,-34.4,M,,*5C
lng=-77.437728, lat=43.138614, altitude=152.70, speed=3.92, satellites=9, angle=26.2200, fixquality=1
$GPRMC,143002.600,A,4308.3174,N,07726.2636,W,3.77,30.43,140319,,,A*4C
$GPGGA,143002.800,4308.3175,N,07726.2633,W,1,10,0.83,152.4,M,-34.4,M,,*5B
lng=-77.437728, lat=43.138622, altitude=152.50, speed=3.77, satellites=10, angle=30.4300, fixquality=1
$GPRMC,143003.000,A,4308.3176,N,07726.2630,W,3.69,46.32,140319,,,A*47
$GPGGA,143003.200,4308.3178,N,07726.2627,W,1,10,0.83,152.3,M,-34.4,M,,*5F
lng=-77.437721, lat=43.138622, altitude=152.40, speed=3.69, satellites=10, angle=46.3200, fixquality=1
$GPRMC,143003.400,A,4308.3179,N,07726.2625,W,3.33,53.27,140319,,,A*47
$GPGGA,143003.600,4308.3180,N,07726.2623,W,1,10,0.83,152.2,M,-34.4,M,,*59
lng=-77.437713, lat=43.138629, altitude=152.30, speed=3.33, satellites=10, angle=53.2700, fixquality=1
$GPRMC,143003.800,A,4308.3181,N,07726.2621,W,3.16,60.93,140319,,,A*40
$GPGGA,143004.000,4308.3181,N,07726.2619,W,1,10,0.83,152.1,M,-34.4,M,,*53
lng=-77.437705, lat=43.138629, altitude=152.20, speed=3.16, satellites=10, angle=60.9300, fixquality=1
$GPRMC,143004.200,A,4308.3181,N,07726.2616,W,3.02,69.71,140319,,,A*49
$GPGGA,143004.400,4308.3181,N,07726.2614,W,1,10,0.83,151.9,M,-34.4,M,,*51
lng=-77.437698, lat=43.138629, altitude=152.10, speed=3.02, satellites=10, angle=69.7100, fixquality=1
$GPRMC,143004.600,A,4308.3181,N,07726.2612,W,2.33,76.72,140319,,,A*47
$GPGGA,143004.800,4308.3181,N,07726.2610,W,1,10,0.83,151.8,M,-34.4,M,,*58
lng=-77.437690, lat=43.138629, altitude=151.90, speed=2.33, satellites=10, angle=76.7200, fixquality=1
$GPRMC,143005.000,A,4308.3181,N,07726.2609,W,1.45,80.53,140319,,,A*42
$GPGGA,143005.200,4308.3181,N,07726.2609,W,1,10,0.83,151.7,M,-34.4,M,,*54
lng=-77.437675, lat=43.138629, altitude=151.80, speed=1.45, satellites=10, angle=80.5300, fixquality=1
$GPRMC,143005.400,A,4308.3181,N,07726.2609,W,0.59,85.55,140319,,,A*49
$GPGGA,143005.600,4308.3180,N,07726.2608,W,1,10,0.83,151.5,M,-34.4,M,,*52
lng=-77.437675, lat=43.138629, altitude=151.70, speed=0.59, satellites=10, angle=85.5500, fixquality=1
$GPRMC,143005.800,A,4308.3180,N,07726.2608,W,0.57,266.18,140319,,,A*7D
$GPGGA,143006.000,4308.3180,N,07726.2609,W,1,10,0.83,151.4,M,-34.4,M,,*57
lng=-77.437675, lat=43.138629, altitude=151.50, speed=0.57, satellites=10, angle=266.1800, fixquality=1
$GPRMC,143006.200,A,4308.3180,N,07726.2609,W,1.88,266.22,140319,,,A*7F
$GPGGA,143006.400,4308.3179,N,07726.2611,W,1,10,0.83,151.3,M,-34.4,M,,*5B
lng=-77.437675, lat=43.138629, altitude=151.40, speed=1.88, satellites=10, angle=266.2200, fixquality=1
$GPRMC,143006.600,A,4308.3179,N,07726.2613,W,3.48,264.55,140319,,,A*7A
$GPGGA,143006.800,4308.3179,N,07726.2616,W,1,10,0.83,151.2,M,-34.4,M,,*51
lng=-77.437690, lat=43.138629, altitude=151.30, speed=3.48, satellites=10, angle=264.5500, fixquality=1
$GPRMC,143007.000,A,4308.3178,N,07726.2619,W,5.16,266.04,140319,,,A*7D
$GPGGA,143007.200,4308.3178,N,07726.2623,W,1,10,0.84,151.1,M,-34.4,M,,*59
lng=-77.437698, lat=43.138629, altitude=151.20, speed=5.16, satellites=10, angle=266.0400, fixquality=1
$GPRMC,143007.400,A,4308.3178,N,07726.2628,W,6.84,267.27,140319,,,A*73
$GPGGA,143007.600,4308.3177,N,07726.2633,W,1,10,0.84,151.0,M,-34.4,M,,*52
lng=-77.437713, lat=43.138629, altitude=151.10, speed=6.84, satellites=10, angle=267.2700, fixquality=1
$GPRMC,143007.800,A,4308.3177,N,07726.2639,W,8.27,268.58,140319,,,A*70
$GPGGA,143008.000,4308.3177,N,07726.2646,W,1,10,0.84,150.9,M,-34.4,M,,*51
lng=-77.437728, lat=43.138629, altitude=151.00, speed=8.27, satellites=10, angle=268.5800, fixquality=1
$GPRMC,143008.200,A,4308.3177,N,07726.2653,W,9.50,271.65,140319,,,A*7E
$GPGGA,143008.400,4308.3177,N,07726.2660,W,1,10,0.84,150.9,M,-34.4,M,,*51
lng=-77.437751, lat=43.138629, altitude=150.90, speed=9.50, satellites=10, angle=271.6500, fixquality=1
$GPRMC,143008.600,A,4308.3178,N,07726.2668,W,10.75,274.79,140319,,,A*4A
$GPGGA,143008.800,4308.3178,N,07726.2676,W,1,10,0.84,150.9,M,-34.4,M,,*55
lng=-77.437774, lat=43.138629, altitude=150.90, speed=10.75, satellites=10, angle=274.7900, fixquality=1
$GPRMC,143009.000,A,4308.3179,N,07726.2685,W,12.10,279.49,140319,,,A*40
$GPGGA,143009.200,4308.3180,N,07726.2694,W,1,10,0.84,150.8,M,-34.4,M,,*54
lng=-77.437812, lat=43.138629, altitude=150.90, speed=12.10, satellites=10, angle=279.4900, fixquality=1
$GPRMC,143009.400,A,4308.3181,N,07726.2704,W,13.19,282.63,140319,,,A*4F
$GPGGA,143009.600,4308.3183,N,07726.2714,W,1,10,0.84,150.8,M,-34.4,M,,*5A
lng=-77.437843, lat=43.138629, altitude=150.80, speed=13.19, satellites=10, angle=282.6300, fixquality=1
$GPRMC,143009.800,A,4308.3184,N,07726.2725,W,14.51,284.28,140319,,,A*47
$GPGGA,143010.000,4308.3186,N,07726.2736,W,1,10,0.84,150.8,M,-34.4,M,,*51
lng=-77.437873, lat=43.138637, altitude=150.80, speed=14.51, satellites=10, angle=284.2800, fixquality=1
$GPRMC,143010.200,A,4308.3188,N,07726.2747,W,15.73,285.76,140319,,,A*46
$GPGGA,143010.400,4308.3191,N,07726.2758,W,1,10,0.84,150.8,M,-34.4,M,,*5B
lng=-77.437911, lat=43.138648, altitude=150.80, speed=15.73, satellites=10, angle=285.7600, fixquality=1
$GPRMC,143010.600,A,4308.3193,N,07726.2770,W,16.90,288.57,140319,,,A*4C
$GPGGA,143010.800,4308.3196,N,07726.2782,W,1,10,0.84,150.9,M,-34.4,M,,*56
lng=-77.437950, lat=43.138656, altitude=150.80, speed=16.90, satellites=10, angle=288.5700, fixquality=1
$GPRMC,143011.000,A,4308.3200,N,07726.2794,W,17.77,289.84,140319,,,A*4F
$GPGGA,143011.200,4308.3203,N,07726.2807,W,1,10,0.84,150.9,M,-34.4,M,,*50
lng=-77.437988, lat=43.138664, altitude=150.90, speed=17.77, satellites=10, angle=289.8400, fixquality=1
$GPRMC,143011.400,A,4308.3207,N,07726.2821,W,18.69,292.35,140319,,,A*4D
$GPGGA,143011.600,4308.3210,N,07726.2834,W,1,10,0.84,151.0,M,-34.4,M,,*5E
lng=-77.438034, lat=43.138679, altitude=150.90, speed=18.69, satellites=10, angle=292.3500, fixquality=1
$GPRMC,143011.800,A,4308.3215,N,07726.2848,W,19.72,294.39,140319,,,A*4C
$GPGGA,143012.000,4308.3219,N,07726.2862,W,1,10,0.84,151.2,M,-34.4,M,,*53
lng=-77.438079, lat=43.138687, altitude=151.00, speed=19.72, satellites=10, angle=294.3900, fixquality=1
$GPRMC,143012.200,A,4308.3224,N,07726.2876,W,20.44,296.00,140319,,,A*4D
$GPGGA,143012.400,4308.3229,N,07726.2891,W,1,10,0.84,151.3,M,-34.4,M,,*59
lng=-77.438125, lat=43.138706, altitude=151.20, speed=20.44, satellites=10, angle=296.0000, fixquality=1
$GPRMC,143012.600,A,4308.3235,N,07726.2905,W,21.45,296.18,140319,,,A*45
$GPGGA,143012.800,4308.3240,N,07726.2920,W,1,10,0.84,151.4,M,-34.4,M,,*56
lng=-77.438179, lat=43.138729, altitude=151.30, speed=21.45, satellites=10, angle=296.1800, fixquality=1
$GPRMC,143013.000,A,4308.3246,N,07726.2935,W,22.41,297.51,140319,,,A*4E
$GPGGA,143013.200,4308.3252,N,07726.2951,W,1,10,0.84,151.5,M,-34.4,M,,*59
lng=-77.438224, lat=43.138744, altitude=151.40, speed=22.41, satellites=10, angle=297.5100, fixquality=1
$GPRMC,143013.400,A,4308.3259,N,07726.2966,W,23.05,299.20,140319,,,A*4B
$GPGGA,143013.600,4308.3265,N,07726.2982,W,1,10,0.84,151.6,M,-34.4,M,,*54
lng=-77.438270, lat=43.138759, altitude=151.50, speed=23.05, satellites=10, angle=299.2000, fixquality=1
$GPRMC,143013.800,A,4308.3271,N,07726.2998,W,23.98,299.51,140319,,,A*4E
$GPGGA,143014.000,4308.3277,N,07726.3014,W,1,10,0.84,151.8,M,-34.4,M,,*5F
lng=-77.438331, lat=43.138786, altitude=151.60, speed=23.98, satellites=10, angle=299.5100, fixquality=1
$GPRMC,143014.200,A,4308.3284,N,07726.3030,W,24.53,300.66,140319,,,A*46
$GPGGA,143014.400,4308.3291,N,07726.3046,W,1,10,0.83,151.9,M,-34.4,M,,*52
lng=-77.438385, lat=43.138809, altitude=151.80, speed=24.53, satellites=10, angle=300.6600, fixquality=1
$GPRMC,143014.600,A,4308.3298,N,07726.3062,W,25.07,301.47,140319,,,A*4A
$GPGGA,143014.800,4308.3305,N,07726.3079,W,1,10,0.84,152.0,M,-34.4,M,,*53
lng=-77.438438, lat=43.138828, altitude=151.90, speed=25.07, satellites=10, angle=301.4700, fixquality=1
$GPRMC,143015.000,A,4308.3312,N,07726.3095,W,25.40,302.25,140319,,,A*42
$GPGGA,143015.200,4308.3320,N,07726.3112,W,1,10,0.84,152.1,M,-34.4,M,,*52
lng=-77.438491, lat=43.138851, altitude=152.00, speed=25.40, satellites=10, angle=302.2500, fixquality=1
$GPRMC,143015.400,A,4308.3328,N,07726.3129,W,25.90,301.63,140319,,,A*45
$GPGGA,143015.600,4308.3335,N,07726.3145,W,1,10,0.84,152.2,M,-34.4,M,,*53
lng=-77.438552, lat=43.138881, altitude=152.10, speed=25.90, satellites=10, angle=301.6300, fixquality=1
$GPRMC,143015.800,A,4308.3343,N,07726.3162,W,26.17,301.91,140319,,,A*4A
$GPGGA,143016.000,4308.3351,N,07726.3179,W,1,10,0.84,152.4,M,-34.4,M,,*5D
lng=-77.438606, lat=43.138908, altitude=152.20, speed=26.17, satellites=10, angle=301.9100, fixquality=1
$GPRMC,143016.200,A,4308.3359,N,07726.3197,W,26.41,302.23,140319,,,A*4B
$GPGGA,143016.400,4308.3367,N,07726.3214,W,1,10,0.84,152.5,M,-34.4,M,,*55
lng=-77.438667, lat=43.138931, altitude=152.40, speed=26.41, satellites=10, angle=302.2300, fixquality=1
$GPRMC,143016.600,A,4308.3375,N,07726.3231,W,26.57,302.22,140319,,,A*48
$GPGGA,143016.800,4308.3383,N,07726.3249,W,1,10,0.84,152.6,M,-34.4,M,,*58
lng=-77.438720, lat=43.138957, altitude=152.50, speed=26.57, satellites=10, angle=302.2200, fixquality=1
$GPRMC,143017.000,A,4308.3391,N,07726.3267,W,27.35,302.35,140319,,,A*45
$GPGGA,143017.200,4308.3399,N,07726.3284,W,1,10,0.84,152.7,M,-34.4,M,,*58
lng=-77.438774, lat=43.138980, altitude=152.60, speed=27.35, satellites=10, angle=302.3500, fixquality=1
$GPRMC,143017.400,A,4308.3407,N,07726.3302,W,27.26,302.55,140319,,,A*4F
$GPGGA,143017.600,4308.3415,N,07726.3320,W,1,10,0.84,152.9,M,-34.4,M,,*5E
lng=-77.438835, lat=43.139015, altitude=152.70, speed=27.26, satellites=10, angle=302.5500, fixquality=1
$GPRMC,143017.800,A,4308.3424,N,07726.3338,W,28.04,303.07,140319,,,A*42
$GPGGA,143018.000,4308.3432,N,07726.3357,W,1,10,0.84,153.0,M,-34.4,M,,*5A
lng=-77.438896, lat=43.139038, altitude=152.90, speed=28.04, satellites=10, angle=303.0700, fixquality=1
$GPRMC,143018.200,A,4308.3441,N,07726.3375,W,27.99,303.15,140319,,,A*45
$GPGGA,143018.400,4308.3450,N,07726.3392,W,1,10,0.84,153.2,M,-34.4,M,,*51
lng=-77.438957, lat=43.139072, altitude=153.00, speed=27.99, satellites=10, angle=303.1500, fixquality=1
$GPRMC,143018.600,A,4308.3459,N,07726.3410,W,27.95,304.14,140319,,,A*46
$GPGGA,143018.800,4308.3467,N,07726.3428,W,1,10,0.84,153.4,M,-34.4,M,,*59
lng=-77.439010, lat=43.139095, altitude=153.20, speed=27.95, satellites=10, angle=304.1400, fixquality=1
$GPRMC,143019.000,A,4308.3476,N,07726.3445,W,27.84,304.92,140319,,,A*42
$GPGGA,143019.200,4308.3485,N,07726.3463,W,1,10,0.84,153.5,M,-34.4,M,,*50
lng=-77.439079, lat=43.139125, altitude=153.40, speed=27.84, satellites=10, angle=304.9200, fixquality=1
$GPRMC,143019.400,A,4308.3494,N,07726.3480,W,27.63,305.36,140319,,,A*45
$GPGGA,143019.600,4308.3503,N,07726.3497,W,1,10,0.84,153.8,M,-34.4,M,,*5D
lng=-77.439132, lat=43.139160, altitude=153.50, speed=27.63, satellites=10, angle=305.3600, fixquality=1
$GPRMC,143019.800,A,4308.3512,N,07726.3514,W,27.54,307.99,140319,,,A*49
$GPGGA,143020.000,4308.3522,N,07726.3531,W,1,10,0.84,153.9,M,-34.4,M,,*5E
lng=-77.439193, lat=43.139183, altitude=153.80, speed=27.54, satellites=10, angle=307.9900, fixquality=1
$GPRMC,143020.200,A,4308.3531,N,07726.3547,W,27.46,310.30,140319,,,A*48
$GPGGA,143020.400,4308.3541,N,07726.3562,W,1,10,0.84,154.1,M,-34.4,M,,*56
lng=-77.439239, lat=43.139217, altitude=153.90, speed=27.46, satellites=10, angle=310.3000, fixquality=1
$GPRMC,143020.600,A,4308.3552,N,07726.3577,W,26.83,312.48,140319,,,A*4F
$GPGGA,143020.800,4308.3562,N,07726.3592,W,1,10,0.84,154.3,M,-34.4,M,,*56
lng=-77.439300, lat=43.139247, altitude=154.10, speed=26.83, satellites=10, angle=312.4800, fixquality=1
$GPRMC,143021.000,A,4308.3573,N,07726.3606,W,26.78,316.61,140319,,,A*45
$GPGGA,143021.200,4308.3584,N,07726.3620,W,1,10,0.84,154.5,M,-34.4,M,,*59
lng=-77.439346, lat=43.139289, altitude=154.30, speed=26.78, satellites=10, angle=316.6100, fixquality=1
$GPRMC,143021.400,A,4308.3595,N,07726.3633,W,26.57,320.50,140319,,,A*45
$GPGGA,143021.600,4308.3607,N,07726.3646,W,1,10,0.84,154.7,M,-34.4,M,,*57
lng=-77.439384, lat=43.139324, altitude=154.50, speed=26.57, satellites=10, angle=320.5000, fixquality=1
$GPRMC,143021.800,A,4308.3619,N,07726.3658,W,26.74,324.77,140319,,,A*43
$GPGGA,143022.000,4308.3631,N,07726.3670,W,1,10,0.84,154.9,M,-34.4,M,,*5C
lng=-77.439430, lat=43.139362, altitude=154.70, speed=26.74, satellites=10, angle=324.7700, fixquality=1
$GPRMC,143022.200,A,4308.3643,N,07726.3681,W,26.40,328.44,140319,,,A*4A
$GPGGA,143022.400,4308.3656,N,07726.3691,W,1,10,0.84,155.0,M,-34.4,M,,*5E
lng=-77.439468, lat=43.139404, altitude=154.90, speed=26.40, satellites=10, angle=328.4400, fixquality=1
$GPRMC,143022.600,A,4308.3669,N,07726.3700,W,26.43,332.36,140319,,,A*43
$GPGGA,143022.800,4308.3682,N,07726.3709,W,1,10,0.84,155.1,M,-34.4,M,,*5A
lng=-77.439498, lat=43.139446, altitude=155.00, speed=26.43, satellites=10, angle=332.3600, fixquality=1
$GPRMC,143023.000,A,4308.3696,N,07726.3718,W,26.43,336.88,140319,,,A*4C
$GPGGA,143023.200,4308.3710,N,07726.3725,W,1,10,0.84,155.2,M,-34.4,M,,*56
lng=-77.439529, lat=43.139492, altitude=155.10, speed=26.43, satellites=10, angle=336.8800, fixquality=1
$GPRMC,143023.400,A,4308.3724,N,07726.3732,W,26.27,341.00,140319,,,A*4A
$GPGGA,143023.600,4308.3738,N,07726.3738,W,1,10,0.84,155.2,M,-34.4,M,,*54
lng=-77.439552, lat=43.139541, altitude=155.20, speed=26.27, satellites=10, angle=341.0000, fixquality=1
$GPRMC,143023.800,A,4308.3752,N,07726.3744,W,26.53,344.99,140319,,,A*40
$GPGGA,143024.000,4308.3766,N,07726.3749,W,1,10,0.84,155.3,M,-34.4,M,,*59
lng=-77.439575, lat=43.139583, altitude=155.20, speed=26.53, satellites=10, angle=344.9900, fixquality=1
$GPRMC,143024.200,A,4308.3780,N,07726.3753,W,26.52,349.62,140319,,,A*4C
$GPGGA,143024.400,4308.3795,N,07726.3756,W,1,10,0.84,155.4,M,-34.4,M,,*58
lng=-77.439590, lat=43.139633, altitude=155.30, speed=26.52, satellites=10, angle=349.6200, fixquality=1
$GPRMC,143024.600,A,4308.3810,N,07726.3759,W,26.76,353.58,140319,,,A*40
$GPGGA,143024.800,4308.3824,N,07726.3761,W,1,10,0.84,155.5,M,-34.4,M,,*54
lng=-77.439598, lat=43.139682, altitude=155.40, speed=26.76, satellites=10, angle=353.5800, fixquality=1
$GPRMC,143025.000,A,4308.3839,N,07726.3762,W,26.95,357.13,140319,,,A*42
$GPGGA,143025.200,4308.3855,N,07726.3763,W,1,10,0.84,155.5,M,-34.4,M,,*5B
lng=-77.439598, lat=43.139728, altitude=155.50, speed=26.95, satellites=10, angle=357.1300, fixquality=1
$GPRMC,143025.400,A,4308.3870,N,07726.3763,W,27.59,1.26,140319,,,A*4D
$GPGGA,143025.600,4308.3886,N,07726.3762,W,1,10,0.83,155.6,M,-34.4,M,,*54
lng=-77.439605, lat=43.139785, altitude=155.50, speed=27.59, satellites=10, angle=1.2600, fixquality=1
$GPRMC,143025.800,A,4308.3901,N,07726.3761,W,28.06,3.45,140319,,,A*46
$GPGGA,143026.000,4308.3917,N,07726.3759,W,1,10,0.84,155.6,M,-34.4,M,,*57
lng=-77.439598, lat=43.139835, altitude=155.60, speed=28.06, satellites=10, angle=3.4500, fixquality=1
$GPRMC,143026.200,A,4308.3933,N,07726.3757,W,28.42,5.67,140319,,,A*4D
$GPGGA,143026.400,4308.3949,N,07726.3755,W,1,10,0.84,155.7,M,-34.4,M,,*55
lng=-77.439590, lat=43.139884, altitude=155.60, speed=28.42, satellites=10, angle=5.6700, fixquality=1
$GPRMC,143026.600,A,4308.3964,N,07726.3753,W,28.76,6.73,140319,,,A*4E
$GPGGA,143026.800,4308.3980,N,07726.3750,W,1,10,0.84,155.8,M,-34.4,M,,*56
lng=-77.439590, lat=43.139942, altitude=155.70, speed=28.76, satellites=10, angle=6.7300, fixquality=1
$GPRMC,143027.000,A,4308.3996,N,07726.3747,W,29.15,7.43,140319,,,A*47
$GPGGA,143027.200,4308.4013,N,07726.3744,W,1,10,0.84,155.8,M,-34.4,M,,*5C
lng=-77.439575, lat=43.139991, altitude=155.80, speed=29.15, satellites=10, angle=7.4300, fixquality=1
$GPRMC,143027.400,A,4308.4029,N,07726.3741,W,29.94,8.12,140319,,,A*4D
$GPGGA,143027.600,4308.4046,N,07726.3738,W,1,10,0.84,155.8,M,-34.4,M,,*53
lng=-77.439567, lat=43.140048, altitude=155.80, speed=29.94, satellites=10, angle=8.1200, fixquality=1
$GPRMC,143027.800,A,4308.4062,N,07726.3734,W,30.21,8.43,140319,,,A*4E
$GPGGA,143028.000,4308.4079,N,07726.3731,W,1,10,0.84,155.9,M,-34.4,M,,*5E
lng=-77.439559, lat=43.140102, altitude=155.80, speed=30.21, satellites=10, angle=8.4300, fixquality=1
$GPRMC,143028.200,A,4308.4095,N,07726.3727,W,30.51,8.75,140319,,,A*43
$GPGGA,143028.400,4308.4112,N,07726.3723,W,1,10,0.84,156.0,M,-34.4,M,,*5F
lng=-77.439544, lat=43.140159, altitude=155.90, speed=30.51, satellites=10, angle=8.7500, fixquality=1
$GPRMC,143028.600,A,4308.4129,N,07726.3720,W,30.81,8.81,140319,,,A*40
$GPGGA,143028.800,4308.4146,N,07726.3716,W,1,10,0.84,156.0,M,-34.4,M,,*54
lng=-77.439537, lat=43.140216, altitude=156.00, speed=30.81, satellites=10, angle=8.8100, fixquality=1
$GPRMC,143029.000,A,4308.4163,N,07726.3712,W,30.85,9.19,140319,,,A*4C
$GPGGA,143029.200,4308.4180,N,07726.3708,W,1,10,0.84,156.2,M,-34.4,M,,*58
lng=-77.439521, lat=43.140274, altitude=156.00, speed=30.85, satellites=10, angle=9.1900, fixquality=1
$GPRMC,143029.400,A,4308.4196,N,07726.3704,W,30.77,9.17,140319,,,A*46
$GPGGA,143029.600,4308.4213,N,07726.3701,W,1,10,0.84,156.3,M,-34.4,M,,*5D
lng=-77.439506, lat=43.140323, altitude=156.20, speed=30.77, satellites=10, angle=9.1700, fixquality=1
$GPRMC,143029.800,A,4308.4229,N,07726.3697,W,29.89,9.45,140319,,,A*48
$GPGGA,143030.000,4308.4246,N,07726.3693,W,1,10,0.84,156.4,M,-34.4,M,,*5E
lng=-77.439491, lat=43.140380, altitude=156.30, speed=29.89, satellites=10, angle=9.4500, fixquality=1
$GPRMC,143030.200,A,4308.4262,N,07726.3690,W,29.47,9.27,140319,,,A*44
$GPGGA,143030.400,4308.4278,N,07726.3686,W,1,10,0.84,156.5,M,-34.4,M,,*52
lng=-77.439483, lat=43.140438, altitude=156.40, speed=29.47, satellites=10, angle=9.2700, fixquality=1
$GPRMC,143030.600,A,4308.4294,N,07726.3683,W,29.21,9.31,140319,,,A*4C
$GPGGA,143030.800,4308.4310,N,07726.3679,W,1,10,0.84,156.6,M,-34.4,M,,*52
lng=-77.439468, lat=43.140487, altitude=156.50, speed=29.21, satellites=10, angle=9.3100, fixquality=1
$GPRMC,143031.000,A,4308.4325,N,07726.3676,W,28.43,9.37,140319,,,A*49
$GPGGA,143031.200,4308.4341,N,07726.3672,W,1,10,0.84,156.8,M,-34.4,M,,*58
lng=-77.439460, lat=43.140544, altitude=156.60, speed=28.43, satellites=10, angle=9.3700, fixquality=1
$GPRMC,143031.400,A,4308.4356,N,07726.3669,W,27.89,9.58,140319,,,A*47
$GPGGA,143031.600,4308.4371,N,07726.3665,W,1,10,0.84,156.9,M,-34.4,M,,*58
lng=-77.439445, lat=43.140590, altitude=156.80, speed=27.89, satellites=10, angle=9.5800, fixquality=1
$GPRMC,143031.800,A,4308.4386,N,07726.3662,W,26.71,9.87,140319,,,A*49
$GPGGA,143032.000,4308.4401,N,07726.3658,W,1,10,0.84,157.0,M,-34.4,M,,*5B
lng=-77.439437, lat=43.140640, altitude=156.90, speed=26.71, satellites=10, angle=9.8700, fixquality=1
$GPRMC,143032.200,A,4308.4414,N,07726.3655,W,25.29,9.97,140319,,,A*47
$GPGGA,143032.400,4308.4428,N,07726.3652,W,1,10,0.84,157.2,M,-34.4,M,,*5C
lng=-77.439430, lat=43.140689, altitude=157.00, speed=25.29, satellites=10, angle=9.9700, fixquality=1
$GPRMC,143032.600,A,4308.4441,N,07726.3649,W,23.06,10.43,140319,,,A*74
$GPGGA,143032.800,4308.4454,N,07726.3645,W,1,10,0.84,157.3,M,-34.4,M,,*5C
lng=-77.439414, lat=43.140739, altitude=157.20, speed=23.06, satellites=10, angle=10.4300, fixquality=1
$GPRMC,143033.000,A,4308.4465,N,07726.3642,W,20.90,10.95,140319,,,A*79
$GPGGA,143033.200,4308.4477,N,07726.3640,W,1,10,0.84,157.3,M,-34.4,M,,*53
lng=-77.439407, lat=43.140769, altitude=157.30, speed=20.90, satellites=10, angle=10.9500, fixquality=1
$GPRMC,143033.400,A,4308.4487,N,07726.3637,W,18.63,10.98,140319,,,A*79
$GPGGA,143033.600,4308.4497,N,07726.3634,W,1,10,0.84,157.4,M,-34.4,M,,*5D
lng=-77.439399, lat=43.140811, altitude=157.30, speed=18.63, satellites=10, angle=10.9800, fixquality=1
$GPRMC,143033.800,A,4308.4506,N,07726.3632,W,16.25,10.99,140319,,,A*75
$GPGGA,143034.000,4308.4515,N,07726.3630,W,1,10,0.84,157.4,M,-34.4,M,,*53
lng=-77.439384, lat=43.140846, altitude=157.40, speed=16.25, satellites=10, angle=10.9900, fixquality=1
$GPRMC,143034.200,A,4308.4523,N,07726.3628,W,13.88,12.00,140319,,,A*74
$GPGGA,143034.400,4308.4530,N,07726.3626,W,1,10,0.84,157.5,M,-34.4,M,,*56
lng=-77.439376, lat=43.140869, altitude=157.40, speed=13.88, satellites=10, angle=12.0000, fixquality=1
$GPRMC,143034.600,A,4308.4536,N,07726.3624,W,11.37,12.41,140319,,,A*7B
$GPGGA,143034.800,4308.4541,N,07726.3622,W,1,10,0.84,157.5,M,-34.4,M,,*58
lng=-77.439369, lat=43.140892, altitude=157.50, speed=11.37, satellites=10, angle=12.4100, fixquality=1
$GPRMC,143035.000,A,4308.4546,N,07726.3621,W,8.58,10.50,140319,,,A*4D
$GPGGA,143035.200,4308.4550,N,07726.3620,W,1,10,0.83,157.6,M,-34.4,M,,*55
lng=-77.439369, lat=43.140911, altitude=157.50, speed=8.58, satellites=10, angle=10.5000, fixquality=1
$GPRMC,143035.400,A,4308.4554,N,07726.3620,W,6.02,10.85,140319,,,A*42
$GPGGA,143035.600,4308.4556,N,07726.3619,W,1,10,0.84,157.6,M,-34.4,M,,*5A
lng=-77.439361, lat=43.140926, altitude=157.60, speed=6.02, satellites=10, angle=10.8500, fixquality=1
$GPRMC,143035.800,A,4308.4558,N,07726.3618,W,4.12,9.87,140319,,,A*70
$GPGGA,143036.000,4308.4560,N,07726.3617,W,1,10,0.83,157.7,M,-34.4,M,,*52
lng=-77.439361, lat=43.140926, altitude=157.60, speed=4.12, satellites=10, angle=9.8700, fixquality=1
$GPRMC,143036.200,A,4308.4562,N,07726.3617,W,3.21,10.65,140319,,,A*4C
$GPGGA,143036.400,4308.4564,N,07726.3616,W,1,10,0.84,157.7,M,-34.4,M,,*54
lng=-77.439361, lat=43.140933, altitude=157.70, speed=3.21, satellites=10, angle=10.6500, fixquality=1
$GPRMC,143036.600,A,4308.4566,N,07726.3616,W,3.82,6.09,140319,,,A*79
$GPGGA,143036.800,4308.4568,N,07726.3615,W,1,10,0.84,157.7,M,-34.4,M,,*57
lng=-77.439361, lat=43.140941, altitude=157.70, speed=3.82, satellites=10, angle=6.0900, fixquality=1
$GPRMC,143037.000,A,4308.4571,N,07726.3615,W,5.31,2.99,140319,,,A*78
$GPGGA,143037.200,4308.4574,N,07726.3615,W,1,10,0.84,157.7,M,-34.4,M,,*51
lng=-77.439353, lat=43.140949, altitude=157.70, speed=5.31, satellites=10, angle=2.9900, fixquality=1
$GPRMC,143037.400,A,4308.4577,N,07726.3615,W,6.62,356.41,140319,,,A*78
$GPGGA,143037.600,4308.4581,N,07726.3615,W,1,10,0.84,157.8,M,-34.4,M,,*50
lng=-77.439353, lat=43.140956, altitude=157.70, speed=6.62, satellites=10, angle=356.4100, fixquality=1
$GPRMC,143037.800,A,4308.4586,N,07726.3615,W,8.00,347.19,140319,,,A*7D
$GPGGA,143038.000,4308.4590,N,07726.3617,W,1,10,0.84,157.8,M,-34.4,M,,*5B
lng=-77.439353, lat=43.140975, altitude=157.80, speed=8.00, satellites=10, angle=347.1900, fixquality=1
$GPRMC,143038.200,A,4308.4595,N,07726.3619,W,9.55,338.09,140319,,,A*7E
$GPGGA,143038.400,4308.4600,N,07726.3622,W,1,10,0.84,157.9,M,-34.4,M,,*52
lng=-77.439361, lat=43.140991, altitude=157.80, speed=9.55, satellites=10, angle=338.0900, fixquality=1
$GPRMC,143038.600,A,4308.4605,N,07726.3626,W,10.77,327.60,140319,,,A*45
$GPGGA,143038.800,4308.4610,N,07726.3631,W,1,10,0.83,157.9,M,-34.4,M,,*5A
lng=-77.439376, lat=43.141006, altitude=157.90, speed=10.77, satellites=10, angle=327.6000, fixquality=1
$GPRMC,143039.000,A,4308.4615,N,07726.3637,W,11.95,314.60,140319,,,A*4E
$GPGGA,143039.200,4308.4619,N,07726.3643,W,1,10,0.84,157.9,M,-34.4,M,,*5A
lng=-77.439399, lat=43.141025, altitude=157.90, speed=11.95, satellites=10, angle=314.6000, fixquality=1
$GPRMC,143039.400,A,4308.4624,N,07726.3651,W,13.27,303.58,140319,,,A*4E
$GPGGA,143039.600,4308.4628,N,07726.3660,W,1,10,0.84,157.9,M,-34.4,M,,*5D
lng=-77.439422, lat=43.141040, altitude=157.90, speed=13.27, satellites=10, angle=303.5800, fixquality=1
$GPRMC,143039.800,A,4308.4631,N,07726.3669,W,14.60,295.20,140319,,,A*48
$GPGGA,143040.000,4308.4634,N,07726.3679,W,1,10,0.83,157.8,M,-34.4,M,,*56
lng=-77.439445, lat=43.141048, altitude=157.90, speed=14.60, satellites=10, angle=295.2000, fixquality=1
$GPRMC,143040.200,A,4308.4636,N,07726.3691,W,15.85,288.80,140319,,,A*40
$GPGGA,143040.400,4308.4638,N,07726.3702,W,1,10,0.84,157.7,M,-34.4,M,,*5B
lng=-77.439483, lat=43.141056, altitude=157.80, speed=15.85, satellites=10, angle=288.8000, fixquality=1
$GPRMC,143040.600,A,4308.4640,N,07726.3715,W,17.13,284.34,140319,,,A*46
$GPGGA,143040.800,4308.4642,N,07726.3728,W,1,10,0.84,157.5,M,-34.4,M,,*50
lng=-77.439529, lat=43.141063, altitude=157.70, speed=17.13, satellites=10, angle=284.3400, fixquality=1
$GPRMC,143041.000,A,4308.4643,N,07726.3742,W,18.25,280.13,140319,,,A*4B
$GPGGA,143041.200,4308.4644,N,07726.3756,W,1,10,0.84,157.4,M,-34.4,M,,*55
lng=-77.439567, lat=43.141071, altitude=157.50, speed=18.25, satellites=10, angle=280.1300, fixquality=1
$GPRMC,143041.400,A,4308.4646,N,07726.3770,W,19.32,277.95,140319,,,A*4A
$GPGGA,143041.600,4308.4648,N,07726.3784,W,1,10,0.84,157.2,M,-34.4,M,,*54
lng=-77.439613, lat=43.141071, altitude=157.40, speed=19.32, satellites=10, angle=277.9500, fixquality=1
$GPRMC,143041.800,A,4308.4650,N,07726.3799,W,20.05,277.40,140319,,,A*40
$GPGGA,143042.000,4308.4653,N,07726.3813,W,1,10,0.84,156.9,M,-34.4,M,,*50
lng=-77.439666, lat=43.141078, altitude=157.20, speed=20.05, satellites=10, angle=277.4000, fixquality=1
$GPRMC,143042.200,A,4308.4654,N,07726.3828,W,20.82,277.49,140319,,,A*4E
$GPGGA,143042.400,4308.4656,N,07726.3844,W,1,10,0.84,156.7,M,-34.4,M,,*5D
lng=-77.439712, lat=43.141090, altitude=156.90, speed=20.82, satellites=10, angle=277.4900, fixquality=1
$GPRMC,143042.600,A,4308.4657,N,07726.3860,W,21.66,277.07,140319,,,A*44
$GPGGA,143042.800,4308.4658,N,07726.3877,W,1,10,0.84,156.5,M,-34.4,M,,*5D
lng=-77.439773, lat=43.141098, altitude=156.70, speed=21.66, satellites=10, angle=277.0700, fixquality=1
$GPRMC,143043.000,A,4308.4660,N,07726.3894,W,22.57,277.58,140319,,,A*47
$GPGGA,143043.200,4308.4661,N,07726.3911,W,1,10,0.84,156.3,M,-34.4,M,,*5B
lng=-77.439819, lat=43.141098, altitude=156.50, speed=22.57, satellites=10, angle=277.5800, fixquality=1
$GPRMC,143043.400,A,4308.4663,N,07726.3929,W,23.34,277.70,140319,,,A*49
$GPGGA,143043.600,4308.4664,N,07726.3947,W,1,10,0.83,156.1,M,-34.4,M,,*5C
lng=-77.439888, lat=43.141105, altitude=156.30, speed=23.34, satellites=10, angle=277.7000, fixquality=1
$GPRMC,143043.800,A,4308.4666,N,07726.3965,W,23.74,277.88,140319,,,A*4B
$GPGGA,143044.000,4308.4667,N,07726.3983,W,1,10,0.83,155.9,M,-34.4,M,,*5D
lng=-77.439941, lat=43.141113, altitude=156.10, speed=23.74, satellites=10, angle=277.8800, fixquality=1
$GPRMC,143044.200,A,4308.4669,N,07726.4001,W,23.69,277.86,140319,,,A*47
$GPGGA,143044.400,4308.4671,N,07726.4019,W,1,10,0.83,155.7,M,-34.4,M,,*5D
lng=-77.439994, lat=43.141113, altitude=155.90, speed=23.69, satellites=10, angle=277.8600, fixquality=1
$GPRMC,143044.600,A,4308.4673,N,07726.4037,W,23.65,278.02,140319,,,A*42
$GPGGA,143044.800,4308.4674,N,07726.4054,W,1,10,0.83,155.6,M,-34.4,M,,*5C
lng=-77.440063, lat=43.141120, altitude=155.70, speed=23.65, satellites=10, angle=278.0200, fixquality=1
$GPRMC,143045.000,A,4308.4676,N,07726.4072,W,23.58,278.34,140319,,,A*4A
$GPGGA,143045.200,4308.4678,N,07726.4090,W,1,10,0.84,155.4,M,-34.4,M,,*56
lng=-77.440116, lat=43.141128, altitude=155.60, speed=23.58, satellites=10, angle=278.3400, fixquality=1
$GPRMC,143045.400,A,4308.4680,N,07726.4108,W,23.50,278.62,140319,,,A*40
$GPGGA,143045.600,4308.4682,N,07726.4126,W,1,10,0.83,155.3,M,-34.4,M,,*5B
lng=-77.440177, lat=43.141128, altitude=155.40, speed=23.50, satellites=10, angle=278.6200, fixquality=1
$GPRMC,143045.800,A,4308.4684,N,07726.4144,W,24.21,279.07,140319,,,A*43
$GPGGA,143046.000,4308.4686,N,07726.4163,W,1,10,0.84,155.2,M,-34.4,M,,*5D
lng=-77.440238, lat=43.141136, altitude=155.30, speed=24.21, satellites=10, angle=279.0700, fixquality=1
$GPRMC,143046.200,A,4308.4688,N,07726.4181,W,24.74,278.96,140319,,,A*46
$GPGGA,143046.400,4308.4690,N,07726.4200,W,1,10,0.83,155.2,M,-34.4,M,,*5F
lng=-77.440299, lat=43.141147, altitude=155.20, speed=24.74, satellites=10, angle=278.9600, fixquality=1
$GPRMC,143046.600,A,4308.4693,N,07726.4219,W,25.35,280.62,140319,,,A*42
$GPGGA,143046.800,4308.4696,N,07726.4238,W,1,10,0.83,155.1,M,-34.4,M,,*5D
lng=-77.440361, lat=43.141155, altitude=155.20, speed=25.35, satellites=10, angle=280.6200, fixquality=1
$GPRMC,143047.000,A,4308.4699,N,07726.4257,W,25.60,281.00,140319,,,A*40
$GPGGA,143047.200,4308.4702,N,07726.4276,W,1,10,0.84,155.0,M,-34.4,M,,*56
lng=-77.440429, lat=43.141162, altitude=155.10, speed=25.60, satellites=10, angle=281.0000, fixquality=1
$GPRMC,143047.400,A,4308.4705,N,07726.4295,W,25.82,281.63,140319,,,A*47
$GPGGA,143047.600,4308.4708,N,07726.4315,W,1,10,0.84,154.8,M,-34.4,M,,*55
lng=-77.440498, lat=43.141178, altitude=155.00, speed=25.82, satellites=10, angle=281.6300, fixquality=1
$GPRMC,143047.800,A,4308.4711,N,07726.4334,W,25.85,281.43,140319,,,A*41
$GPGGA,143048.000,4308.4714,N,07726.4353,W,1,10,0.83,154.8,M,-34.4,M,,*54
lng=-77.440559, lat=43.141185, altitude=154.80, speed=25.85, satellites=10, angle=281.4300, fixquality=1
$GPRMC,143048.200,A,4308.4717,N,07726.4373,W,26.22,282.61,140319,,,A*4C
$GPGGA,143048.400,4308.4720,N,07726.4392,W,1,10,0.83,154.8,M,-34.4,M,,*5A
lng=-77.440628, lat=43.141193, altitude=154.80, speed=26.22, satellites=10, angle=282.6100, fixquality=1
$GPRMC,143048.600,A,4308.4723,N,07726.4412,W,26.17,283.65,140319,,,A*4C
$GPGGA,143048.800,4308.4726,N,07726.4432,W,1,10,0.84,154.8,M,-34.4,M,,*5A
lng=-77.440689, lat=43.141201, altitude=154.80, speed=26.17, satellites=10, angle=283.6500, fixquality=1
$GPRMC,143049.000,A,4308.4730,N,07726.4451,W,26.16,283.18,140319,,,A*45
$GPGGA,143049.200,4308.4732,N,07726.4471,W,1,10,0.84,154.9,M,-34.4,M,,*52
lng=-77.440757, lat=43.141220, altitude=154.80, speed=26.16, satellites=10, angle=283.1800, fixquality=1
$GPRMC,143049.400,A,4308.4734,N,07726.4491,W,26.39,277.97,140319,,,A*48
$GPGGA,143049.600,4308.4736,N,07726.4510,W,1,10,0.84,155.1,M,-34.4,M,,*5D
lng=-77.440818, lat=43.141227, altitude=154.90, speed=26.39, satellites=10, angle=277.9700, fixquality=1
$GPRMC,143049.800,A,4308.4738,N,07726.4531,W,26.36,275.04,140319,,,A*44
$GPGGA,143050.000,4308.4739,N,07726.4551,W,1,10,0.84,155.2,M,-34.4,M,,*5A
lng=-77.440887, lat=43.141227, altitude=155.10, speed=26.36, satellites=10, angle=275.0400, fixquality=1
$GPRMC,143050.200,A,4308.4739,N,07726.4572,W,26.50,272.57,140319,,,A*41
$GPGGA,143050.400,4308.4740,N,07726.4593,W,1,10,0.83,155.0,M,-34.4,M,,*5B
lng=-77.440948, lat=43.141235, altitude=155.20, speed=26.50, satellites=10, angle=272.5700, fixquality=1
$GPRMC,143050.600,A,4308.4740,N,07726.4614,W,28.07,271.99,140319,,,A*45
$GPGGA,143050.800,4308.4741,N,07726.4635,W,1,10,0.84,154.9,M,-34.4,M,,*56
lng=-77.441024, lat=43.141235, altitude=155.00, speed=28.07, satellites=10, angle=271.9900, fixquality=1
$GPRMC,143051.000,A,4308.4742,N,07726.4657,W,29.05,272.51,140319,,,A*43
$GPGGA,143051.200,4308.4743,N,07726.4679,W,1,10,0.84,154.9,M,-34.4,M,,*57
lng=-77.441093, lat=43.141235, altitude=154.90, speed=29.05, satellites=10, angle=272.5100, fixquality=1
$GPRMC,143051.400,A,4308.4744,N,07726.4701,W,29.84,272.64,140319,,,A*4C
$GPGGA,143051.600,4308.4745,N,07726.4724,W,1,10,0.83,155.0,M,-34.4,M,,*53
lng=-77.441169, lat=43.141242, altitude=154.90, speed=29.84, satellites=10, angle=272.6400, fixquality=1
$GPRMC,143051.800,A,4308.4746,N,07726.4747,W,30.50,273.55,140319,,,A*42
$GPGGA,143052.000,4308.4747,N,07726.4770,W,1,10,0.84,155.1,M,-34.4,M,,*53
lng=-77.441246, lat=43.141242, altitude=155.00, speed=30.50, satellites=10, angle=273.5500, fixquality=1
$GPRMC,143052.200,A,4308.4749,N,07726.4793,W,30.98,274.52,140319,,,A*49
$GPGGA,143052.400,4308.4750,N,07726.4816,W,1,10,0.83,155.3,M,-34.4,M,,*5B
lng=-77.441322, lat=43.141250, altitude=155.10, speed=30.98, satellites=10, angle=274.5200, fixquality=1
$GPRMC,143052.600,A,4308.4752,N,07726.4840,W,31.28,275.30,140319,,,A*49
$GPGGA,143052.800,4308.4753,N,07726.4864,W,1,10,0.84,155.4,M,-34.4,M,,*51
lng=-77.441398, lat=43.141250, altitude=155.30, speed=31.28, satellites=10, angle=275.3000, fixquality=1
$GPRMC,143053.000,A,4308.4755,N,07726.4889,W,31.82,275.58,140319,,,A*42
$GPGGA,143053.200,4308.4757,N,07726.4913,W,1,10,0.84,155.5,M,-34.4,M,,*5E
lng=-77.441482, lat=43.141258, altitude=155.40, speed=31.82, satellites=10, angle=275.5800, fixquality=1
$GPRMC,143053.400,A,4308.4759,N,07726.4938,W,33.15,276.14,140319,,,A*46
$GPGGA,143053.600,4308.4761,N,07726.4963,W,1,10,0.84,155.6,M,-34.4,M,,*5B
lng=-77.441558, lat=43.141269, altitude=155.50, speed=33.15, satellites=10, angle=276.1400, fixquality=1
$GPRMC,143053.800,A,4308.4763,N,07726.4989,W,33.86,276.01,140319,,,A*47
$GPGGA,143054.000,4308.4765,N,07726.5015,W,1,10,0.84,155.7,M,-34.4,M,,*56
lng=-77.441650, lat=43.141269, altitude=155.60, speed=33.86, satellites=10, angle=276.0100, fixquality=1
$GPRMC,143054.200,A,4308.4767,N,07726.5041,W,34.62,275.36,140319,,,A*48
$GPGGA,143054.400,4308.4768,N,07726.5067,W,1,10,0.84,155.8,M,-34.4,M,,*55
lng=-77.441734, lat=43.141277, altitude=155.70, speed=34.62, satellites=10, angle=275.3600, fixquality=1
$GPRMC,143054.600,A,4308.4770,N,07726.5094,W,35.24,276.19,140319,,,A*4F
$GPGGA,143054.800,4308.4772,N,07726.5121,W,1,10,0.84,155.8,M,-34.4,M,,*51
lng=-77.441818, lat=43.141284, altitude=155.80, speed=35.24, satellites=10, angle=276.1900, fixquality=1
