Vers 57
USE_SERIAL_FEEDBACK=false
DEVELOPMENT_MODE=false
USE_RMC_ONLY=false

$GPRMC,205930.600,A,4308.3566,N,07726.3613,W,28.05,319.82,130319,,,A*4A
$GPGGA,205930.800,4308.3579,N,07726.3626,W,1,07,1.38,157.9,M,-34.4,M,,*50
lng=-77.439353, lat=43.139274, altitude=157.00, speed=28.05, satellites=7, angle=319.8200, fixquality=1
$GPRMC,205931.000,A,4308.3591,N,07726.3638,W,28.12,324.98,130319,,,A*4F
$GPGGA,205931.200,4308.3605,N,07726.3650,W,1,07,1.38,157.9,M,-34.4,M,,*52
lng=-77.439399, lat=43.139316, altitude=157.90, speed=28.12, satellites=7, angle=324.9800, fixquality=1
$GPRMC,205931.400,A,4308.3618,N,07726.3661,W,27.91,328.83,130319,,,A*47
$GPGGA,205931.600,4308.3632,N,07726.3671,W,1,07,1.38,158.0,M,-34.4,M,,*57
lng=-77.439437, lat=43.139362, altitude=157.90, speed=27.91, satellites=7, angle=328.8300, fixquality=1
$GPRMC,205931.800,A,4308.3645,N,07726.3682,W,27.47,332.17,130319,,,A*43
$GPGGA,205932.000,4308.3659,N,07726.3691,W,1,07,1.38,158.0,M,-34.4,M,,*51
lng=-77.439468, lat=43.139404, altitude=158.00, speed=27.47, satellites=7, angle=332.1700, fixquality=1
$GPRMC,205932.200,A,4308.3672,N,07726.3700,W,27.19,336.17,130319,,,A*4A
$GPGGA,205932.400,4308.3687,N,07726.3708,W,1,07,1.38,158.0,M,-34.4,M,,*57
lng=-77.439498, lat=43.139453, altitude=158.00, speed=27.19, satellites=7, angle=336.1700, fixquality=1
$GPRMC,205932.600,A,4308.3701,N,07726.3716,W,27.16,339.50,130319,,,A*4F
$GPGGA,205932.800,4308.3715,N,07726.3722,W,1,07,1.38,158.2,M,-34.4,M,,*5B
lng=-77.439529, lat=43.139503, altitude=158.00, speed=27.16, satellites=7, angle=339.5000, fixquality=1
$GPRMC,205933.000,A,4308.3730,N,07726.3728,W,27.23,344.59,130319,,,A*42
$GPGGA,205933.200,4308.3745,N,07726.3733,W,1,07,1.38,158.3,M,-34.4,M,,*54
lng=-77.439544, lat=43.139549, altitude=158.20, speed=27.23, satellites=7, angle=344.5900, fixquality=1
$GPRMC,205933.400,A,4308.3760,N,07726.3737,W,27.47,349.69,130319,,,A*41
$GPGGA,205933.600,4308.3775,N,07726.3740,W,1,07,1.38,158.3,M,-34.4,M,,*57
lng=-77.439559, lat=43.139598, altitude=158.30, speed=27.47, satellites=7, angle=349.6900, fixquality=1
$GPRMC,205933.800,A,4308.3790,N,07726.3742,W,27.75,354.47,130319,,,A*41
$GPGGA,205934.000,4308.3806,N,07726.3743,W,1,07,1.38,158.4,M,-34.4,M,,*59
lng=-77.439567, lat=43.139648, altitude=158.30, speed=27.75, satellites=7, angle=354.4700, fixquality=1
$GPRMC,205934.200,A,4308.3821,N,07726.3744,W,28.21,358.23,130319,,,A*4F
$GPGGA,205934.400,4308.3837,N,07726.3744,W,1,07,1.38,158.5,M,-34.4,M,,*59
lng=-77.439575, lat=43.139705, altitude=158.40, speed=28.21, satellites=7, angle=358.2300, fixquality=1
$GPRMC,205934.600,A,4308.3853,N,07726.3743,W,28.67,2.62,130319,,,A*42
$GPGGA,205934.800,4308.3870,N,07726.3743,W,1,07,1.38,158.5,M,-34.4,M,,*51
lng=-77.439575, lat=43.139755, altitude=158.50, speed=28.67, satellites=7, angle=2.6200, fixquality=1
$GPRMC,205935.000,A,4308.3886,N,07726.3742,W,29.14,3.63,130319,,,A*49
$GPGGA,205935.200,4308.3902,N,07726.3740,W,1,07,1.38,158.4,M,-34.4,M,,*5C
lng=-77.439567, lat=43.139812, altitude=158.50, speed=29.14, satellites=7, angle=3.6300, fixquality=1
$GPRMC,205935.400,A,4308.3919,N,07726.3738,W,29.77,4.96,130319,,,A*4F
$GPGGA,205935.600,4308.3935,N,07726.3736,W,1,07,1.28,158.3,M,-34.4,M,,*5B
lng=-77.439567, lat=43.139869, altitude=158.40, speed=29.77, satellites=7, angle=4.9600, fixquality=1
$GPRMC,205935.800,A,4308.3952,N,07726.3734,W,30.24,6.24,130319,,,A*45
$GPGGA,205936.000,4308.3969,N,07726.3731,W,1,07,1.38,158.3,M,-34.4,M,,*51
lng=-77.439559, lat=43.139915, altitude=158.30, speed=30.24, satellites=7, angle=6.2400, fixquality=1
$GPRMC,205936.200,A,4308.3986,N,07726.3728,W,30.51,7.07,130319,,,A*4A
$GPGGA,205936.400,4308.4003,N,07726.3725,W,1,07,1.38,158.3,M,-34.4,M,,*52
lng=-77.439544, lat=43.139972, altitude=158.30, speed=30.51, satellites=7, angle=7.0700, fixquality=1
$GPRMC,205936.600,A,4308.4020,N,07726.3722,W,30.70,8.22,130319,,,A*4D
$GPGGA,205936.800,4308.4036,N,07726.3718,W,1,07,1.38,158.3,M,-34.4,M,,*56
lng=-77.439537, lat=43.140029, altitude=158.30, speed=30.70, satellites=7, angle=8.2200, fixquality=1
$GPRMC,205937.000,A,4308.4053,N,07726.3715,W,30.41,8.70,130319,,,A*4F
$GPGGA,205937.200,4308.4070,N,07726.3711,W,1,07,1.38,158.4,M,-34.4,M,,*51
lng=-77.439529, lat=43.140087, altitude=158.30, speed=30.41, satellites=7, angle=8.7000, fixquality=1
$GPRMC,205937.400,A,4308.4086,N,07726.3708,W,29.98,9.03,130319,,,A*46
$GPGGA,205937.600,4308.4103,N,07726.3704,W,1,07,1.38,158.4,M,-34.4,M,,*54
lng=-77.439506, lat=43.140144, altitude=158.40, speed=29.98, satellites=7, angle=9.0300, fixquality=1
$GPRMC,205937.800,A,4308.4119,N,07726.3700,W,29.48,9.14,130319,,,A*4E
$GPGGA,205938.000,4308.4135,N,07726.3697,W,1,07,1.38,158.5,M,-34.4,M,,*52
lng=-77.439498, lat=43.140201, altitude=158.40, speed=29.48, satellites=7, angle=9.1400, fixquality=1
$GPRMC,205938.200,A,4308.4151,N,07726.3693,W,29.11,9.69,130319,,,A*4A
$GPGGA,205938.400,4308.4167,N,07726.3690,W,1,07,1.38,158.6,M,-34.4,M,,*55
lng=-77.439483, lat=43.140251, altitude=158.50, speed=29.11, satellites=7, angle=9.6900, fixquality=1
$GPRMC,205938.600,A,4308.4183,N,07726.3686,W,28.53,9.62,130319,,,A*49
$GPGGA,205938.800,4308.4198,N,07726.3682,W,1,07,1.38,158.7,M,-34.4,M,,*5B
lng=-77.439476, lat=43.140308, altitude=158.60, speed=28.53, satellites=7, angle=9.6200, fixquality=1
$GPRMC,205939.000,A,4308.4213,N,07726.3679,W,28.06,9.62,130319,,,A*44
$GPGGA,205939.200,4308.4229,N,07726.3675,W,1,07,1.38,158.8,M,-34.4,M,,*5E
lng=-77.439460, lat=43.140357, altitude=158.70, speed=28.06, satellites=7, angle=9.6200, fixquality=1
$GPRMC,205939.400,A,4308.4244,N,07726.3672,W,27.61,9.80,130319,,,A*4B
$GPGGA,205939.600,4308.4259,N,07726.3668,W,1,07,1.38,158.9,M,-34.4,M,,*50
lng=-77.439453, lat=43.140403, altitude=158.80, speed=27.61, satellites=7, angle=9.8000, fixquality=1
$GPRMC,205939.800,A,4308.4274,N,07726.3665,W,27.16,9.96,130319,,,A*45
$GPGGA,205940.000,4308.4288,N,07726.3661,W,1,07,1.38,159.0,M,-34.4,M,,*55
lng=-77.439445, lat=43.140453, altitude=158.90, speed=27.16, satellites=7, angle=9.9600, fixquality=1
$GPRMC,205940.200,A,4308.4303,N,07726.3658,W,26.69,10.13,130319,,,A*72
$GPGGA,205940.400,4308.4317,N,07726.3655,W,1,07,1.38,159.2,M,-34.4,M,,*53
lng=-77.439430, lat=43.140502, altitude=159.00, speed=26.69, satellites=7, angle=10.1300, fixquality=1
$GPRMC,205940.600,A,4308.4331,N,07726.3651,W,26.16,10.33,130319,,,A*74
$GPGGA,205940.800,4308.4346,N,07726.3648,W,1,07,1.38,159.3,M,-34.4,M,,*56
lng=-77.439422, lat=43.140552, altitude=159.20, speed=26.16, satellites=7, angle=10.3300, fixquality=1
$GPRMC,205941.000,A,4308.4360,N,07726.3644,W,25.80,9.83,130319,,,A*4C
$GPGGA,205941.200,4308.4374,N,07726.3641,W,1,07,1.38,159.5,M,-34.4,M,,*53
lng=-77.439407, lat=43.140602, altitude=159.30, speed=25.80, satellites=7, angle=9.8300, fixquality=1
$GPRMC,205941.400,A,4308.4388,N,07726.3638,W,25.20,10.19,130319,,,A*74
$GPGGA,205941.600,4308.4401,N,07726.3635,W,1,07,1.38,159.6,M,-34.4,M,,*52
lng=-77.439399, lat=43.140647, altitude=159.50, speed=25.20, satellites=7, angle=10.1900, fixquality=1
$GPRMC,205941.800,A,4308.4414,N,07726.3631,W,23.64,10.56,130319,,,A*7E
$GPGGA,205942.000,4308.4427,N,07726.3628,W,1,07,1.38,159.7,M,-34.4,M,,*5E
lng=-77.439384, lat=43.140689, altitude=159.60, speed=23.64, satellites=7, angle=10.5600, fixquality=1
$GPRMC,205942.200,A,4308.4439,N,07726.3625,W,21.94,10.94,130319,,,A*7E
$GPGGA,205942.400,4308.4450,N,07726.3622,W,1,07,1.38,159.9,M,-34.4,M,,*5E
lng=-77.439369, lat=43.140731, altitude=159.70, speed=21.94, satellites=7, angle=10.9400, fixquality=1
$GPRMC,205942.600,A,4308.4462,N,07726.3619,W,19.86,10.71,130319,,,A*78
$GPGGA,205942.800,4308.4472,N,07726.3616,W,1,07,1.38,160.0,M,-34.4,M,,*56
lng=-77.439361, lat=43.140769, altitude=159.90, speed=19.86, satellites=7, angle=10.7100, fixquality=1
$GPRMC,205943.000,A,4308.4482,N,07726.3613,W,17.52,11.02,130319,,,A*79
$GPGGA,205943.200,4308.4491,N,07726.3611,W,1,07,1.38,160.2,M,-34.4,M,,*55
lng=-77.439353, lat=43.140804, altitude=160.00, speed=17.52, satellites=7, angle=11.0200, fixquality=1
$GPRMC,205943.400,A,4308.4500,N,07726.3608,W,14.94,10.71,130319,,,A*70
$GPGGA,205943.600,4308.4507,N,07726.3606,W,1,07,1.38,160.3,M,-34.4,M,,*58
lng=-77.439346, lat=43.140834, altitude=160.20, speed=14.94, satellites=7, angle=10.7100, fixquality=1
$GPRMC,205943.800,A,4308.4514,N,07726.3604,W,12.08,11.00,130319,,,A*71
$GPGGA,205944.000,4308.4521,N,07726.3603,W,1,07,1.38,160.4,M,-34.4,M,,*5F
lng=-77.439338, lat=43.140853, altitude=160.30, speed=12.08, satellites=7, angle=11.0000, fixquality=1
$GPRMC,205944.200,A,4308.4526,N,07726.3601,W,9.39,10.59,130319,,,A*4D
$GPGGA,205944.400,4308.4531,N,07726.3600,W,1,07,1.38,160.4,M,-34.4,M,,*59
lng=-77.439331, lat=43.140876, altitude=160.40, speed=9.39, satellites=7, angle=10.5900, fixquality=1
$GPRMC,205944.600,A,4308.4534,N,07726.3599,W,6.60,11.13,130319,,,A*44
$GPGGA,205944.800,4308.4538,N,07726.3598,W,1,07,1.38,160.4,M,-34.4,M,,*5E
lng=-77.439331, lat=43.140892, altitude=160.40, speed=6.60, satellites=7, angle=11.1300, fixquality=1
$GPRMC,205945.000,A,4308.4540,N,07726.3598,W,4.86,7.71,130319,,,A*78
$GPGGA,205945.200,4308.4543,N,07726.3597,W,1,07,1.38,160.5,M,-34.4,M,,*57
lng=-77.439331, lat=43.140903, altitude=160.40, speed=4.86, satellites=7, angle=7.7100, fixquality=1
$GPRMC,205945.400,A,4308.4545,N,07726.3596,W,4.83,5.27,130319,,,A*73
$GPGGA,205945.600,4308.4548,N,07726.3596,W,1,07,1.38,160.5,M,-34.4,M,,*59
lng=-77.439323, lat=43.140911, altitude=160.50, speed=4.83, satellites=7, angle=5.2700, fixquality=1
$GPRMC,205945.800,A,4308.4551,N,07726.3596,W,6.01,357.48,130319,,,A*7F
$GPGGA,205946.000,4308.4554,N,07726.3596,W,1,07,1.38,160.6,M,-34.4,M,,*52
lng=-77.439323, lat=43.140918, altitude=160.50, speed=6.01, satellites=7, angle=357.4800, fixquality=1
$GPRMC,205946.200,A,4308.4558,N,07726.3597,W,7.18,348.10,130319,,,A*74
$GPGGA,205946.400,4308.4562,N,07726.3599,W,1,07,1.38,160.7,M,-34.4,M,,*5D
lng=-77.439331, lat=43.140926, altitude=160.60, speed=7.18, satellites=7, angle=348.1000, fixquality=1
$GPRMC,205946.600,A,4308.4566,N,07726.3601,W,8.55,337.73,130319,,,A*7A
$GPGGA,205946.800,4308.4571,N,07726.3603,W,1,07,1.38,160.7,M,-34.4,M,,*53
lng=-77.439331, lat=43.140941, altitude=160.70, speed=8.55, satellites=7, angle=337.7300, fixquality=1
$GPRMC,205947.000,A,4308.4575,N,07726.3607,W,9.65,327.02,130319,,,A*7C
$GPGGA,205947.200,4308.4579,N,07726.3612,W,1,07,1.38,160.7,M,-34.4,M,,*50
lng=-77.439346, lat=43.140956, altitude=160.70, speed=9.65, satellites=7, angle=327.0200, fixquality=1
$GPRMC,205947.400,A,4308.4584,N,07726.3617,W,11.05,312.92,130319,,,A*47
$GPGGA,205947.600,4308.4588,N,07726.3624,W,1,07,1.38,160.7,M,-34.4,M,,*5F
lng=-77.439361, lat=43.140975, altitude=160.70, speed=11.05, satellites=7, angle=312.9200, fixquality=1
$GPRMC,205947.800,A,4308.4592,N,07726.3631,W,12.39,305.25,130319,,,A*4E
$GPGGA,205948.000,4308.4595,N,07726.3639,W,1,07,1.38,160.6,M,-34.4,M,,*57
lng=-77.439384, lat=43.140983, altitude=160.70, speed=12.39, satellites=7, angle=305.2500, fixquality=1
$GPRMC,205948.200,A,4308.4599,N,07726.3648,W,13.65,296.26,130319,,,A*4E
$GPGGA,205948.400,4308.4602,N,07726.3658,W,1,07,1.38,160.5,M,-34.4,M,,*5A
lng=-77.439414, lat=43.140998, altitude=160.60, speed=13.65, satellites=7, angle=296.2600, fixquality=1
$GPRMC,205948.600,A,4308.4605,N,07726.3668,W,15.05,289.43,130319,,,A*43
$GPGGA,205948.800,4308.4607,N,07726.3679,W,1,07,1.38,160.4,M,-34.4,M,,*51
lng=-77.439445, lat=43.141006, altitude=160.50, speed=15.05, satellites=7, angle=289.4300, fixquality=1
$GPRMC,205949.000,A,4308.4610,N,07726.3691,W,16.43,285.61,130319,,,A*4B
$GPGGA,205949.200,4308.4612,N,07726.3703,W,1,07,1.38,160.3,M,-34.4,M,,*55
lng=-77.439483, lat=43.141014, altitude=160.40, speed=16.43, satellites=7, angle=285.6100, fixquality=1
$GPRMC,205949.400,A,4308.4614,N,07726.3716,W,17.61,281.48,130319,,,A*4B
$GPGGA,205949.600,4308.4616,N,07726.3730,W,1,07,1.38,160.1,M,-34.4,M,,*57
lng=-77.439529, lat=43.141025, altitude=160.30, speed=17.61, satellites=7, angle=281.4800, fixquality=1
$GPRMC,205949.800,A,4308.4617,N,07726.3744,W,18.85,278.07,130319,,,A*4B
$GPGGA,205950.000,4308.4619,N,07726.3758,W,1,07,1.38,159.9,M,-34.4,M,,*5A
lng=-77.439575, lat=43.141033, altitude=160.10, speed=18.85, satellites=7, angle=278.0700, fixquality=1
$GPRMC,205950.200,A,4308.4620,N,07726.3774,W,20.05,276.62,130319,,,A*40
$GPGGA,205950.400,4308.4621,N,07726.3789,W,1,07,1.38,159.7,M,-34.4,M,,*57
lng=-77.439620, lat=43.141033, altitude=159.90, speed=20.05, satellites=7, angle=276.6200, fixquality=1
$GPRMC,205950.600,A,4308.4622,N,07726.3805,W,21.14,276.48,130319,,,A*46
$GPGGA,205950.800,4308.4623,N,07726.3821,W,1,07,1.38,159.5,M,-34.4,M,,*56
lng=-77.439674, lat=43.141040, altitude=159.70, speed=21.14, satellites=7, angle=276.4800, fixquality=1
$GPRMC,205951.000,A,4308.4625,N,07726.3838,W,22.20,276.94,130319,,,A*4D
$GPGGA,205951.200,4308.4626,N,07726.3855,W,1,07,1.38,159.3,M,-34.4,M,,*5D
lng=-77.439727, lat=43.141040, altitude=159.50, speed=22.20, satellites=7, angle=276.9400, fixquality=1
$GPRMC,205951.400,A,4308.4628,N,07726.3873,W,23.40,277.55,130319,,,A*40
$GPGGA,205951.600,4308.4630,N,07726.3891,W,1,07,1.38,159.1,M,-34.4,M,,*54
lng=-77.439788, lat=43.141048, altitude=159.30, speed=23.40, satellites=7, angle=277.5500, fixquality=1
$GPRMC,205951.800,A,4308.4632,N,07726.3910,W,24.88,277.69,130319,,,A*4F
$GPGGA,205952.000,4308.4634,N,07726.3929,W,1,07,1.38,158.9,M,-34.4,M,,*5E
lng=-77.439849, lat=43.141056, altitude=159.10, speed=24.88, satellites=7, angle=277.6900, fixquality=1
$GPRMC,205952.200,A,4308.4636,N,07726.3949,W,26.45,277.83,130319,,,A*49
$GPGGA,205952.400,4308.4638,N,07726.3969,W,1,07,1.38,158.7,M,-34.4,M,,*5C
lng=-77.439918, lat=43.141056, altitude=158.90, speed=26.45, satellites=7, angle=277.8300, fixquality=1
$GPRMC,205952.600,A,4308.4640,N,07726.3990,W,27.78,278.11,130319,,,A*43
$GPGGA,205952.800,4308.4642,N,07726.4011,W,1,07,1.38,158.4,M,-34.4,M,,*5F
lng=-77.439979, lat=43.141063, altitude=158.70, speed=27.78, satellites=7, angle=278.1100, fixquality=1
$GPRMC,205953.000,A,4308.4644,N,07726.4033,W,29.07,278.22,130319,,,A*41
$GPGGA,205953.200,4308.4646,N,07726.4055,W,1,07,1.38,158.2,M,-34.4,M,,*56
lng=-77.440055, lat=43.141071, altitude=158.40, speed=29.07, satellites=7, angle=278.2200, fixquality=1
$GPRMC,205953.400,A,4308.4649,N,07726.4078,W,30.17,278.72,130319,,,A*4B
$GPGGA,205953.600,4308.4651,N,07726.4101,W,1,07,1.38,158.0,M,-34.4,M,,*56
lng=-77.440132, lat=43.141078, altitude=158.20, speed=30.17, satellites=7, angle=278.7200, fixquality=1
$GPRMC,205953.800,A,4308.4654,N,07726.4124,W,31.44,278.36,130319,,,A*44
$GPGGA,205954.000,4308.4656,N,07726.4148,W,1,07,1.38,157.9,M,-34.4,M,,*5B
lng=-77.440208, lat=43.141090, altitude=158.00, speed=31.44, satellites=7, angle=278.3600, fixquality=1
$GPRMC,205954.200,A,4308.4659,N,07726.4172,W,32.08,279.02,130319,,,A*4A
$GPGGA,205954.400,4308.4662,N,07726.4196,W,1,08,1.29,157.7,M,-34.4,M,,*5A
lng=-77.440284, lat=43.141098, altitude=157.90, speed=32.08, satellites=7, angle=279.0200, fixquality=1
$GPRMC,205954.600,A,4308.4665,N,07726.4220,W,33.05,278.64,130319,,,A*48
$GPGGA,205954.800,4308.4667,N,07726.4245,W,1,08,1.29,157.5,M,-34.4,M,,*5C
lng=-77.440361, lat=43.141105, altitude=157.70, speed=33.05, satellites=8, angle=278.6400, fixquality=1
$GPRMC,205955.000,A,4308.4670,N,07726.4270,W,33.81,278.96,130319,,,A*4F
$GPGGA,205955.200,4308.4673,N,07726.4296,W,1,08,1.29,157.4,M,-34.4,M,,*5D
lng=-77.440444, lat=43.141113, altitude=157.50, speed=33.81, satellites=8, angle=278.9600, fixquality=1
$GPRMC,205955.400,A,4308.4676,N,07726.4322,W,34.64,277.99,130319,,,A*47
$GPGGA,205955.600,4308.4679,N,07726.4348,W,1,08,1.29,157.3,M,-34.4,M,,*56
lng=-77.440536, lat=43.141128, altitude=157.40, speed=34.64, satellites=8, angle=277.9900, fixquality=1
$GPRMC,205955.800,A,4308.4681,N,07726.4374,W,35.38,277.70,130319,,,A*4F
$GPGGA,205956.000,4308.4684,N,07726.4401,W,1,08,1.29,157.2,M,-34.4,M,,*5A
lng=-77.440628, lat=43.141136, altitude=157.30, speed=35.38, satellites=8, angle=277.7000, fixquality=1
$GPRMC,205956.200,A,4308.4687,N,07726.4428,W,35.86,277.72,130319,,,A*49
$GPGGA,205956.400,4308.4690,N,07726.4455,W,1,08,1.29,157.2,M,-34.4,M,,*5A
lng=-77.440711, lat=43.141147, altitude=157.20, speed=35.86, satellites=8, angle=277.7200, fixquality=1
$GPRMC,205956.600,A,4308.4692,N,07726.4482,W,36.83,276.61,130319,,,A*4C
$GPGGA,205956.800,4308.4695,N,07726.4510,W,1,08,1.29,157.3,M,-34.4,M,,*52
lng=-77.440803, lat=43.141155, altitude=157.20, speed=36.83, satellites=8, angle=276.6100, fixquality=1
$GPRMC,205957.000,A,4308.4697,N,07726.4538,W,37.31,277.31,130319,,,A*42
$GPGGA,205957.200,4308.4700,N,07726.4567,W,1,08,1.29,157.1,M,-34.4,M,,*56
lng=-77.440895, lat=43.141162, altitude=157.30, speed=37.31, satellites=8, angle=277.3100, fixquality=1
$GPRMC,205957.400,A,4308.4703,N,07726.4595,W,37.33,278.16,130319,,,A*45
$GPGGA,205957.600,4308.4706,N,07726.4623,W,1,08,1.29,157.1,M,-34.4,M,,*57
lng=-77.440994, lat=43.141170, altitude=157.10, speed=37.33, satellites=8, angle=278.1600, fixquality=1
$GPRMC,205957.800,A,4308.4709,N,07726.4652,W,38.63,277.36,130319,,,A*4C
$GPGGA,205958.000,4308.4712,N,07726.4682,W,1,08,1.29,157.1,M,-34.4,M,,*50
lng=-77.441085, lat=43.141178, altitude=157.10, speed=38.63, satellites=8, angle=277.3600, fixquality=1
$GPRMC,205958.200,A,4308.4715,N,07726.4711,W,39.14,277.09,130319,,,A*4F
$GPGGA,205958.400,4308.4717,N,07726.4741,W,1,08,1.29,157.2,M,-34.4,M,,*5C
lng=-77.441184, lat=43.141193, altitude=157.10, speed=39.14, satellites=8, angle=277.0900, fixquality=1
$GPRMC,205958.600,A,4308.4720,N,07726.4771,W,39.54,277.35,130319,,,A*40
$GPGGA,205958.800,4308.4723,N,07726.4801,W,1,08,1.29,157.4,M,-34.4,M,,*5A
lng=-77.441284, lat=43.141201, altitude=157.20, speed=39.54, satellites=8, angle=277.3500, fixquality=1
$GPRMC,205959.000,A,4308.4726,N,07726.4831,W,40.01,277.60,130319,,,A*44
$GPGGA,205959.200,4308.4729,N,07726.4861,W,1,08,1.29,157.5,M,-34.4,M,,*5C
lng=-77.441383, lat=43.141212, altitude=157.40, speed=40.01, satellites=8, angle=277.6000, fixquality=1
$GPRMC,205959.400,A,4308.4731,N,07726.4892,W,40.51,277.30,130319,,,A*4F
$GPGGA,205959.600,4308.4734,N,07726.4923,W,1,08,1.29,157.6,M,-34.4,M,,*50
lng=-77.441490, lat=43.141220, altitude=157.50, speed=40.51, satellites=8, angle=277.3000, fixquality=1
$GPRMC,205959.800,A,4308.4737,N,07726.4954,W,41.07,277.09,130319,,,A*46
$GPGGA,210000.000,4308.4740,N,07726.4985,W,1,08,1.29,157.7,M,-34.4,M,,*59
lng=-77.441596, lat=43.141227, altitude=157.60, speed=41.07, satellites=8, angle=277.0900, fixquality=1
$GPRMC,210000.200,A,4308.4743,N,07726.5017,W,41.68,276.57,130319,,,A*42
$GPGGA,210000.400,4308.4745,N,07726.5049,W,1,09,0.95,157.4,M,-34.4,M,,*54
lng=-77.441688, lat=43.141235, altitude=157.70, speed=41.68, satellites=8, angle=276.5700, fixquality=1
$GPRMC,210000.600,A,4308.4748,N,07726.5082,W,42.33,276.15,130319,,,A*4A
$GPGGA,210000.800,4308.4750,N,07726.5115,W,1,09,0.95,157.1,M,-34.4,M,,*51
lng=-77.441802, lat=43.141242, altitude=157.40, speed=42.33, satellites=9, angle=276.1500, fixquality=1
$GPRMC,210001.000,A,4308.4752,N,07726.5148,W,42.98,275.45,130319,,,A*46
$GPGGA,210001.200,4308.4754,N,07726.5182,W,1,09,0.95,156.8,M,-34.4,M,,*58
lng=-77.441909, lat=43.141250, altitude=157.10, speed=42.98, satellites=9, angle=275.4500, fixquality=1
$GPRMC,210001.400,A,4308.4756,N,07726.5215,W,43.30,274.56,130319,,,A*4D
$GPGGA,210001.600,4308.4758,N,07726.5249,W,1,09,0.95,156.6,M,-34.4,M,,*5A
lng=-77.442024, lat=43.141258, altitude=156.80, speed=43.30, satellites=9, angle=274.5600, fixquality=1
$GPRMC,210001.800,A,4308.4760,N,07726.5283,W,44.17,274.06,130319,,,A*4C
$GPGGA,210002.000,4308.4762,N,07726.5318,W,1,09,0.95,156.4,M,-34.4,M,,*51
lng=-77.442138, lat=43.141269, altitude=156.60, speed=44.17, satellites=9, angle=274.0600, fixquality=1
$GPRMC,210002.200,A,4308.4763,N,07726.5352,W,44.19,273.60,130319,,,A*42
$GPGGA,210002.400,4308.4765,N,07726.5387,W,1,09,0.95,156.2,M,-34.4,M,,*52
lng=-77.442253, lat=43.141269, altitude=156.40, speed=44.19, satellites=9, angle=273.6000, fixquality=1
$GPRMC,210002.600,A,4308.4766,N,07726.5422,W,44.53,273.36,130319,,,A*4E
$GPGGA,210002.800,4308.4768,N,07726.5457,W,1,09,0.95,156.0,M,-34.4,M,,*5B
lng=-77.442367, lat=43.141277, altitude=156.20, speed=44.53, satellites=9, angle=273.3600, fixquality=1
$GPRMC,210003.000,A,4308.4769,N,07726.5492,W,44.74,273.19,130319,,,A*45
$GPGGA,210003.200,4308.4770,N,07726.5528,W,1,09,0.95,155.8,M,-34.4,M,,*5B
lng=-77.442489, lat=43.141284, altitude=156.00, speed=44.74, satellites=9, angle=273.1900, fixquality=1
$GPRMC,210003.400,A,4308.4772,N,07726.5563,W,46.51,272.92,130319,,,A*43
$GPGGA,210003.600,4308.4773,N,07726.5599,W,1,09,0.95,155.7,M,-34.4,M,,*59
lng=-77.442604, lat=43.141284, altitude=155.80, speed=46.51, satellites=9, angle=272.9200, fixquality=1
$GPRMC,210003.800,A,4308.4774,N,07726.5635,W,46.21,272.84,130319,,,A*49
$GPGGA,210004.000,4308.4775,N,07726.5671,W,1,09,0.95,155.5,M,-34.4,M,,*59
lng=-77.442726, lat=43.141292, altitude=155.70, speed=46.21, satellites=9, angle=272.8400, fixquality=1
$GPRMC,210004.200,A,4308.4776,N,07726.5707,W,46.68,272.91,130319,,,A*4F
$GPGGA,210004.400,4308.4778,N,07726.5743,W,1,09,0.95,155.4,M,-34.4,M,,*51
lng=-77.442848, lat=43.141292, altitude=155.50, speed=46.68, satellites=9, angle=272.9100, fixquality=1
$GPRMC,210004.600,A,4308.4779,N,07726.5778,W,46.15,272.84,130319,,,A*42
$GPGGA,210004.800,4308.4780,N,07726.5814,W,1,09,0.95,155.4,M,-34.4,M,,*57
lng=-77.442962, lat=43.141300, altitude=155.40, speed=46.15, satellites=9, angle=272.8400, fixquality=1
$GPRMC,210005.000,A,4308.4781,N,07726.5848,W,45.71,272.99,130319,,,A*43
$GPGGA,210005.200,4308.4782,N,07726.5883,W,1,09,0.95,155.4,M,-34.4,M,,*50
lng=-77.443084, lat=43.141300, altitude=155.40, speed=45.71, satellites=9, angle=272.9900, fixquality=1
$GPRMC,210005.400,A,4308.4784,N,07726.5918,W,45.28,272.78,130319,,,A*45
$GPGGA,210005.600,4308.4785,N,07726.5952,W,1,09,0.95,155.4,M,-34.4,M,,*5E
lng=-77.443199, lat=43.141307, altitude=155.40, speed=45.28, satellites=9, angle=272.7800, fixquality=1
$GPRMC,210005.800,A,4308.4786,N,07726.5986,W,45.13,272.23,130319,,,A*4A
$GPGGA,210006.000,4308.4786,N,07726.6021,W,1,09,0.95,155.5,M,-34.4,M,,*57
lng=-77.443313, lat=43.141307, altitude=155.40, speed=45.13, satellites=9, angle=272.2300, fixquality=1
$GPRMC,210006.200,A,4308.4787,N,07726.6055,W,44.93,271.74,130319,,,A*4E
$GPGGA,210006.400,4308.4788,N,07726.6089,W,1,09,0.95,155.4,M,-34.4,M,,*5E
lng=-77.443428, lat=43.141307, altitude=155.50, speed=44.93, satellites=9, angle=271.7400, fixquality=1
$GPRMC,210006.600,A,4308.4788,N,07726.6122,W,44.74,271.62,130319,,,A*4A
$GPGGA,210006.800,4308.4789,N,07726.6156,W,1,09,0.95,155.5,M,-34.4,M,,*51
lng=-77.443534, lat=43.141315, altitude=155.40, speed=44.74, satellites=9, angle=271.6200, fixquality=1
$GPRMC,210007.000,A,4308.4789,N,07726.6189,W,44.53,271.06,130319,,,A*4A
$GPGGA,210007.200,4308.4790,N,07726.6222,W,1,09,0.95,155.4,M,-34.4,M,,*53
lng=-77.443649, lat=43.141315, altitude=155.50, speed=44.53, satellites=9, angle=271.0600, fixquality=1
$GPRMC,210007.400,A,4308.4790,N,07726.6255,W,44.28,271.44,130319,,,A*4E
$GPGGA,210007.600,4308.4791,N,07726.6288,W,1,09,0.95,155.4,M,-34.4,M,,*56
lng=-77.443756, lat=43.141315, altitude=155.40, speed=44.28, satellites=9, angle=271.4400, fixquality=1
$GPRMC,210007.800,A,4308.4791,N,07726.6321,W,42.57,271.17,130319,,,A*49
$GPGGA,210008.000,4308.4792,N,07726.6353,W,1,09,0.95,155.4,M,-34.4,M,,*5B
lng=-77.443870, lat=43.141315, altitude=155.40, speed=42.57, satellites=9, angle=271.1700, fixquality=1
$GPRMC,210008.200,A,4308.4792,N,07726.6385,W,42.22,270.09,130319,,,A*4D
$GPGGA,210008.400,4308.4792,N,07726.6417,W,1,09,0.95,155.3,M,-34.4,M,,*5F
lng=-77.443977, lat=43.141315, altitude=155.40, speed=42.22, satellites=9, angle=270.0900, fixquality=1
$GPRMC,210008.600,A,4308.4791,N,07726.6449,W,41.96,268.63,130319,,,A*44
$GPGGA,210008.800,4308.4791,N,07726.6481,W,1,09,0.95,155.4,M,-34.4,M,,*58
lng=-77.444084, lat=43.141315, altitude=155.30, speed=41.96, satellites=9, angle=268.6300, fixquality=1
$GPRMC,210009.000,A,4308.4790,N,07726.6513,W,41.44,267.71,130319,,,A*4F
$GPGGA,210009.200,4308.4789,N,07726.6544,W,1,09,0.95,155.4,M,-34.4,M,,*52
lng=-77.444190, lat=43.141315, altitude=155.40, speed=41.44, satellites=9, angle=267.7100, fixquality=1
$GPRMC,210009.400,A,4308.4788,N,07726.6576,W,41.32,267.17,130319,,,A*40
$GPGGA,210009.600,4308.4787,N,07726.6607,W,1,09,0.95,155.5,M,-34.4,M,,*5D
lng=-77.444297, lat=43.141315, altitude=155.40, speed=41.32, satellites=9, angle=267.1700, fixquality=1
$GPRMC,210009.800,A,4308.4785,N,07726.6638,W,41.00,266.81,130319,,,A*47
$GPGGA,210010.000,4308.4784,N,07726.6669,W,1,09,0.95,155.5,M,-34.4,M,,*58
lng=-77.444389, lat=43.141307, altitude=155.50, speed=41.00, satellites=9, angle=266.8100, fixquality=1
$GPRMC,210010.200,A,4308.4783,N,07726.6699,W,40.32,266.25,130319,,,A*46
$GPGGA,210010.400,4308.4781,N,07726.6730,W,1,09,0.95,155.6,M,-34.4,M,,*57
lng=-77.444496, lat=43.141307, altitude=155.50, speed=40.32, satellites=9, angle=266.2500, fixquality=1
$GPRMC,210010.600,A,4308.4780,N,07726.6760,W,40.02,266.33,130319,,,A*42
$GPGGA,210010.800,4308.4778,N,07726.6790,W,1,09,0.95,155.7,M,-34.4,M,,*56
lng=-77.444595, lat=43.141300, altitude=155.60, speed=40.02, satellites=9, angle=266.3300, fixquality=1
$GPRMC,210011.000,A,4308.4777,N,07726.6820,W,39.25,266.08,130319,,,A*45
$GPGGA,210011.200,4308.4775,N,07726.6849,W,1,09,0.95,155.8,M,-34.4,M,,*54
lng=-77.444702, lat=43.141292, altitude=155.70, speed=39.25, satellites=9, angle=266.0800, fixquality=1
$GPRMC,210011.400,A,4308.4774,N,07726.6879,W,38.81,266.06,130319,,,A*4F
$GPGGA,210011.600,4308.4772,N,07726.6908,W,1,09,0.95,155.9,M,-34.4,M,,*52
lng=-77.444801, lat=43.141292, altitude=155.80, speed=38.81, satellites=9, angle=266.0600, fixquality=1
$GPRMC,210011.800,A,4308.4771,N,07726.6937,W,38.50,266.05,130319,,,A*42
$GPGGA,210012.000,4308.4769,N,07726.6966,W,1,09,0.95,156.0,M,-34.4,M,,*5F
lng=-77.444900, lat=43.141284, altitude=155.90, speed=38.50, satellites=9, angle=266.0500, fixquality=1
$GPRMC,210012.200,A,4308.4768,N,07726.6995,W,38.14,266.23,130319,,,A*4F
$GPGGA,210012.400,4308.4767,N,07726.7023,W,1,09,0.95,156.2,M,-34.4,M,,*5E
lng=-77.444992, lat=43.141277, altitude=156.00, speed=38.14, satellites=9, angle=266.2300, fixquality=1
$GPRMC,210012.600,A,4308.4765,N,07726.7052,W,37.90,266.45,130319,,,A*46
$GPGGA,210012.800,4308.4764,N,07726.7080,W,1,09,0.95,156.3,M,-34.4,M,,*59
lng=-77.445083, lat=43.141277, altitude=156.20, speed=37.90, satellites=9, angle=266.4500, fixquality=1
$GPRMC,210013.000,A,4308.4763,N,07726.7108,W,36.86,266.05,130319,,,A*4B
$GPGGA,210013.200,4308.4761,N,07726.7135,W,1,09,0.95,156.4,M,-34.4,M,,*5F
lng=-77.445182, lat=43.141269, altitude=156.30, speed=36.86, satellites=9, angle=266.0500, fixquality=1
$GPRMC,210013.400,A,4308.4760,N,07726.7163,W,36.41,265.49,130319,,,A*41
$GPGGA,210013.600,4308.4758,N,07726.7190,W,1,09,0.95,156.5,M,-34.4,M,,*5F
lng=-77.445274, lat=43.141269, altitude=156.40, speed=36.41, satellites=9, angle=265.4900, fixquality=1
$GPRMC,210013.800,A,4308.4756,N,07726.7217,W,35.86,265.18,130319,,,A*44
$GPGGA,210014.000,4308.4754,N,07726.7244,W,1,09,0.95,156.7,M,-34.4,M,,*5A
lng=-77.445358, lat=43.141258, altitude=156.50, speed=35.86, satellites=9, angle=265.1800, fixquality=1
$GPRMC,210014.200,A,4308.4753,N,07726.7271,W,35.71,265.02,130319,,,A*4F
$GPGGA,210014.400,4308.4751,N,07726.7297,W,1,09,0.95,156.8,M,-34.4,M,,*5A
lng=-77.445449, lat=43.141250, altitude=156.70, speed=35.71, satellites=9, angle=265.0200, fixquality=1
$GPRMC,210014.600,A,4308.4749,N,07726.7324,W,34.75,264.65,130319,,,A*44
$GPGGA,210014.800,4308.4747,N,07726.7350,W,1,09,0.95,157.0,M,-34.4,M,,*52
lng=-77.445541, lat=43.141250, altitude=156.80, speed=34.75, satellites=9, angle=264.6500, fixquality=1
$GPRMC,210015.000,A,4308.4746,N,07726.7377,W,34.94,264.98,130319,,,A*47
$GPGGA,210015.200,4308.4744,N,07726.7403,W,1,09,0.95,157.2,M,-34.4,M,,*59
lng=-77.445632, lat=43.141242, altitude=157.00, speed=34.94, satellites=9, angle=264.9800, fixquality=1
$GPRMC,210015.400,A,4308.4742,N,07726.7430,W,34.66,265.19,130319,,,A*46
$GPGGA,210015.600,4308.4741,N,07726.7456,W,1,09,0.95,157.3,M,-34.4,M,,*59
lng=-77.445716, lat=43.141235, altitude=157.20, speed=34.66, satellites=9, angle=265.1900, fixquality=1
$GPRMC,210015.800,A,4308.4739,N,07726.7482,W,34.62,265.23,130319,,,A*42
$GPGGA,210016.000,4308.4737,N,07726.7508,W,1,09,0.95,157.5,M,-34.4,M,,*51
lng=-77.445800, lat=43.141235, altitude=157.30, speed=34.62, satellites=9, angle=265.2300, fixquality=1
$GPRMC,210016.200,A,4308.4736,N,07726.7534,W,34.08,265.71,130319,,,A*43
$GPGGA,210016.400,4308.4734,N,07726.7560,W,1,09,0.95,157.6,M,-34.4,M,,*5B
lng=-77.445892, lat=43.141227, altitude=157.50, speed=34.08, satellites=9, angle=265.7100, fixquality=1
$GPRMC,210016.600,A,4308.4732,N,07726.7585,W,34.12,265.58,130319,,,A*49
$GPGGA,210016.800,4308.4731,N,07726.7611,W,1,09,0.95,157.8,M,-34.4,M,,*59
lng=-77.445968, lat=43.141220, altitude=157.60, speed=34.12, satellites=9, angle=265.5800, fixquality=1
$GPRMC,210017.000,A,4308.4730,N,07726.7637,W,33.96,265.57,130319,,,A*42
$GPGGA,210017.200,4308.4728,N,07726.7663,W,1,09,0.95,157.9,M,-34.4,M,,*5E
lng=-77.446060, lat=43.141220, altitude=157.80, speed=33.96, satellites=9, angle=265.5700, fixquality=1
$GPRMC,210017.400,A,4308.4727,N,07726.7689,W,33.86,265.82,130319,,,A*4C
$GPGGA,210017.600,4308.4726,N,07726.7714,W,1,09,0.95,158.0,M,-34.4,M,,*53
lng=-77.446151, lat=43.141212, altitude=157.90, speed=33.86, satellites=9, angle=265.8200, fixquality=1
$GPRMC,210017.800,A,4308.4724,N,07726.7740,W,33.89,265.88,130319,,,A*42
$GPGGA,210018.000,4308.4723,N,07726.7766,W,1,09,0.95,157.9,M,-34.4,M,,*5C
lng=-77.446235, lat=43.141201, altitude=158.00, speed=33.89, satellites=9, angle=265.8800, fixquality=1
$GPRMC,210018.200,A,4308.4722,N,07726.7791,W,33.83,265.79,130319,,,A*49
$GPGGA,210018.400,4308.4720,N,07726.7817,W,1,09,0.95,157.9,M,-34.4,M,,*52
lng=-77.446319, lat=43.141201, altitude=157.90, speed=33.83, satellites=9, angle=265.7900, fixquality=1
$GPRMC,210018.600,A,4308.4719,N,07726.7843,W,33.87,265.63,130319,,,A*4A
$GPGGA,210018.800,4308.4717,N,07726.7868,W,1,09,0.95,157.8,M,-34.4,M,,*53
lng=-77.446403, lat=43.141193, altitude=157.90, speed=33.87, satellites=9, angle=265.6300, fixquality=1
$GPRMC,210019.000,A,4308.4716,N,07726.7894,W,34.16,265.41,130319,,,A*47
$GPGGA,210019.200,4308.4714,N,07726.7920,W,1,09,0.95,157.7,M,-34.4,M,,*59
lng=-77.446495, lat=43.141193, altitude=157.80, speed=34.16, satellites=9, angle=265.4100, fixquality=1
$GPRMC,210019.400,A,4308.4713,N,07726.7946,W,34.14,265.34,130319,,,A*48
$GPGGA,210019.600,4308.4711,N,07726.7972,W,1,09,0.94,157.5,M,-34.4,M,,*5C
lng=-77.446571, lat=43.141185, altitude=157.70, speed=34.14, satellites=9, angle=265.3400, fixquality=1
$GPRMC,210019.800,A,4308.4710,N,07726.7998,W,34.43,265.11,130319,,,A*41
$GPGGA,210020.000,4308.4708,N,07726.8024,W,1,09,0.94,157.4,M,-34.4,M,,*5C
lng=-77.446662, lat=43.141185, altitude=157.50, speed=34.43, satellites=9, angle=265.1100, fixquality=1
$GPRMC,210020.200,A,4308.4706,N,07726.8050,W,34.44,265.21,130319,,,A*40
$GPGGA,210020.400,4308.4705,N,07726.8076,W,1,09,0.94,157.3,M,-34.4,M,,*55
lng=-77.446754, lat=43.141178, altitude=157.40, speed=34.44, satellites=9, angle=265.2100, fixquality=1
$GPRMC,210020.600,A,4308.4703,N,07726.8102,W,34.90,264.87,130319,,,A*43
$GPGGA,210020.800,4308.4701,N,07726.8129,W,1,09,0.95,157.1,M,-34.4,M,,*55
lng=-77.446830, lat=43.141170, altitude=157.30, speed=34.90, satellites=9, angle=264.8700, fixquality=1
$GPRMC,210021.000,A,4308.4699,N,07726.8155,W,34.95,265.01,130319,,,A*4E
$GPGGA,210021.200,4308.4698,N,07726.8182,W,1,09,0.95,157.0,M,-34.4,M,,*5F
lng=-77.446922, lat=43.141162, altitude=157.10, speed=34.95, satellites=9, angle=265.0100, fixquality=1
$GPRMC,210021.400,A,4308.4696,N,07726.8208,W,35.27,265.29,130319,,,A*4C
$GPGGA,210021.600,4308.4694,N,07726.8235,W,1,09,0.95,156.9,M,-34.4,M,,*50
lng=-77.447013, lat=43.141162, altitude=157.00, speed=35.27, satellites=9, angle=265.2900, fixquality=1
$GPRMC,210021.800,A,4308.4693,N,07726.8262,W,35.47,265.37,130319,,,A*40
$GPGGA,210022.000,4308.4691,N,07726.8289,W,1,09,0.95,156.7,M,-34.4,M,,*59
lng=-77.447105, lat=43.141155, altitude=156.90, speed=35.47, satellites=9, angle=265.3700, fixquality=1
$GPRMC,210022.200,A,4308.4689,N,07726.8316,W,35.80,265.43,130319,,,A*48
$GPGGA,210022.400,4308.4688,N,07726.8343,W,1,09,0.95,156.6,M,-34.4,M,,*53
lng=-77.447189, lat=43.141147, altitude=156.70, speed=35.80, satellites=9, angle=265.4300, fixquality=1
$GPRMC,210022.600,A,4308.4686,N,07726.8371,W,35.92,265.68,130319,,,A*48
$GPGGA,210022.800,4308.4685,N,07726.8398,W,1,09,0.95,156.4,M,-34.4,M,,*56
lng=-77.447280, lat=43.141147, altitude=156.60, speed=35.92, satellites=9, angle=265.6800, fixquality=1
$GPGGA,210023.200,4308.4682,N,07726.8454,W,1,09,0.95,156.2,M,-34.4,M,,*5B
$GPRMC,210023.200,A,4308.4682,N,07726.8454,W,36.61,265.47,13031$GPGGA,210023.400,4308.4680,N,07726.8481,W,1,09,0.95,156.1,M,-34.4,M,,*54
lng=-77.447418, lat=43.141136, altitude=156.20, speed=35.92, satellites=9, angle=265.6800, fixquality=1
$GPRMC,210023.600,A,4308.4679,N,07726.8509,W,36.91,265.15,130319,,,A*4A
$GPGGA,210023.800,4308.4677,N,07726.8537,W,1,09,0.95,155.9,M,-34.4,M,,*57
lng=-77.447517, lat=43.141128, altitude=156.20, speed=36.91, satellites=9, angle=265.1500, fixquality=1
$GPRMC,210024.000,A,4308.4675,N,07726.8566,W,37.35,264.96,130319,,,A*4B
$GPGGA,210024.200,4308.4674,N,07726.8594,W,1,09,0.95,155.8,M,-34.4,M,,*51
lng=-77.447608, lat=43.141120, altitude=155.90, speed=37.35, satellites=9, angle=264.9600, fixquality=1
$GPRMC,210024.400,A,4308.4672,N,07726.8623,W,37.46,264.99,130319,,,A*41
$GPGGA,210024.600,4308.4670,N,07726.8651,W,1,09,0.95,155.6,M,-34.4,M,,*55
lng=-77.447708, lat=43.141120, altitude=155.80, speed=37.46, satellites=9, angle=264.9900, fixquality=1
$GPRMC,210024.800,A,4308.4668,N,07726.8680,W,37.99,264.72,130319,,,A*48
$GPGGA,210025.000,4308.4666,N,07726.8709,W,1,09,0.95,155.4,M,-34.4,M,,*5B
lng=-77.447799, lat=43.141113, altitude=155.60, speed=37.99, satellites=9, angle=264.7200, fixquality=1
$GPRMC,210025.200,A,4308.4664,N,07726.8738,W,38.22,264.81,130319,,,A*4E
$GPGGA,210025.400,4308.4662,N,07726.8767,W,1,09,0.95,155.2,M,-34.4,M,,*55
lng=-77.447898, lat=43.141105, altitude=155.40, speed=38.22, satellites=9, angle=264.8100, fixquality=1
$GPRMC,210025.600,A,4308.4660,N,07726.8796,W,38.50,264.79,130319,,,A*48
$GPGGA,210025.800,4308.4658,N,07726.8825,W,1,09,0.95,155.0,M,-34.4,M,,*5B
lng=-77.447990, lat=43.141098, altitude=155.20, speed=38.50, satellites=9, angle=264.7900, fixquality=1
$GPRMC,210026.000,A,4308.4657,N,07726.8854,W,38.71,264.75,130319,,,A*47
$GPGGA,210026.200,4308.4655,N,07726.8884,W,1,09,0.95,154.9,M,-34.4,M,,*5C
lng=-77.448089, lat=43.141098, altitude=155.00, speed=38.71, satellites=9, angle=264.7500, fixquality=1
$GPRMC,210026.400,A,4308.4653,N,07726.8913,W,38.90,264.88,130319,,,A*48
$GPGGA,210026.600,4308.4651,N,07726.8943,W,1,09,0.95,154.7,M,-34.4,M,,*58
lng=-77.448188, lat=43.141090, altitude=154.90, speed=38.90, satellites=9, angle=264.8800, fixquality=1
$GPRMC,210026.800,A,4308.4649,N,07726.8972,W,39.18,264.93,130319,,,A*43
$GPGGA,210027.000,4308.4647,N,07726.9002,W,1,09,0.95,154.5,M,-34.4,M,,*57
lng=-77.448280, lat=43.141078, altitude=154.70, speed=39.18, satellites=9, angle=264.9300, fixquality=1
$GPRMC,210027.200,A,4308.4645,N,07726.9032,W,39.32,265.00,130319,,,A*4B
$GPGGA,210027.400,4308.4643,N,07726.9062,W,1,09,0.95,154.3,M,-34.4,M,,*57
lng=-77.448387, lat=43.141071, altitude=154.50, speed=39.32, satellites=9, angle=265.0000, fixquality=1
$GPRMC,210027.600,A,4308.4642,N,07726.9092,W,39.66,265.10,130319,,,A*42
$GPGGA,210027.800,4308.4640,N,07726.9122,W,1,09,0.95,154.1,M,-34.4,M,,*5F
lng=-77.448486, lat=43.141071, altitude=154.30, speed=39.66, satellites=9, angle=265.1000, fixquality=1
$GPRMC,210028.000,A,4308.4638,N,07726.9152,W,39.81,264.79,130319,,,A*4C
$GPGGA,210028.200,4308.4636,N,07726.9182,W,1,09,0.95,153.9,M,-34.4,M,,*5E
lng=-77.448585, lat=43.141063, altitude=154.10, speed=39.81, satellites=9, angle=264.7900, fixquality=1
$GPRMC,210028.400,A,4308.4634,N,07726.9213,W,40.04,264.80,130319,,,A*47
$GPGGA,210028.600,4308.4631,N,07726.9243,W,1,09,0.95,153.6,M,-34.4,M,,*5C
lng=-77.448692, lat=43.141056, altitude=153.90, speed=40.04, satellites=9, angle=264.8000, fixquality=1
$GPRMC,210028.800,A,4308.4629,N,07726.9273,W,40.19,264.65,130319,,,A*46
$GPGGA,210029.000,4308.4627,N,07726.9304,W,1,09,0.95,153.4,M,-34.4,M,,*5C
lng=-77.448783, lat=43.141048, altitude=153.60, speed=40.19, satellites=9, angle=264.6500, fixquality=1
$GPRMC,210029.200,A,4308.4625,N,07726.9334,W,40.21,264.73,130319,,,A*4F
$GPGGA,210029.400,4308.4623,N,07726.9365,W,1,09,0.95,153.2,M,-34.4,M,,*5D
lng=-77.448890, lat=43.141040, altitude=153.40, speed=40.21, satellites=9, angle=264.7300, fixquality=1
$GPRMC,210029.600,A,4308.4621,N,07726.9395,W,40.00,264.97,130319,,,A*4D
$GPGGA,210029.800,4308.4619,N,07726.9425,W,1,09,0.95,153.0,M,-34.4,M,,*59
lng=-77.448989, lat=43.141033, altitude=153.20, speed=40.00, satellites=9, angle=264.9700, fixquality=1
$GPRMC,210030.000,A,4308.4617,N,07726.9455,W,39.93,265.28,130319,,,A*4C
$GPGGA,210030.200,4308.4616,N,07726.9486,W,1,09,0.95,152.7,M,-34.4,M,,*5B
lng=-77.449089, lat=43.141033, altitude=153.00, speed=39.93, satellites=9, angle=265.2800, fixquality=1
$GPRMC,210030.400,A,4308.4614,N,07726.9516,W,39.83,265.43,130319,,,A*41
$GPGGA,210030.600,4308.4612,N,07726.9546,W,1,09,0.95,152.4,M,-34.4,M,,*55
lng=-77.449195, lat=43.141025, altitude=152.70, speed=39.83, satellites=9, angle=265.4300, fixquality=1
$GPRMC,210030.800,A,4308.4610,N,07726.9576,W,39.54,265.36,130319,,,A*47
$GPGGA,210031.000,4308.4609,N,07726.9606,W,1,09,0.95,152.2,M,-34.4,M,,*59
lng=-77.449295, lat=43.141014, altitude=152.40, speed=39.54, satellites=9, angle=265.3600, fixquality=1
$GPRMC,210031.200,A,4308.4607,N,07726.9636,W,39.35,265.44,130319,,,A*4F
$GPGGA,210031.400,4308.4605,N,07726.9666,W,1,09,0.95,151.9,M,-34.4,M,,*5F
lng=-77.449386, lat=43.141014, altitude=152.20, speed=39.35, satellites=9, angle=265.4400, fixquality=1
$GPRMC,210031.600,A,4308.4603,N,07726.9696,W,39.34,265.38,130319,,,A*4F
$GPGGA,210031.800,4308.4602,N,07726.9726,W,1,09,0.95,151.7,M,-34.4,M,,*5F
lng=-77.449493, lat=43.141006, altitude=151.90, speed=39.34, satellites=9, angle=265.3800, fixquality=1
$GPRMC,210032.000,A,4308.4600,N,07726.9756,W,39.41,265.35,130319,,,A*4B
$GPGGA,210032.200,4308.4598,N,07726.9786,W,1,09,0.95,151.5,M,-34.4,M,,*5E
lng=-77.449592, lat=43.140998, altitude=151.70, speed=39.41, satellites=9, angle=265.3500, fixquality=1
$GPRMC,210032.400,A,4308.4596,N,07726.9816,W,39.66,265.38,130319,,,A*40
$GPGGA,210032.600,4308.4594,N,07726.9846,W,1,09,0.95,151.3,M,-34.4,M,,*53
lng=-77.449691, lat=43.140991, altitude=151.50, speed=39.66, satellites=9, angle=265.3800, fixquality=1
$GPRMC,210032.800,A,4308.4592,N,07726.9876,W,39.67,265.35,130319,,,A*42
$GPGGA,210033.000,4308.4590,N,07726.9906,W,1,09,0.95,151.1,M,-34.4,M,,*57
lng=-77.449798, lat=43.140983, altitude=151.30, speed=39.67, satellites=9, angle=265.3500, fixquality=1
$GPRMC,210033.200,A,4308.4589,N,07726.9936,W,39.91,265.31,130319,,,A*4B
$GPGGA,210033.400,4308.4587,N,07726.9967,W,1,09,0.95,151.0,M,-34.4,M,,*53
lng=-77.449897, lat=43.140983, altitude=151.10, speed=39.91, satellites=9, angle=265.3100, fixquality=1
$GPRMC,210033.600,A,4308.4585,N,07726.9997,W,39.97,265.27,130319,,,A*49
$GPGGA,210033.800,4308.4584,N,07727.0028,W,1,09,0.95,150.8,M,-34.4,M,,*5F
lng=-77.449989, lat=43.140975, altitude=151.00, speed=39.97, satellites=9, angle=265.2700, fixquality=1
$GPRMC,210034.000,A,4308.4582,N,07727.0058,W,40.24,265.48,130319,,,A*42
$GPGGA,210034.200,4308.4580,N,07727.0089,W,1,09,0.95,150.7,M,-34.4,M,,*52
lng=-77.450096, lat=43.140968, altitude=150.80, speed=40.24, satellites=9, angle=265.4800, fixquality=1
$GPRMC,210034.400,A,4308.4579,N,07727.0120,W,40.76,265.66,130319,,,A*47
$GPGGA,210034.600,4308.4577,N,07727.0151,W,1,09,0.95,150.5,M,-34.4,M,,*58
lng=-77.450202, lat=43.140968, altitude=150.70, speed=40.76, satellites=9, angle=265.6600, fixquality=1
$GPRMC,210034.800,A,4308.4575,N,07727.0182,W,41.06,265.76,130319,,,A*48
$GPGGA,210035.000,4308.4574,N,07727.0213,W,1,09,0.95,150.3,M,-34.4,M,,*5F
lng=-77.450302, lat=43.140956, altitude=150.50, speed=41.06, satellites=9, angle=265.7600, fixquality=1
$GPRMC,210035.200,A,4308.4572,N,07727.0244,W,41.23,266.32,130319,,,A*49
$GPGGA,210035.400,4308.4571,N,07727.0275,W,1,09,0.95,150.2,M,-34.4,M,,*5F
lng=-77.450408, lat=43.140949, altitude=150.30, speed=41.23, satellites=9, angle=266.3200, fixquality=1
$GPRMC,210035.600,A,4308.4570,N,07727.0306,W,41.43,267.33,130319,,,A*4E
$GPGGA,210035.800,4308.4569,N,07727.0338,W,1,09,0.95,150.0,M,-34.4,M,,*50
lng=-77.450515, lat=43.140949, altitude=150.20, speed=41.43, satellites=9, angle=267.3300, fixquality=1
$GPRMC,210036.000,A,4308.4568,N,07727.0369,W,41.87,268.53,130319,,,A*4A
$GPGGA,210036.200,4308.4567,N,07727.0401,W,1,09,0.95,149.8,M,-34.4,M,,*5A
lng=-77.450614, lat=43.140949, altitude=150.00, speed=41.87, satellites=9, angle=268.5300, fixquality=1
$GPRMC,210036.400,A,4308.4567,N,07727.0433,W,41.99,269.72,130319,,,A*44
$GPGGA,210036.600,4308.4567,N,07727.0465,W,1,09,0.95,149.7,M,-34.4,M,,*53
lng=-77.450721, lat=43.140941, altitude=149.80, speed=41.99, satellites=9, angle=269.7200, fixquality=1
$GPRMC,210036.800,A,4308.4567,N,07727.0497,W,42.24,270.73,130319,,,A*4A
$GPGGA,210037.000,4308.4568,N,07727.0529,W,1,09,0.95,149.4,M,-34.4,M,,*51
lng=-77.450828, lat=43.140941, altitude=149.70, speed=42.24, satellites=9, angle=270.7300, fixquality=1
$GPRMC,210037.200,A,4308.4568,N,07727.0561,W,42.33,271.66,130319,,,A*45
$GPGGA,210037.400,4308.4569,N,07727.0594,W,1,09,0.95,149.2,M,-34.4,M,,*54
lng=-77.450935, lat=43.140949, altitude=149.40, speed=42.33, satellites=9, angle=271.6600, fixquality=1
$GPRMC,210037.600,A,4308.4570,N,07727.0626,W,42.72,272.50,130319,,,A*4B
$GPGGA,210037.800,4308.4571,N,07727.0659,W,1,09,0.95,149.0,M,-34.4,M,,*51
lng=-77.451042, lat=43.140949, altitude=149.20, speed=42.72, satellites=9, angle=272.5000, fixquality=1
$GPRMC,210038.000,A,4308.4572,N,07727.0692,W,42.89,273.10,130319,,,A*4E
$GPGGA,210038.200,4308.4573,N,07727.0725,W,1,09,0.95,148.8,M,-34.4,M,,*55
lng=-77.451156, lat=43.140949, altitude=149.00, speed=42.89, satellites=9, angle=273.1000, fixquality=1
$GPRMC,210038.400,A,4308.4575,N,07727.0757,W,43.10,274.24,130319,,,A*44
$GPGGA,210038.600,4308.4576,N,07727.0790,W,1,09,0.94,148.5,M,-34.4,M,,*56
lng=-77.451263, lat=43.140956, altitude=148.80, speed=43.10, satellites=9, angle=274.2400, fixquality=1
$GPRMC,210038.800,A,4308.4578,N,07727.0823,W,43.52,275.13,130319,,,A*4A
$GPGGA,210039.000,4308.4581,N,07727.0856,W,1,09,0.95,148.4,M,-34.4,M,,*5C
lng=-77.451377, lat=43.140968, altitude=148.50, speed=43.52, satellites=9, angle=275.1300, fixquality=1
$GPRMC,210039.200,A,4308.4583,N,07727.0890,W,44.06,275.90,130319,,,A*40
$GPGGA,210039.400,4308.4586,N,07727.0923,W,1,09,0.95,148.3,M,-34.4,M,,*5B
lng=-77.451484, lat=43.140975, altitude=148.40, speed=44.06, satellites=9, angle=275.9000, fixquality=1
$GPRMC,210039.600,A,4308.4589,N,07727.0957,W,44.36,276.56,130319,,,A*4E
$GPGGA,210039.800,4308.4592,N,07727.0990,W,1,09,0.94,148.2,M,-34.4,M,,*5A
lng=-77.451591, lat=43.140983, altitude=148.30, speed=44.36, satellites=9, angle=276.5600, fixquality=1
$GPRMC,210040.000,A,4308.4595,N,07727.1024,W,44.83,277.38,130319,,,A*40
$GPGGA,210040.200,4308.4598,N,07727.1058,W,1,09,0.95,148.1,M,-34.4,M,,*5A
lng=-77.451705, lat=43.140991, altitude=148.20, speed=44.83, satellites=9, angle=277.3800, fixquality=1
$GPRMC,210040.400,A,4308.4601,N,07727.1093,W,44.92,277.76,130319,,,A*4C
$GPGGA,210040.600,4308.4605,N,07727.1127,W,1,09,0.94,148.0,M,-34.4,M,,*50
lng=-77.451820, lat=43.140998, altitude=148.10, speed=44.92, satellites=9, angle=277.7600, fixquality=1
$GPRMC,210040.800,A,4308.4608,N,07727.1161,W,45.13,278.07,130319,,,A*44
$GPGGA,210041.000,4308.4612,N,07727.1196,W,1,09,0.95,148.0,M,-34.4,M,,*5A
lng=-77.451934, lat=43.141014, altitude=148.00, speed=45.13, satellites=9, angle=278.0700, fixquality=1
$GPRMC,210041.200,A,4308.4616,N,07727.1230,W,46.12,278.34,130319,,,A*45
$GPGGA,210041.400,4308.4619,N,07727.1265,W,1,08,1.07,148.0,M,-34.4,M,,*51
lng=-77.452049, lat=43.141025, altitude=148.00, speed=46.12, satellites=9, angle=278.3400, fixquality=1
$GPRMC,210041.600,A,4308.4623,N,07727.1300,W,46.35,278.78,130319,,,A*48
$GPGGA,210041.800,4308.4627,N,07727.1335,W,1,09,0.94,148.0,M,-34.4,M,,*5E
lng=-77.452163, lat=43.141040, altitude=148.00, speed=46.35, satellites=8, angle=278.7800, fixquality=1
$GPRMC,210042.000,A,4308.4631,N,07727.1370,W,46.57,278.99,130319,,,A*42
$GPGGA,210042.200,4308.4636,N,07727.1405,W,1,09,0.94,148.0,M,-34.4,M,,*53
lng=-77.452285, lat=43.141048, altitude=148.00, speed=46.57, satellites=9, angle=278.9900, fixquality=1
$GPRMC,210042.400,A,4308.4640,N,07727.1440,W,46.35,279.40,130319,,,A*45
$GPGGA,210042.600,4308.4645,N,07727.1475,W,1,09,0.95,148.1,M,-34.4,M,,*54
lng=-77.452400, lat=43.141063, altitude=148.00, speed=46.35, satellites=9, angle=279.4000, fixquality=1
$GPRMC,210042.800,A,4308.4649,N,07727.1509,W,45.82,279.43,130319,,,A*40
$GPGGA,210043.000,4308.4653,N,07727.1543,W,1,09,0.95,148.1,M,-34.4,M,,*50
lng=-77.452514, lat=43.141078, altitude=148.10, speed=45.82, satellites=9, angle=279.4300, fixquality=1
$GPRMC,210043.200,A,4308.4657,N,07727.1578,W,45.75,279.34,130319,,,A*4A
$GPGGA,210043.400,4308.4662,N,07727.1612,W,1,09,0.95,148.1,M,-34.4,M,,*51
lng=-77.452629, lat=43.141098, altitude=148.10, speed=45.75, satellites=9, angle=279.3400, fixquality=1
$GPRMC,210043.600,A,4308.4666,N,07727.1646,W,45.99,279.50,130319,,,A*42
$GPGGA,210043.800,4308.4670,N,07727.1681,W,1,09,0.95,148.1,M,-34.4,M,,*54
lng=-77.452743, lat=43.141113, altitude=148.10, speed=45.99, satellites=9, angle=279.5000, fixquality=1
$GPRMC,210044.000,A,4308.4675,N,07727.1715,W,46.04,279.51,130319,,,A*40
$GPGGA,210044.200,4308.4679,N,07727.1750,W,1,08,1.07,148.0,M,-34.4,M,,*57
lng=-77.452857, lat=43.141120, altitude=148.10, speed=46.04, satellites=9, angle=279.5100, fixquality=1
$GPRMC,210044.400,A,4308.4683,N,07727.1785,W,46.34,279.82,130319,,,A*49
$GPGGA,210044.600,4308.4687,N,07727.1820,W,1,09,0.95,148.0,M,-34.4,M,,*51
lng=-77.452980, lat=43.141136, altitude=148.00, speed=46.34, satellites=8, angle=279.8200, fixquality=1
$GPRMC,210044.800,A,4308.4691,N,07727.1855,W,46.42,279.60,130319,,,A*49
$GPGGA,210045.000,4308.4696,N,07727.1890,W,1,09,0.95,148.1,M,-34.4,M,,*5C
lng=-77.453094, lat=43.141155, altitude=148.00, speed=46.42, satellites=9, angle=279.6000, fixquality=1
$GPRMC,210045.200,A,4308.4700,N,07727.1925,W,46.52,279.42,130319,,,A*4C
$GPGGA,210045.400,4308.4704,N,07727.1960,W,1,09,0.95,148.0,M,-34.4,M,,*5D
lng=-77.453208, lat=43.141170, altitude=148.10, speed=46.52, satellites=9, angle=279.4200, fixquality=1
$GPRMC,210045.600,A,4308.4708,N,07727.1995,W,46.38,279.44,130319,,,A*41
$GPGGA,210045.800,4308.4713,N,07727.2029,W,1,09,0.95,148.0,M,-34.4,M,,*50
lng=-77.453330, lat=43.141178, altitude=148.00, speed=46.38, satellites=9, angle=279.4400, fixquality=1
$GPRMC,210046.000,A,4308.4717,N,07727.2064,W,45.88,279.51,130319,,,A*42
$GPGGA,210046.200,4308.4721,N,07727.2098,W,1,09,0.95,147.9,M,-34.4,M,,*54
lng=-77.453445, lat=43.141193, altitude=148.00, speed=45.88, satellites=9, angle=279.5100, fixquality=1
$GPRMC,210046.400,A,4308.4725,N,07727.2133,W,45.63,279.69,130319,,,A*4A
$GPGGA,210046.600,4308.4730,N,07727.2167,W,1,09,0.95,147.9,M,-34.4,M,,*51
lng=-77.453559, lat=43.141212, altitude=147.90, speed=45.63, satellites=9, angle=279.6900, fixquality=1
$GPRMC,210046.800,A,4308.4734,N,07727.2201,W,45.17,279.54,130319,,,A*49
$GPGGA,210047.000,4308.4738,N,07727.2235,W,1,09,0.95,147.8,M,-34.4,M,,*5B
lng=-77.453666, lat=43.141227, altitude=147.90, speed=45.17, satellites=9, angle=279.5400, fixquality=1
$GPRMC,210047.200,A,4308.4742,N,07727.2269,W,44.96,279.36,130319,,,A*41
$GPGGA,210047.400,4308.4746,N,07727.2303,W,1,09,0.95,147.9,M,-34.4,M,,*53
lng=-77.453781, lat=43.141235, altitude=147.80, speed=44.96, satellites=9, angle=279.3600, fixquality=1
$GPRMC,210047.600,A,4308.4751,N,07727.2336,W,44.65,279.46,130319,,,A*47
$GPGGA,210047.800,4308.4755,N,07727.2370,W,1,09,0.95,147.9,M,-34.4,M,,*59
lng=-77.453887, lat=43.141250, altitude=147.90, speed=44.65, satellites=9, angle=279.4600, fixquality=1
$GPRMC,210048.000,A,4308.4759,N,07727.2403,W,44.38,279.57,130319,,,A*4F
$GPGGA,210048.200,4308.4763,N,07727.2436,W,1,09,0.95,147.8,M,-34.4,M,,*5D
lng=-77.454002, lat=43.141269, altitude=147.90, speed=44.38, satellites=9, angle=279.5700, fixquality=1
$GPRMC,210048.400,A,4308.4767,N,07727.2469,W,44.30,279.09,130319,,,A*49
$GPGGA,210048.600,4308.4771,N,07727.2503,W,1,09,0.95,147.7,M,-34.4,M,,*52
lng=-77.454116, lat=43.141277, altitude=147.80, speed=44.30, satellites=9, angle=279.0900, fixquality=1
$GPRMC,210048.800,A,4308.4775,N,07727.2536,W,44.09,279.28,130319,,,A*44
$GPGGA,210049.000,4308.4779,N,07727.2569,W,1,09,0.95,147.7,M,-34.4,M,,*51
lng=-77.454223, lat=43.141292, altitude=147.70, speed=44.09, satellites=9, angle=279.2800, fixquality=1
$GPRMC,210049.200,A,4308.4783,N,07727.2602,W,44.14,279.35,130319,,,A*42
$GPGGA,210049.400,4308.4787,N,07727.2635,W,1,09,0.95,147.7,M,-34.4,M,,*5E
lng=-77.454338, lat=43.141307, altitude=147.70, speed=44.14, satellites=9, angle=279.3500, fixquality=1
$GPRMC,210049.600,A,4308.4791,N,07727.2669,W,44.11,279.36,130319,,,A*4E
$GPGGA,210049.800,4308.4795,N,07727.2702,W,1,09,0.95,147.7,M,-34.4,M,,*54
lng=-77.454452, lat=43.141315, altitude=147.70, speed=44.11, satellites=9, angle=279.3600, fixquality=1
$GPRMC,210050.000,A,4308.4799,N,07727.2735,W,44.09,279.41,130319,,,A*49
$GPGGA,210050.200,4308.4803,N,07727.2768,W,1,09,0.95,147.6,M,-34.4,M,,*5B
lng=-77.454559, lat=43.141334, altitude=147.70, speed=44.09, satellites=9, angle=279.4100, fixquality=1
$GPRMC,210050.400,A,4308.4807,N,07727.2801,W,44.06,279.38,130319,,,A*4C
$GPGGA,210050.600,4308.4811,N,07727.2834,W,1,09,0.94,147.5,M,-34.4,M,,*58
lng=-77.454673, lat=43.141342, altitude=147.60, speed=44.06, satellites=9, angle=279.3800, fixquality=1
$GPRMC,210050.800,A,4308.4815,N,07727.2867,W,44.10,279.59,130319,,,A*43
$GPGGA,210051.000,4308.4819,N,07727.2900,W,1,09,0.95,147.5,M,-34.4,M,,*50
lng=-77.454780, lat=43.141357, altitude=147.50, speed=44.10, satellites=9, angle=279.5900, fixquality=1
$GPRMC,210051.200,A,4308.4823,N,07727.2933,W,44.13,279.47,130319,,,A*41
$GPGGA,210051.400,4308.4828,N,07727.2966,W,1,09,0.95,147.5,M,-34.4,M,,*56
lng=-77.454887, lat=43.141372, altitude=147.50, speed=44.13, satellites=9, angle=279.4700, fixquality=1
$GPRMC,210051.600,A,4308.4832,N,07727.2999,W,44.15,279.77,130319,,,A*40
$GPGGA,210051.800,4308.4836,N,07727.3032,W,1,09,0.95,147.4,M,-34.4,M,,*5D
lng=-77.454994, lat=43.141391, altitude=147.50, speed=44.15, satellites=9, angle=279.7700, fixquality=1
$GPRMC,210052.000,A,4308.4840,N,07727.3066,W,44.12,279.74,130319,,,A*4C
$GPGGA,210052.200,4308.4844,N,07727.3099,W,1,09,0.95,147.4,M,-34.4,M,,*50
lng=-77.455108, lat=43.141399, altitude=147.40, speed=44.12, satellites=9, angle=279.7400, fixquality=1
$GPRMC,210052.400,A,4308.4848,N,07727.3132,W,43.89,279.18,130319,,,A*4F
$GPGGA,210052.600,4308.4852,N,07727.3164,W,1,09,0.95,147.4,M,-34.4,M,,*50
lng=-77.455215, lat=43.141414, altitude=147.40, speed=43.89, satellites=9, angle=279.1800, fixquality=1
$GPRMC,210052.800,A,4308.4856,N,07727.3197,W,43.86,279.73,130319,,,A*41
$GPGGA,210053.000,4308.4860,N,07727.3230,W,1,09,0.95,147.3,M,-34.4,M,,*53
lng=-77.455329, lat=43.141429, altitude=147.40, speed=43.86, satellites=9, angle=279.7300, fixquality=1
$GPRMC,210053.200,A,4308.4864,N,07727.3262,W,43.71,279.53,130319,,,A*48
$GPGGA,210053.400,4308.4868,N,07727.3295,W,1,09,0.95,147.2,M,-34.4,M,,*51
lng=-77.455436, lat=43.141437, altitude=147.30, speed=43.71, satellites=9, angle=279.5300, fixquality=1
$GPRMC,210053.600,A,4308.4872,N,07727.3327,W,43.01,279.54,130319,,,A*4B
$GPGGA,210053.800,4308.4876,N,07727.3359,W,1,09,0.95,147.1,M,-34.4,M,,*50
lng=-77.455543, lat=43.141456, altitude=147.20, speed=43.01, satellites=9, angle=279.5400, fixquality=1
$GPRMC,210054.000,A,4308.4880,N,07727.3391,W,42.88,279.00,130319,,,A*4B
$GPGGA,210054.200,4308.4884,N,07727.3423,W,1,09,0.95,146.9,M,-34.4,M,,*53
lng=-77.455650, lat=43.141464, altitude=147.10, speed=42.88, satellites=9, angle=279.0000, fixquality=1
$GPRMC,210054.400,A,4308.4888,N,07727.3455,W,42.65,278.96,130319,,,A*45
$GPGGA,210054.600,4308.4891,N,07727.3487,W,1,09,0.95,146.8,M,-34.4,M,,*5C
lng=-77.455764, lat=43.141479, altitude=146.90, speed=42.65, satellites=9, angle=278.9600, fixquality=1
$GPRMC,210054.800,A,4308.4895,N,07727.3519,W,42.36,279.10,130319,,,A*45
$GPGGA,210055.000,4308.4899,N,07727.3551,W,1,09,0.95,146.7,M,-34.4,M,,*56
lng=-77.455863, lat=43.141487, altitude=146.80, speed=42.36, satellites=9, angle=279.1000, fixquality=1
$GPRMC,210055.200,A,4308.4903,N,07727.3582,W,41.98,278.97,130319,,,A*4B
$GPGGA,210055.400,4308.4906,N,07727.3613,W,1,09,0.95,146.6,M,-34.4,M,,*51
lng=-77.455970, lat=43.141502, altitude=146.70, speed=41.98, satellites=9, angle=278.9700, fixquality=1
$GPRMC,210055.600,A,4308.4910,N,07727.3645,W,41.82,279.10,130319,,,A*40
$GPGGA,210055.800,4308.4914,N,07727.3676,W,1,09,0.95,146.5,M,-34.4,M,,*5E
lng=-77.456069, lat=43.141521, altitude=146.60, speed=41.82, satellites=9, angle=279.1000, fixquality=1
$GPRMC,210056.000,A,4308.4918,N,07727.3707,W,41.81,279.02,130319,,,A*4A
$GPGGA,210056.200,4308.4922,N,07727.3739,W,1,09,0.95,146.4,M,-34.4,M,,*59
lng=-77.456176, lat=43.141529, altitude=146.50, speed=41.81, satellites=9, angle=279.0200, fixquality=1
$GPRMC,210056.400,A,4308.4925,N,07727.3770,W,41.99,279.06,130319,,,A*4D
$GPGGA,210056.600,4308.4929,N,07727.3802,W,1,09,0.95,146.3,M,-34.4,M,,*56
lng=-77.456283, lat=43.141544, altitude=146.40, speed=41.99, satellites=9, angle=279.0600, fixquality=1
$GPRMC,210056.800,A,4308.4933,N,07727.3833,W,42.01,279.69,130319,,,A*45
$GPGGA,210057.000,4308.4937,N,07727.3865,W,1,08,1.08,146.2,M,-34.4,M,,*5A
lng=-77.456390, lat=43.141551, altitude=146.30, speed=42.01, satellites=9, angle=279.6900, fixquality=1
$GPRMC,210057.200,A,4308.4941,N,07727.3897,W,42.21,279.75,130319,,,A*4A
$GPGGA,210057.400,4308.4944,N,07727.3928,W,1,09,0.95,146.1,M,-34.4,M,,*55
lng=-77.456497, lat=43.141567, altitude=146.20, speed=42.21, satellites=8, angle=279.7500, fixquality=1
$GPRMC,210057.600,A,4308.4948,N,07727.3960,W,42.27,279.27,130319,,,A*4F
$GPGGA,210057.800,4308.4952,N,07727.3992,W,1,08,1.08,146.0,M,-34.4,M,,*5A
lng=-77.456596, lat=43.141578, altitude=146.10, speed=42.27, satellites=9, angle=279.2700, fixquality=1
$GPRMC,210058.000,A,4308.4956,N,07727.4024,W,42.39,279.29,130319,,,A*46
$GPGGA,210058.200,4308.4959,N,07727.4056,W,1,08,1.08,146.0,M,-34.4,M,,*52
lng=-77.456703, lat=43.141593, altitude=146.00, speed=42.39, satellites=8, angle=279.2900, fixquality=1
$GPRMC,210058.400,A,4308.4963,N,07727.4087,W,42.43,279.32,130319,,,A*4A
$GPGGA,210058.600,4308.4967,N,07727.4119,W,1,09,0.94,145.9,M,-34.4,M,,*5E
lng=-77.456809, lat=43.141601, altitude=146.00, speed=42.43, satellites=8, angle=279.3200, fixquality=1
$GPRMC,210058.800,A,4308.4970,N,07727.4151,W,42.48,279.39,130319,,,A*4E
$GPGGA,210059.000,4308.4974,N,07727.4182,W,1,09,0.95,145.9,M,-34.4,M,,*58
lng=-77.456916, lat=43.141616, altitude=145.90, speed=42.48, satellites=9, angle=279.3900, fixquality=1
$GPRMC,210059.200,A,4308.4978,N,07727.4214,W,42.53,279.30,130319,,,A*4C
$GPGGA,210059.400,4308.4982,N,07727.4246,W,1,09,0.95,145.8,M,-34.4,M,,*5F
lng=-77.457023, lat=43.141624, altitude=145.90, speed=42.53, satellites=9, angle=279.3000, fixquality=1
$GPRMC,210059.600,A,4308.4986,N,07727.4278,W,42.55,279.90,130319,,,A*4F
$GPGGA,210059.800,4308.4990,N,07727.4309,W,1,09,0.95,145.8,M,-34.4,M,,*5A
lng=-77.457130, lat=43.141643, altitude=145.80, speed=42.55, satellites=9, angle=279.9000, fixquality=1
$GPRMC,210100.000,A,4308.4994,N,07727.4341,W,42.60,279.73,130319,,,A*47
$GPGGA,210100.200,4308.4998,N,07727.4373,W,1,09,0.95,145.9,M,-34.4,M,,*59
lng=-77.457237, lat=43.141658, altitude=145.80, speed=42.60, satellites=9, angle=279.7300, fixquality=1
$GPRMC,210100.400,A,4308.5002,N,07727.4405,W,42.64,279.53,130319,,,A*45
$GPGGA,210100.600,4308.5006,N,07727.4437,W,1,09,0.94,145.9,M,-34.4,M,,*54
lng=-77.457344, lat=43.141666, altitude=145.90, speed=42.64, satellites=9, angle=279.5300, fixquality=1
$GPRMC,210100.800,A,4308.5010,N,07727.4469,W,42.65,279.52,130319,,,A*40
$GPGGA,210101.000,4308.5014,N,07727.4500,W,1,09,0.95,145.9,M,-34.4,M,,*54
lng=-77.457443, lat=43.141681, altitude=145.90, speed=42.65, satellites=9, angle=279.5200, fixquality=1
$GPRMC,210101.200,A,4308.5018,N,07727.4532,W,42.65,279.18,130319,,,A*42
$GPGGA,210101.400,4308.5022,N,07727.4564,W,1,09,0.95,146.0,M,-34.4,M,,*5D
lng=-77.457550, lat=43.141700, altitude=145.90, speed=42.65, satellites=9, angle=279.1800, fixquality=1
$GPRMC,210101.600,A,4308.5025,N,07727.4596,W,42.65,279.14,130319,,,A*4A
$GPGGA,210101.800,4308.5029,N,07727.4628,W,1,09,0.95,146.0,M,-34.4,M,,*51
lng=-77.457656, lat=43.141708, altitude=146.00, speed=42.65, satellites=9, angle=279.1400, fixquality=1
$GPRMC,210102.000,A,4308.5033,N,07727.4660,W,42.62,279.09,130319,,,A*49
$GPGGA,210102.200,4308.5036,N,07727.4692,W,1,09,0.95,146.0,M,-34.4,M,,*57
lng=-77.457763, lat=43.141723, altitude=146.00, speed=42.62, satellites=9, angle=279.0900, fixquality=1
$GPRMC,210102.400,A,4308.5040,N,07727.4724,W,42.44,279.37,130319,,,A*41
$GPGGA,210102.600,4308.5044,N,07727.4755,W,1,09,0.95,146.0,M,-34.4,M,,*5C
lng=-77.457870, lat=43.141731, altitude=146.00, speed=42.44, satellites=9, angle=279.3700, fixquality=1
$GPRMC,210102.800,A,4308.5048,N,07727.4787,W,42.44,279.44,130319,,,A*48
$GPGGA,210103.000,4308.5052,N,07727.4819,W,1,09,0.95,146.0,M,-34.4,M,,*5B
lng=-77.457977, lat=43.141746, altitude=146.00, speed=42.44, satellites=9, angle=279.4400, fixquality=1
$GPRMC,210103.200,A,4308.5056,N,07727.4850,W,42.48,279.79,130319,,,A*4B
$GPGGA,210103.400,4308.5059,N,07727.4882,W,1,09,0.95,146.0,M,-34.4,M,,*56
lng=-77.458084, lat=43.141757, altitude=146.00, speed=42.48, satellites=9, angle=279.7900, fixquality=1
$GPRMC,210103.600,A,4308.5063,N,07727.4914,W,42.49,279.50,130319,,,A*42
$GPGGA,210103.800,4308.5067,N,07727.4946,W,1,09,0.95,145.9,M,-34.4,M,,*54
lng=-77.458183, lat=43.141773, altitude=146.00, speed=42.49, satellites=9, angle=279.5000, fixquality=1
$GPRMC,210104.000,A,4308.5071,N,07727.4978,W,42.58,279.41,130319,,,A*4A
$GPGGA,210104.200,4308.5075,N,07727.5009,W,1,09,0.95,145.8,M,-34.4,M,,*58
lng=-77.458290, lat=43.141788, altitude=145.90, speed=42.58, satellites=9, angle=279.4100, fixquality=1
$GPRMC,210104.400,A,4308.5079,N,07727.5041,W,42.64,279.45,130319,,,A*4F
$GPGGA,210104.600,4308.5082,N,07727.5073,W,1,09,0.95,145.7,M,-34.4,M,,*56
lng=-77.458396, lat=43.141796, altitude=145.80, speed=42.64, satellites=9, angle=279.4500, fixquality=1
$GPRMC,210104.800,A,4308.5086,N,07727.5105,W,42.54,279.30,130319,,,A*43
$GPGGA,210105.000,4308.5090,N,07727.5137,W,1,09,0.95,145.7,M,-34.4,M,,*53
lng=-77.458511, lat=43.141811, altitude=145.70, speed=42.54, satellites=9, angle=279.3000, fixquality=1
$GPRMC,210105.200,A,4308.5094,N,07727.5169,W,42.61,279.77,130319,,,A*44
$GPGGA,210105.400,4308.5098,N,07727.5201,W,1,09,0.95,145.6,M,-34.4,M,,*58
lng=-77.458618, lat=43.141822, altitude=145.70, speed=42.61, satellites=9, angle=279.7700, fixquality=1
$GPRMC,210105.600,A,4308.5102,N,07727.5232,W,42.59,279.76,130319,,,A*49
$GPGGA,210105.800,4308.5106,N,07727.5264,W,1,09,0.95,145.6,M,-34.4,M,,*51
lng=-77.458724, lat=43.141838, altitude=145.60, speed=42.59, satellites=9, angle=279.7600, fixquality=1
$GPRMC,210106.000,A,4308.5110,N,07727.5296,W,42.55,279.68,130319,,,A*42
$GPGGA,210106.200,4308.5114,N,07727.5328,W,1,09,0.95,145.5,M,-34.4,M,,*51
lng=-77.458831, lat=43.141853, altitude=145.60, speed=42.55, satellites=9, angle=279.6800, fixquality=1
$GPRMC,210106.400,A,4308.5118,N,07727.5360,W,42.50,279.69,130319,,,A*42
$GPGGA,210106.600,4308.5122,N,07727.5391,W,1,09,0.95,145.5,M,-34.4,M,,*52
