Vers 57
USE_SERIAL_FEEDBACK=false
DEVELOPMENT_MODE=false
USE_RMC_ONLY=false

$GPRMC,170319.800,A,4305.1447,N,07740.8042,W,0.11,314.32,140319,,,A*7E
$GPGGA,170320.000,4305.1447,N,07740.8041,W,1,07,1.18,156.5,M,-34.4,M,,*52
lng=-77.680068, lat=43.085742, altitude=156.80, speed=0.11, satellites=7, angle=314.3200, fixquality=1
$GPRMC,170320.200,A,4305.1448,N,07740.8041,W,0.05,326.86,140319,,,A*79
$GPGGA,170320.400,4305.1448,N,07740.8040,W,1,07,1.18,156.3,M,-34.4,M,,*5E
lng=-77.680068, lat=43.085750, altitude=156.50, speed=0.05, satellites=7, angle=326.8600, fixquality=1
$GPRMC,170320.600,A,4305.1448,N,07740.8040,W,0.02,209.60,140319,,,A*7F
$GPGGA,170320.800,4305.1448,N,07740.8040,W,1,07,1.18,155.9,M,-34.4,M,,*5B
lng=-77.680068, lat=43.085750, altitude=156.30, speed=0.02, satellites=7, angle=209.6000, fixquality=1
$GPRMC,170321.000,A,4305.1449,N,07740.8040,W,0.10,108.38,140319,,,A*75
$GPGGA,170321.200,4305.1449,N,07740.8041,W,1,07,1.18,155.6,M,-34.4,M,,*5F
lng=-77.680068, lat=43.085750, altitude=155.90, speed=0.10, satellites=7, angle=108.3800, fixquality=1
$GPRMC,170321.400,A,4305.1450,N,07740.8041,W,0.08,139.07,140319,,,A*7F
$GPGGA,170321.600,4305.1449,N,07740.8041,W,1,07,1.18,155.3,M,-34.4,M,,*5E
lng=-77.680068, lat=43.085750, altitude=155.60, speed=0.08, satellites=7, angle=139.0700, fixquality=1
$GPRMC,170321.800,A,4305.1450,N,07740.8041,W,0.06,157.41,140319,,,A*77
$GPGGA,170322.000,4305.1450,N,07740.8042,W,1,07,1.18,155.1,M,-34.4,M,,*52
lng=-77.680068, lat=43.085750, altitude=155.30, speed=0.06, satellites=7, angle=157.4100, fixquality=1
$GPRMC,170322.200,A,4305.1444,N,07740.8040,W,0.09,200.85,140319,,,A*7C
$GPGGA,170322.400,4305.1443,N,07740.8040,W,1,07,1.18,156.3,M,-34.4,M,,*57
lng=-77.680068, lat=43.085742, altitude=155.10, speed=0.09, satellites=7, angle=200.8500, fixquality=1
$GPRMC,170322.600,A,4305.1441,N,07740.8039,W,0.08,221.15,140319,,,A*78
$GPGGA,170322.800,4305.1440,N,07740.8039,W,1,07,1.18,156.7,M,-34.4,M,,*52
lng=-77.680061, lat=43.085735, altitude=156.30, speed=0.08, satellites=7, angle=221.1500, fixquality=1
$GPRMC,170323.000,A,4305.1439,N,07740.8038,W,0.06,115.56,140319,,,A*7C
$GPGGA,170323.200,4305.1438,N,07740.8038,W,1,07,1.18,157.0,M,-34.4,M,,*51
lng=-77.680061, lat=43.085735, altitude=156.70, speed=0.06, satellites=7, angle=115.5600, fixquality=1
$GPRMC,170323.400,A,4305.1437,N,07740.8037,W,0.07,102.02,140319,,,A*7F
$GPGGA,170323.600,4305.1436,N,07740.8037,W,1,07,1.18,157.1,M,-34.4,M,,*55
lng=-77.680061, lat=43.085727, altitude=157.00, speed=0.07, satellites=7, angle=102.0200, fixquality=1
$GPRMC,170323.800,A,4305.1435,N,07740.8036,W,0.04,111.52,140319,,,A*74
$GPGGA,170324.000,4305.1434,N,07740.8036,W,1,07,1.18,157.3,M,-34.4,M,,*55
lng=-77.680061, lat=43.085727, altitude=157.10, speed=0.04, satellites=7, angle=111.5200, fixquality=1
$GPRMC,170324.200,A,4305.1434,N,07740.8036,W,0.05,177.29,140319,,,A*75
$GPGGA,170324.400,4305.1434,N,07740.8035,W,1,07,1.18,157.4,M,-34.4,M,,*55
lng=-77.680061, lat=43.085727, altitude=157.30, speed=0.05, satellites=7, angle=177.2900, fixquality=1
$GPRMC,170324.600,A,4305.1433,N,07740.8035,W,0.05,159.34,140319,,,A*75
$GPGGA,170324.800,4305.1433,N,07740.8035,W,1,07,1.18,157.4,M,-34.4,M,,*5E
lng=-77.680061, lat=43.085716, altitude=157.40, speed=0.05, satellites=7, angle=159.3400, fixquality=1
$GPRMC,170325.000,A,4305.1433,N,07740.8035,W,0.03,324.19,140319,,,A*73
$GPGGA,170325.200,4305.1432,N,07740.8035,W,1,07,1.18,157.5,M,-34.4,M,,*55
lng=-77.680061, lat=43.085716, altitude=157.40, speed=0.03, satellites=7, angle=324.1900, fixquality=1
$GPRMC,170325.400,A,4305.1432,N,07740.8035,W,0.03,6.44,140319,,,A*7D
$GPGGA,170325.600,4305.1432,N,07740.8035,W,1,07,1.19,157.6,M,-34.4,M,,*53
lng=-77.680061, lat=43.085716, altitude=157.50, speed=0.03, satellites=7, angle=6.4400, fixquality=1
$GPRMC,170325.800,A,4305.1432,N,07740.8035,W,0.02,124.33,140319,,,A*71
$GPGGA,170326.000,4305.1432,N,07740.8035,W,1,07,1.18,157.6,M,-34.4,M,,*57
lng=-77.680061, lat=43.085716, altitude=157.60, speed=0.02, satellites=7, angle=124.3300, fixquality=1
$GPRMC,170326.200,A,4305.1431,N,07740.8034,W,0.02,156.81,140319,,,A*76
$GPGGA,170326.400,4305.1431,N,07740.8035,W,1,07,1.18,157.6,M,-34.4,M,,*50
lng=-77.680053, lat=43.085716, altitude=157.60, speed=0.02, satellites=7, angle=156.8100, fixquality=1
$GPRMC,170326.600,A,4305.1431,N,07740.8035,W,0.02,323.08,140319,,,A*72
$GPGGA,170326.800,4305.1431,N,07740.8034,W,1,07,1.18,157.7,M,-34.4,M,,*5C
lng=-77.680061, lat=43.085716, altitude=157.60, speed=0.02, satellites=7, angle=323.0800, fixquality=1
$GPRMC,170327.000,A,4305.1431,N,07740.8034,W,0.03,113.69,140319,,,A*73
$GPGGA,170327.200,4305.1431,N,07740.8034,W,1,07,1.18,157.7,M,-34.4,M,,*57
lng=-77.680053, lat=43.085716, altitude=157.70, speed=0.03, satellites=7, angle=113.6900, fixquality=1
$GPRMC,170327.400,A,4305.1431,N,07740.8034,W,0.03,341.96,140319,,,A*72
$GPGGA,170327.600,4305.1430,N,07740.8034,W,1,07,1.18,157.8,M,-34.4,M,,*5D
lng=-77.680053, lat=43.085716, altitude=157.70, speed=0.03, satellites=7, angle=341.9600, fixquality=1
$GPRMC,170327.800,A,4305.1430,N,07740.8034,W,0.02,36.83,140319,,,A*49
$GPGGA,170328.000,4305.1430,N,07740.8034,W,1,07,1.18,157.9,M,-34.4,M,,*55
lng=-77.680053, lat=43.085716, altitude=157.80, speed=0.02, satellites=7, angle=36.8300, fixquality=1
$GPRMC,170328.200,A,4305.1429,N,07740.8034,W,0.02,356.95,140319,,,A*76
$GPGGA,170328.400,4305.1429,N,07740.8034,W,1,07,1.19,158.0,M,-34.4,M,,*5E
lng=-77.680053, lat=43.085716, altitude=157.90, speed=0.02, satellites=7, angle=356.9500, fixquality=1
$GPRMC,170328.600,A,4305.1429,N,07740.8033,W,0.02,143.21,140319,,,A*7C
$GPGGA,170328.800,4305.1429,N,07740.8033,W,1,07,1.18,158.1,M,-34.4,M,,*55
lng=-77.680053, lat=43.085716, altitude=158.00, speed=0.02, satellites=7, angle=143.2100, fixquality=1
$GPRMC,170329.000,A,4305.1428,N,07740.8033,W,0.02,305.76,140319,,,A*78
$GPGGA,170329.200,4305.1428,N,07740.8033,W,1,07,1.18,158.2,M,-34.4,M,,*5C
lng=-77.680053, lat=43.085708, altitude=158.10, speed=0.02, satellites=7, angle=305.7600, fixquality=1
$GPRMC,170329.400,A,4305.1428,N,07740.8033,W,0.01,75.17,140319,,,A*4C
$GPGGA,170329.600,4305.1427,N,07740.8032,W,1,07,1.18,158.3,M,-34.4,M,,*57
lng=-77.680053, lat=43.085708, altitude=158.20, speed=0.01, satellites=7, angle=75.1700, fixquality=1
$GPRMC,170329.800,A,4305.1427,N,07740.8032,W,0.02,311.75,140319,,,A*78
$GPGGA,170330.000,4305.1427,N,07740.8032,W,1,07,1.18,158.4,M,-34.4,M,,*5E
lng=-77.680053, lat=43.085708, altitude=158.30, speed=0.02, satellites=7, angle=311.7500, fixquality=1
$GPRMC,170330.200,A,4305.1429,N,07740.8034,W,0.02,186.17,140319,,,A*7A
$GPGGA,170330.400,4305.1431,N,07740.8036,W,1,10,0.79,158.6,M,-34.4,M,,*5B
lng=-77.680053, lat=43.085716, altitude=158.40, speed=0.02, satellites=7, angle=186.1700, fixquality=1
$GPRMC,170330.600,A,4305.1432,N,07740.8038,W,0.01,159.25,140319,,,A*78
$GPGGA,170330.800,4305.1434,N,07740.8039,W,1,10,0.78,158.9,M,-34.4,M,,*53
lng=-77.680061, lat=43.085716, altitude=158.60, speed=0.01, satellites=10, angle=159.2500, fixquality=1
$GPRMC,170331.000,A,4305.1435,N,07740.8041,W,0.04,94.17,140319,,,A*42
$GPGGA,170331.200,4305.1436,N,07740.8042,W,1,10,0.78,159.2,M,-34.4,M,,*5C
lng=-77.680068, lat=43.085727, altitude=158.90, speed=0.04, satellites=10, angle=94.1700, fixquality=1
$GPRMC,170331.400,A,4305.1437,N,07740.8043,W,0.01,288.41,140319,,,A*7F
$GPGGA,170331.600,4305.1438,N,07740.8044,W,1,10,0.78,159.4,M,-34.4,M,,*56
lng=-77.680068, lat=43.085727, altitude=159.20, speed=0.01, satellites=10, angle=288.4100, fixquality=1
$GPRMC,170331.800,A,4305.1438,N,07740.8045,W,0.02,307.91,140319,,,A*72
$GPGGA,170332.000,4305.1439,N,07740.8045,W,1,10,0.78,159.6,M,-34.4,M,,*51
lng=-77.680076, lat=43.085735, altitude=159.40, speed=0.02, satellites=10, angle=307.9100, fixquality=1
$GPRMC,170332.200,A,4305.1440,N,07740.8046,W,0.01,108.99,140319,,,A*71
$GPGGA,170332.400,4305.1440,N,07740.8047,W,1,10,0.78,159.8,M,-34.4,M,,*57
lng=-77.680076, lat=43.085735, altitude=159.60, speed=0.01, satellites=10, angle=108.9900, fixquality=1
$GPRMC,170332.600,A,4305.1441,N,07740.8047,W,0.03,317.93,140319,,,A*71
$GPGGA,170332.800,4305.1441,N,07740.8048,W,1,10,0.78,160.0,M,-34.4,M,,*57
lng=-77.680076, lat=43.085735, altitude=159.80, speed=0.03, satellites=10, angle=317.9300, fixquality=1
$GPRMC,170333.000,A,4305.1441,N,07740.8048,W,0.03,71.15,140319,,,A*44
$GPGGA,170333.200,4305.1442,N,07740.8049,W,1,10,0.78,160.2,M,-34.4,M,,*5C
lng=-77.680076, lat=43.085735, altitude=160.00, speed=0.03, satellites=10, angle=71.1500, fixquality=1
$GPRMC,170333.400,A,4305.1442,N,07740.8049,W,0.02,147.45,140319,,,A*72
$GPGGA,170333.600,4305.1442,N,07740.8049,W,1,10,0.79,160.3,M,-34.4,M,,*58
lng=-77.680076, lat=43.085735, altitude=160.20, speed=0.02, satellites=10, angle=147.4500, fixquality=1
$GPRMC,170333.800,A,4305.1442,N,07740.8050,W,0.02,63.44,140319,,,A*40
$GPGGA,170334.000,4305.1443,N,07740.8050,W,1,10,0.78,160.4,M,-34.4,M,,*56
lng=-77.680084, lat=43.085735, altitude=160.30, speed=0.02, satellites=10, angle=63.4400, fixquality=1
$GPRMC,170334.200,A,4305.1443,N,07740.8050,W,0.01,149.36,140319,,,A*73
$GPGGA,170334.400,4305.1443,N,07740.8051,W,1,10,0.78,160.5,M,-34.4,M,,*52
lng=-77.680084, lat=43.085742, altitude=160.40, speed=0.01, satellites=10, angle=149.3600, fixquality=1
$GPRMC,170334.600,A,4305.1444,N,07740.8051,W,0.03,11.79,140319,,,A*44
$GPGGA,170334.800,4305.1444,N,07740.8051,W,1,10,0.79,160.6,M,-34.4,M,,*5B
lng=-77.680084, lat=43.085742, altitude=160.50, speed=0.03, satellites=10, angle=11.7900, fixquality=1
$GPRMC,170335.000,A,4305.1444,N,07740.8051,W,0.01,349.55,140319,,,A*71
$GPGGA,170335.200,4305.1444,N,07740.8052,W,1,10,0.79,160.7,M,-34.4,M,,*52
lng=-77.680084, lat=43.085742, altitude=160.60, speed=0.01, satellites=10, angle=349.5500, fixquality=1
$GPRMC,170335.400,A,4305.1445,N,07740.8052,W,0.01,48.95,140319,,,A*49
$GPGGA,170335.600,4305.1445,N,07740.8052,W,1,10,0.78,160.7,M,-34.4,M,,*56
lng=-77.680084, lat=43.085742, altitude=160.70, speed=0.01, satellites=10, angle=48.9500, fixquality=1
$GPRMC,170335.800,A,4305.1445,N,07740.8052,W,0.02,286.91,140319,,,A*72
$GPGGA,170336.000,4305.1446,N,07740.8052,W,1,10,0.78,160.8,M,-34.4,M,,*5F
lng=-77.680084, lat=43.085742, altitude=160.70, speed=0.02, satellites=10, angle=286.9100, fixquality=1
$GPRMC,170336.200,A,4305.1446,N,07740.8053,W,0.03,351.03,140319,,,A*78
$GPGGA,170336.400,4305.1446,N,07740.8053,W,1,10,0.79,160.8,M,-34.4,M,,*5B
lng=-77.680084, lat=43.085742, altitude=160.80, speed=0.03, satellites=10, angle=351.0300, fixquality=1
$GPRMC,170336.600,A,4305.1446,N,07740.8053,W,0.05,318.11,140319,,,A*74
$GPGGA,170336.800,4305.1447,N,07740.8053,W,1,10,0.79,160.8,M,-34.4,M,,*56
lng=-77.680084, lat=43.085742, altitude=160.80, speed=0.05, satellites=10, angle=318.1100, fixquality=1
$GPRMC,170337.000,A,4305.1447,N,07740.8053,W,0.02,324.76,140319,,,A*7B
$GPGGA,170337.200,4305.1447,N,07740.8053,W,1,10,0.78,160.8,M,-34.4,M,,*5C
lng=-77.680084, lat=43.085742, altitude=160.80, speed=0.02, satellites=10, angle=324.7600, fixquality=1
$GPRMC,170337.400,A,4305.1447,N,07740.8054,W,0.03,330.13,140319,,,A*7F
$GPGGA,170337.600,4305.1448,N,07740.8054,W,1,10,0.78,160.8,M,-34.4,M,,*50
lng=-77.680084, lat=43.085742, altitude=160.80, speed=0.03, satellites=10, angle=330.1300, fixquality=1
$GPRMC,170337.800,A,4305.1448,N,07740.8054,W,0.01,291.07,140319,,,A*71
$GPGGA,170338.000,4305.1448,N,07740.8054,W,1,10,0.79,160.8,M,-34.4,M,,*58
lng=-77.680084, lat=43.085750, altitude=160.80, speed=0.01, satellites=10, angle=291.0700, fixquality=1
$GPRMC,170338.200,A,4305.1448,N,07740.8054,W,0.02,338.99,140319,,,A*72
$GPGGA,170338.400,4305.1449,N,07740.8055,W,1,10,0.78,160.8,M,-34.4,M,,*5D
lng=-77.680084, lat=43.085750, altitude=160.80, speed=0.02, satellites=10, angle=338.9900, fixquality=1
$GPRMC,170338.600,A,4305.1449,N,07740.8055,W,0.03,335.31,140319,,,A*78
$GPGGA,170338.800,4305.1449,N,07740.8055,W,1,10,0.78,160.8,M,-34.4,M,,*51
lng=-77.680091, lat=43.085750, altitude=160.80, speed=0.03, satellites=10, angle=335.3100, fixquality=1
$GPRMC,170339.000,A,4305.1450,N,07740.8055,W,0.02,261.87,140319,,,A*7B
$GPGGA,170339.200,4305.1450,N,07740.8055,W,1,10,0.78,160.8,M,-34.4,M,,*52
lng=-77.680091, lat=43.085750, altitude=160.80, speed=0.02, satellites=10, angle=261.8700, fixquality=1
$GPRMC,170339.400,A,4305.1450,N,07740.8055,W,0.00,112.76,140319,,,A*74
$GPGGA,170339.600,4305.1450,N,07740.8056,W,1,10,0.79,160.7,M,-34.4,M,,*5B
lng=-77.680091, lat=43.085750, altitude=160.80, speed=0.00, satellites=10, angle=112.7600, fixquality=1
$GPRMC,170339.800,A,4305.1451,N,07740.8056,W,0.00,168.37,140319,,,A*72
$GPGGA,170340.000,4305.1451,N,07740.8056,W,1,10,0.78,160.7,M,-34.4,M,,*53
lng=-77.680091, lat=43.085750, altitude=160.70, speed=0.00, satellites=10, angle=168.3700, fixquality=1
$GPRMC,170340.200,A,4305.1451,N,07740.8056,W,0.01,60.30,140319,,,A*49
$GPGGA,170340.400,4305.1451,N,07740.8056,W,1,10,0.79,160.7,M,-34.4,M,,*56
lng=-77.680091, lat=43.085750, altitude=160.70, speed=0.01, satellites=10, angle=60.3000, fixquality=1
$GPRMC,170340.600,A,4305.1452,N,07740.8056,W,0.01,230.84,140319,,,A*76
$GPGGA,170340.800,4305.1452,N,07740.8056,W,1,10,0.79,160.6,M,-34.4,M,,*58
lng=-77.680091, lat=43.085750, altitude=160.70, speed=0.01, satellites=10, angle=230.8400, fixquality=1
$GPRMC,170341.000,A,4305.1452,N,07740.8056,W,0.02,294.83,140319,,,A*7B
$GPGGA,170341.200,4305.1452,N,07740.8056,W,1,10,0.78,160.6,M,-34.4,M,,*52
lng=-77.680091, lat=43.085750, altitude=160.60, speed=0.02, satellites=10, angle=294.8300, fixquality=1
$GPRMC,170341.400,A,4305.1453,N,07740.8056,W,0.01,337.28,140319,,,A*74
$GPGGA,170341.600,4305.1453,N,07740.8056,W,1,10,0.78,160.5,M,-34.4,M,,*54
lng=-77.680091, lat=43.085758, altitude=160.60, speed=0.01, satellites=10, angle=337.2800, fixquality=1
$GPRMC,170341.800,A,4305.1453,N,07740.8057,W,0.04,197.63,140319,,,A*7B
$GPGGA,170342.000,4305.1453,N,07740.8057,W,1,10,0.78,160.5,M,-34.4,M,,*50
lng=-77.680091, lat=43.085758, altitude=160.50, speed=0.04, satellites=10, angle=197.6300, fixquality=1
$GPRMC,170342.200,A,4305.1453,N,07740.8057,W,0.01,287.90,140319,,,A*79
$GPGGA,170342.400,4305.1454,N,07740.8057,W,1,10,0.79,160.4,M,-34.4,M,,*53
lng=-77.680091, lat=43.085758, altitude=160.50, speed=0.01, satellites=10, angle=287.9000, fixquality=1
$GPRMC,170342.600,A,4305.1454,N,07740.8057,W,0.03,153.11,140319,,,A*7B
$GPGGA,170342.800,4305.1454,N,07740.8057,W,1,10,0.78,160.3,M,-34.4,M,,*59
lng=-77.680091, lat=43.085758, altitude=160.40, speed=0.03, satellites=10, angle=153.1100, fixquality=1
$GPRMC,170343.000,A,4305.1454,N,07740.8057,W,0.01,235.35,140319,,,A*7B
$GPGGA,170343.200,4305.1455,N,07740.8057,W,1,10,0.79,160.3,M,-34.4,M,,*52
lng=-77.680091, lat=43.085758, altitude=160.30, speed=0.01, satellites=10, angle=235.3500, fixquality=1
$GPRMC,170343.400,A,4305.1455,N,07740.8057,W,0.02,304.20,140319,,,A*7A
$GPGGA,170343.600,4305.1455,N,07740.8057,W,1,10,0.78,160.2,M,-34.4,M,,*56
lng=-77.680091, lat=43.085758, altitude=160.30, speed=0.02, satellites=10, angle=304.2000, fixquality=1
$GPRMC,170343.800,A,4305.1455,N,07740.8057,W,0.02,263.13,140319,,,A*76
$GPGGA,170344.000,4305.1456,N,07740.8057,W,1,10,0.78,160.1,M,-34.4,M,,*57
lng=-77.680091, lat=43.085758, altitude=160.20, speed=0.02, satellites=10, angle=263.1300, fixquality=1
$GPRMC,170344.200,A,4305.1456,N,07740.8057,W,0.05,326.19,140319,,,A*75
$GPGGA,170344.400,4305.1456,N,07740.8057,W,1,10,0.78,160.0,M,-34.4,M,,*52
lng=-77.680091, lat=43.085758, altitude=160.10, speed=0.05, satellites=10, angle=326.1900, fixquality=1
$GPRMC,170344.600,A,4305.1456,N,07740.8057,W,0.01,324.39,140319,,,A*75
$GPGGA,170344.800,4305.1457,N,07740.8058,W,1,10,0.79,160.0,M,-34.4,M,,*51
lng=-77.680091, lat=43.085758, altitude=160.00, speed=0.01, satellites=10, angle=324.3900, fixquality=1
$GPRMC,170345.000,A,4305.1457,N,07740.8058,W,0.02,255.25,140319,,,A*75
$GPGGA,170345.200,4305.1457,N,07740.8058,W,1,10,0.78,159.9,M,-34.4,M,,*58
lng=-77.680091, lat=43.085758, altitude=160.00, speed=0.02, satellites=10, angle=255.2500, fixquality=1
$GPRMC,170345.400,A,4305.1457,N,07740.8058,W,0.01,209.47,140319,,,A*7F
$GPGGA,170345.600,4305.1457,N,07740.8058,W,1,10,0.78,159.9,M,-34.4,M,,*5C
lng=-77.680091, lat=43.085758, altitude=159.90, speed=0.01, satellites=10, angle=209.4700, fixquality=1
$GPRMC,170345.800,A,4305.1457,N,07740.8058,W,0.01,82.57,140319,,,A*43
$GPGGA,170346.000,4305.1457,N,07740.8058,W,1,10,0.78,159.8,M,-34.4,M,,*58
lng=-77.680091, lat=43.085758, altitude=159.90, speed=0.01, satellites=10, angle=82.5700, fixquality=1
$GPRMC,170346.200,A,4305.1458,N,07740.8059,W,0.01,176.86,140319,,,A*72
$GPGGA,170346.400,4305.1458,N,07740.8059,W,1,10,0.79,159.8,M,-34.4,M,,*53
lng=-77.680091, lat=43.085765, altitude=159.80, speed=0.01, satellites=10, angle=176.8600, fixquality=1
$GPRMC,170346.600,A,4305.1458,N,07740.8059,W,0.01,307.55,140319,,,A*7C
$GPGGA,170346.800,4305.1458,N,07740.8059,W,1,10,0.78,159.7,M,-34.4,M,,*51
lng=-77.680091, lat=43.085765, altitude=159.80, speed=0.01, satellites=10, angle=307.5500, fixquality=1
$GPRMC,170347.000,A,4305.1458,N,07740.8059,W,0.02,317.02,140319,,,A*7B
$GPGGA,170347.200,4305.1458,N,07740.8059,W,1,10,0.78,159.7,M,-34.4,M,,*5A
lng=-77.680091, lat=43.085765, altitude=159.70, speed=0.02, satellites=10, angle=317.0200, fixquality=1
$GPRMC,170347.400,A,4305.1458,N,07740.8059,W,0.03,92.11,140319,,,A*42
$GPGGA,170347.600,4305.1458,N,07740.8059,W,1,10,0.79,159.7,M,-34.4,M,,*5F
lng=-77.680091, lat=43.085765, altitude=159.70, speed=0.03, satellites=10, angle=92.1100, fixquality=1
$GPRMC,170347.800,A,4305.1458,N,07740.8059,W,0.02,291.11,140319,,,A*7E
$GPGGA,170348.000,4305.1458,N,07740.8059,W,1,10,0.78,159.6,M,-34.4,M,,*56
lng=-77.680091, lat=43.085765, altitude=159.70, speed=0.02, satellites=10, angle=291.1100, fixquality=1
$GPRMC,170348.200,A,4305.1458,N,07740.8059,W,0.02,333.55,140319,,,A*72
$GPGGA,170348.400,4305.1459,N,07740.8059,W,1,10,0.78,159.6,M,-34.4,M,,*53
lng=-77.680091, lat=43.085765, altitude=159.60, speed=0.02, satellites=10, angle=333.5500, fixquality=1
$GPRMC,170348.600,A,4305.1459,N,07740.8059,W,0.01,181.63,140319,,,A*7A
$GPGGA,170348.800,4305.1459,N,07740.8060,W,1,10,0.78,159.5,M,-34.4,M,,*56
lng=-77.680091, lat=43.085765, altitude=159.60, speed=0.01, satellites=10, angle=181.6300, fixquality=1
$GPRMC,170349.000,A,4305.1459,N,07740.8060,W,0.01,121.57,140319,,,A*7A
$GPGGA,170349.200,4305.1459,N,07740.8060,W,1,10,0.79,159.5,M,-34.4,M,,*5C
lng=-77.680099, lat=43.085765, altitude=159.50, speed=0.01, satellites=10, angle=121.5700, fixquality=1
$GPRMC,170349.400,A,4305.1459,N,07740.8060,W,0.02,145.03,140319,,,A*7E
$GPGGA,170349.600,4305.1459,N,07740.8060,W,1,10,0.79,159.4,M,-34.4,M,,*59
lng=-77.680099, lat=43.085765, altitude=159.50, speed=0.02, satellites=10, angle=145.0300, fixquality=1
$GPRMC,170349.800,A,4305.1459,N,07740.8060,W,0.01,157.25,140319,,,A*76
$GPGGA,170350.000,4305.1459,N,07740.8060,W,1,10,0.78,159.4,M,-34.4,M,,*56
lng=-77.680099, lat=43.085765, altitude=159.40, speed=0.01, satellites=10, angle=157.2500, fixquality=1
$GPRMC,170350.200,A,4305.1459,N,07740.8060,W,0.01,304.65,140319,,,A*74
$GPGGA,170350.400,4305.1459,N,07740.8060,W,1,10,0.78,159.3,M,-34.4,M,,*55
lng=-77.680099, lat=43.085765, altitude=159.40, speed=0.01, satellites=10, angle=304.6500, fixquality=1
$GPRMC,170350.600,A,4305.1459,N,07740.8060,W,0.02,118.85,140319,,,A*72
$GPGGA,170350.800,4305.1459,N,07740.8060,W,1,10,0.78,159.3,M,-34.4,M,,*59
lng=-77.680099, lat=43.085765, altitude=159.30, speed=0.02, satellites=10, angle=118.8500, fixquality=1
$GPRMC,170351.000,A,4305.1459,N,07740.8060,W,0.03,207.09,140319,,,A*7D
$GPGGA,170351.200,4305.1459,N,07740.8059,W,1,10,0.78,159.3,M,-34.4,M,,*58
lng=-77.680099, lat=43.085765, altitude=159.30, speed=0.03, satellites=10, angle=207.0900, fixquality=1
$GPRMC,170351.400,A,4305.1459,N,07740.8059,W,0.02,175.25,140319,,,A*7A
$GPGGA,170351.600,4305.1459,N,07740.8059,W,1,10,0.78,159.2,M,-34.4,M,,*5D
lng=-77.680091, lat=43.085765, altitude=159.30, speed=0.02, satellites=10, angle=175.2500, fixquality=1
$GPRMC,170351.800,A,4305.1459,N,07740.8059,W,0.01,276.93,140319,,,A*78
$GPGGA,170352.000,4305.1459,N,07740.8059,W,1,10,0.78,159.2,M,-34.4,M,,*58
lng=-77.680091, lat=43.085765, altitude=159.20, speed=0.01, satellites=10, angle=276.9300, fixquality=1
$GPRMC,170352.200,A,4305.1459,N,07740.8059,W,0.01,12.57,140319,,,A*49
$GPGGA,170352.400,4305.1459,N,07740.8059,W,1,10,0.79,159.1,M,-34.4,M,,*5E
lng=-77.680091, lat=43.085765, altitude=159.20, speed=0.01, satellites=10, angle=12.5700, fixquality=1
$GPRMC,170352.600,A,4305.1459,N,07740.8059,W,0.02,291.68,140319,,,A*7B
$GPGGA,170352.800,4305.1459,N,07740.8059,W,1,10,0.78,159.1,M,-34.4,M,,*53
lng=-77.680091, lat=43.085765, altitude=159.10, speed=0.02, satellites=10, angle=291.6800, fixquality=1
$GPRMC,170353.000,A,4305.1459,N,07740.8059,W,0.01,104.17,140319,,,A*78
$GPGGA,170353.200,4305.1459,N,07740.8059,W,1,10,0.78,159.1,M,-34.4,M,,*58
lng=-77.680091, lat=43.085765, altitude=159.10, speed=0.01, satellites=10, angle=104.1700, fixquality=1
$GPRMC,170353.400,A,4305.1459,N,07740.8059,W,0.01,128.68,140319,,,A*7A
$GPGGA,170353.600,4305.1459,N,07740.8059,W,1,10,0.79,159.1,M,-34.4,M,,*5D
lng=-77.680091, lat=43.085765, altitude=159.10, speed=0.01, satellites=10, angle=128.6800, fixquality=1
$GPRMC,170353.800,A,4305.1459,N,07740.8059,W,0.01,292.32,140319,,,A*7B
$GPGGA,170354.000,4305.1459,N,07740.8059,W,1,10,0.78,159.1,M,-34.4,M,,*5D
lng=-77.680091, lat=43.085765, altitude=159.10, speed=0.01, satellites=10, angle=292.3200, fixquality=1
$GPRMC,170354.200,A,4305.1459,N,07740.8059,W,0.01,320.30,140319,,,A*7C
$GPGGA,170354.400,4305.1459,N,07740.8059,W,1,10,0.78,159.1,M,-34.4,M,,*59
lng=-77.680091, lat=43.085765, altitude=159.10, speed=0.01, satellites=10, angle=320.3000, fixquality=1
$GPRMC,170354.600,A,4305.1459,N,07740.8059,W,0.04,200.61,140319,,,A*7A
$GPGGA,170354.800,4305.1459,N,07740.8059,W,1,10,0.78,159.1,M,-34.4,M,,*55
lng=-77.680091, lat=43.085765, altitude=159.10, speed=0.04, satellites=10, angle=200.6100, fixquality=1
$GPRMC,170355.000,A,4305.1459,N,07740.8059,W,0.02,152.86,140319,,,A*76
$GPGGA,170355.200,4305.1459,N,07740.8059,W,1,10,0.78,159.1,M,-34.4,M,,*5E
lng=-77.680091, lat=43.085765, altitude=159.10, speed=0.02, satellites=10, angle=152.8600, fixquality=1
$GPRMC,170355.400,A,4305.1459,N,07740.8059,W,0.01,259.62,140319,,,A*73
$GPGGA,170355.600,4305.1459,N,07740.8059,W,1,10,0.79,159.1,M,-34.4,M,,*5B
lng=-77.680091, lat=43.085765, altitude=159.10, speed=0.01, satellites=10, angle=259.6200, fixquality=1
$GPRMC,170355.800,A,4305.1459,N,07740.8059,W,0.01,154.26,140319,,,A*71
$GPGGA,170356.000,4305.1459,N,07740.8059,W,1,10,0.78,159.1,M,-34.4,M,,*5F
lng=-77.680091, lat=43.085765, altitude=159.10, speed=0.01, satellites=10, angle=154.2600, fixquality=1
$GPRMC,170356.200,A,4305.1459,N,07740.8059,W,0.02,298.67,140319,,,A*7D
$GPGGA,170356.400,4305.1459,N,07740.8059,W,1,10,0.78,159.1,M,-34.4,M,,*5B
lng=-77.680091, lat=43.085765, altitude=159.10, speed=0.02, satellites=10, angle=298.6700, fixquality=1
$GPRMC,170356.600,A,4305.1459,N,07740.8059,W,0.01,224.61,140319,,,A*7B
$GPGGA,170356.800,4305.1459,N,07740.8059,W,1,10,0.78,159.1,M,-34.4,M,,*57
lng=-77.680091, lat=43.085765, altitude=159.10, speed=0.01, satellites=10, angle=224.6100, fixquality=1
$GPRMC,170357.000,A,4305.1459,N,07740.8059,W,0.02,241.58,140319,,,A*76
$GPGGA,170357.200,4305.1459,N,07740.8059,W,1,10,0.78,159.1,M,-34.4,M,,*5C
lng=-77.680091, lat=43.085765, altitude=159.10, speed=0.02, satellites=10, angle=241.5800, fixquality=1
$GPRMC,170357.400,A,4305.1459,N,07740.8059,W,0.02,284.61,140319,,,A*71
$GPGGA,170357.600,4305.1459,N,07740.8059,W,1,10,0.78,159.1,M,-34.4,M,,*58
lng=-77.680091, lat=43.085765, altitude=159.10, speed=0.02, satellites=10, angle=284.6100, fixquality=1
$GPRMC,170357.800,A,4305.1459,N,07740.8059,W,0.02,149.24,140319,,,A*7E
$GPGGA,170358.000,4305.1459,N,07740.8059,W,1,10,0.78,159.1,M,-34.4,M,,*51
lng=-77.680091, lat=43.085765, altitude=159.10, speed=0.02, satellites=10, angle=149.2400, fixquality=1
$GPRMC,170358.200,A,4305.1459,N,07740.8059,W,0.01,190.27,140319,,,A*7F
$GPGGA,170358.400,4305.1459,N,07740.8059,W,1,10,0.78,159.1,M,-34.4,M,,*55
lng=-77.680091, lat=43.085765, altitude=159.10, speed=0.01, satellites=10, angle=190.2700, fixquality=1
$GPRMC,170358.600,A,4305.1459,N,07740.8059,W,0.00,68.13,140319,,,A*4B
$GPGGA,170358.800,4305.1459,N,07740.8059,W,1,10,0.78,159.1,M,-34.4,M,,*59
lng=-77.680091, lat=43.085765, altitude=159.10, speed=0.00, satellites=10, angle=68.1300, fixquality=1
$GPRMC,170359.000,A,4305.1459,N,07740.8059,W,0.01,114.42,140319,,,A*73
$GPGGA,170359.200,4305.1459,N,07740.8059,W,1,10,0.79,159.1,M,-34.4,M,,*53
lng=-77.680091, lat=43.085765, altitude=159.10, speed=0.01, satellites=10, angle=114.4200, fixquality=1
$GPRMC,170359.400,A,4305.1459,N,07740.8059,W,0.01,72.05,140319,,,A*45
$GPGGA,170359.600,4305.1459,N,07740.8059,W,1,10,0.78,159.1,M,-34.4,M,,*56
lng=-77.680091, lat=43.085765, altitude=159.10, speed=0.01, satellites=10, angle=72.0500, fixquality=1
$GPRMC,170359.800,A,4305.1459,N,07740.8059,W,0.01,260.50,140319,,,A*78
$GPGGA,170400.000,4305.1459,N,07740.8059,W,1,10,0.78,159.1,M,-34.4,M,,*5B
lng=-77.680091, lat=43.085765, altitude=159.10, speed=0.01, satellites=10, angle=260.5000, fixquality=1
$GPRMC,170400.200,A,4305.1459,N,07740.8059,W,0.02,300.75,140319,,,A*7A
$GPGGA,170400.400,4305.1459,N,07740.8059,W,1,10,0.78,159.1,M,-34.4,M,,*5F
lng=-77.680091, lat=43.085765, altitude=159.10, speed=0.02, satellites=10, angle=300.7500, fixquality=1
$GPRMC,170400.600,A,4305.1459,N,07740.8059,W,0.01,148.03,140319,,,A*72
$GPGGA,170400.800,4305.1459,N,07740.8059,W,1,10,0.79,159.1,M,-34.4,M,,*52
lng=-77.680091, lat=43.085765, altitude=159.10, speed=0.01, satellites=10, angle=148.0300, fixquality=1
$GPRMC,170401.000,A,4305.1459,N,07740.8059,W,0.01,89.39,140319,,,A*40
$GPGGA,170401.200,4305.1459,N,07740.8059,W,1,10,0.78,159.1,M,-34.4,M,,*58
lng=-77.680091, lat=43.085765, altitude=159.10, speed=0.01, satellites=10, angle=89.3900, fixquality=1
$GPRMC,170401.400,A,4305.1459,N,07740.8059,W,0.02,196.66,140319,,,A*72
$GPGGA,170401.600,4305.1459,N,07740.8059,W,1,10,0.79,159.1,M,-34.4,M,,*5D
lng=-77.680091, lat=43.085765, altitude=159.10, speed=0.02, satellites=10, angle=196.6600, fixquality=1
$GPRMC,170401.800,A,4305.1459,N,07740.8059,W,0.01,195.15,140319,,,A*7A
$GPGGA,170402.000,4305.1459,N,07740.8059,W,1,10,0.79,159.1,M,-34.4,M,,*58
lng=-77.680091, lat=43.085765, altitude=159.10, speed=0.01, satellites=10, angle=195.1500, fixquality=1
$GPRMC,170402.200,A,4305.1459,N,07740.8059,W,0.00,61.97,140319,,,A*42
$GPGGA,170402.400,4305.1459,N,07740.8059,W,1,10,0.79,159.1,M,-34.4,M,,*5C
lng=-77.680091, lat=43.085765, altitude=159.10, speed=0.00, satellites=10, angle=61.9700, fixquality=1
$GPRMC,170402.600,A,4305.1459,N,07740.8059,W,0.00,57.76,140319,,,A*4C
$GPGGA,170402.800,4305.1459,N,07740.8059,W,1,10,0.79,159.1,M,-34.4,M,,*50
lng=-77.680091, lat=43.085765, altitude=159.10, speed=0.00, satellites=10, angle=57.7600, fixquality=1
$GPRMC,170403.000,A,4305.1459,N,07740.8059,W,0.01,275.25,140319,,,A*7E
$GPGGA,170403.200,4305.1459,N,07740.8059,W,1,10,0.79,159.1,M,-34.4,M,,*5B
lng=-77.680091, lat=43.085765, altitude=159.10, speed=0.01, satellites=10, angle=275.2500, fixquality=1
$GPRMC,170403.400,A,4305.1459,N,07740.8059,W,0.00,339.33,140319,,,A*75
$GPGGA,170403.600,4305.1459,N,07740.8059,W,1,10,0.79,159.1,M,-34.4,M,,*5F
lng=-77.680091, lat=43.085765, altitude=159.10, speed=0.00, satellites=10, angle=339.3300, fixquality=1
$GPRMC,170403.800,A,4305.1459,N,07740.8059,W,0.00,172.86,140319,,,A*7A
$GPGGA,170404.000,4305.1459,N,07740.8059,W,1,10,0.79,159.1,M,-34.4,M,,*5E
lng=-77.680091, lat=43.085765, altitude=159.10, speed=0.00, satellites=10, angle=172.8600, fixquality=1
$GPRMC,170404.200,A,4305.1459,N,07740.8059,W,0.00,181.56,140319,,,A*76
$GPGGA,170404.400,4305.1459,N,07740.8059,W,1,10,0.79,159.1,M,-34.4,M,,*5A
lng=-77.680091, lat=43.085765, altitude=159.10, speed=0.00, satellites=10, angle=181.5600, fixquality=1
$GPRMC,170404.600,A,4305.1459,N,07740.8059,W,0.01,155.85,140319,,,A*74
$GPGGA,170404.800,4305.1459,N,07740.8059,W,1,10,0.79,159.1,M,-34.4,M,,*56
lng=-77.680091, lat=43.085765, altitude=159.10, speed=0.01, satellites=10, angle=155.8500, fixquality=1
$GPRMC,170405.000,A,4305.1459,N,07740.8059,W,0.01,265.79,140319,,,A*70
$GPGGA,170405.200,4305.1459,N,07740.8059,W,1,10,0.79,159.1,M,-34.4,M,,*5D
lng=-77.680091, lat=43.085765, altitude=159.10, speed=0.01, satellites=10, angle=265.7900, fixquality=1
$GPRMC,170405.400,A,4305.1459,N,07740.8059,W,0.00,332.41,140319,,,A*7D
$GPGGA,170405.600,4305.1459,N,07740.8059,W,1,10,0.79,159.1,M,-34.4,M,,*59
lng=-77.680091, lat=43.085765, altitude=159.10, speed=0.00, satellites=10, angle=332.4100, fixquality=1
$GPRMC,170405.800,A,4305.1459,N,07740.8059,W,0.00,236.59,140319,,,A*7D
$GPGGA,170406.000,4305.1459,N,07740.8059,W,1,10,0.79,159.1,M,-34.4,M,,*5C
lng=-77.680091, lat=43.085765, altitude=159.10, speed=0.00, satellites=10, angle=236.5900, fixquality=1
$GPRMC,170406.200,A,4305.1459,N,07740.8059,W,0.00,306.59,140319,,,A*76
$GPGGA,170406.400,4305.1459,N,07740.8059,W,1,10,0.79,159.1,M,-34.4,M,,*58
lng=-77.680091, lat=43.085765, altitude=159.10, speed=0.00, satellites=10, angle=306.5900, fixquality=1
$GPRMC,170406.600,A,4305.1459,N,07740.8059,W,0.00,0.00,140319,,,A*7B
$GPGGA,170406.800,4305.1459,N,07740.8059,W,1,10,0.79,159.1,M,-34.4,M,,*54
lng=-77.680091, lat=43.085765, altitude=159.10, speed=0.00, satellites=10, angle=0.0000, fixquality=1
$GPRMC,170407.000,A,4305.1459,N,07740.8059,W,0.01,137.59,140319,,,A*74
$GPGGA,170407.200,4305.1459,N,07740.8059,W,1,10,0.79,159.1,M,-34.4,M,,*5F
lng=-77.680091, lat=43.085765, altitude=159.10, speed=0.01, satellites=10, angle=137.5900, fixquality=1
$GPRMC,170407.400,A,4305.1459,N,07740.8059,W,0.01,151.94,140319,,,A*71
$GPGGA,170407.600,4305.1459,N,07740.8059,W,1,10,0.79,159.1,M,-34.4,M,,*5B
lng=-77.680091, lat=43.085765, altitude=159.10, speed=0.01, satellites=10, angle=151.9400, fixquality=1
$GPRMC,170407.800,A,4305.1459,N,07740.8059,W,0.00,109.60,140319,,,A*7A
$GPGGA,170408.000,4305.1459,N,07740.8059,W,1,10,0.79,159.1,M,-34.4,M,,*52
lng=-77.680091, lat=43.085765, altitude=159.10, speed=0.00, satellites=10, angle=109.6000, fixquality=1
$GPRMC,170408.200,A,4305.1459,N,07740.8059,W,0.00,83.45,140319,,,A*4B
$GPGGA,170408.400,4305.1459,N,07740.8059,W,1,10,0.79,159.1,M,-34.4,M,,*56
lng=-77.680091, lat=43.085765, altitude=159.10, speed=0.00, satellites=10, angle=83.4500, fixquality=1
$GPRMC,170408.600,A,4305.1459,N,07740.8059,W,0.00,52.72,140319,,,A*47
$GPGGA,170408.800,4305.1459,N,07740.8059,W,1,10,0.79,159.1,M,-34.4,M,,*5A
lng=-77.680091, lat=43.085765, altitude=159.10, speed=0.00, satellites=10, angle=52.7200, fixquality=1
$GPRMC,170409.000,A,4305.1459,N,07740.8059,W,0.00,69.54,140319,,,A*4C
$GPGGA,170409.200,4305.1459,N,07740.8059,W,1,10,0.79,159.1,M,-34.4,M,,*51
lng=-77.680091, lat=43.085765, altitude=159.10, speed=0.00, satellites=10, angle=69.5400, fixquality=1
$GPRMC,170409.400,A,4305.1459,N,07740.8059,W,0.00,47.66,140319,,,A*45
$GPGGA,170409.600,4305.1459,N,07740.8059,W,1,10,0.79,159.1,M,-34.4,M,,*55
lng=-77.680091, lat=43.085765, altitude=159.10, speed=0.00, satellites=10, angle=47.6600, fixquality=1
$GPRMC,170409.800,A,4305.1459,N,07740.8059,W,0.01,197.53,140319,,,A*72
$GPGGA,170410.000,4305.1459,N,07740.8059,W,1,10,0.79,159.1,M,-34.4,M,,*5B
lng=-77.680091, lat=43.085765, altitude=159.10, speed=0.01, satellites=10, angle=197.5300, fixquality=1
$GPRMC,170410.200,A,4305.1459,N,07740.8059,W,0.00,329.31,140319,,,A*72
$GPGGA,170410.400,4305.1459,N,07740.8059,W,1,10,0.79,159.1,M,-34.4,M,,*5F
lng=-77.680091, lat=43.085765, altitude=159.10, speed=0.00, satellites=10, angle=329.3100, fixquality=1
$GPRMC,170410.600,A,4305.1459,N,07740.8059,W,0.01,191.45,140319,,,A*75
$GPGGA,170410.800,4305.1459,N,07740.8059,W,1,10,0.79,159.1,M,-34.4,M,,*53
lng=-77.680091, lat=43.085765, altitude=159.10, speed=0.01, satellites=10, angle=191.4500, fixquality=1
$GPRMC,170411.000,A,4305.1459,N,07740.8059,W,0.00,221.79,140319,,,A*74
$GPGGA,170411.200,4305.1459,N,07740.8059,W,1,10,0.79,159.1,M,-34.4,M,,*58
lng=-77.680091, lat=43.085765, altitude=159.10, speed=0.00, satellites=10, angle=221.7900, fixquality=1
$GPRMC,170411.400,A,4305.1459,N,07740.8059,W,0.01,229.70,140319,,,A*70
$GPGGA,170411.600,4305.1459,N,07740.8059,W,1,10,0.79,159.1,M,-34.4,M,,*5C
lng=-77.680091, lat=43.085765, altitude=159.10, speed=0.01, satellites=10, angle=229.7000, fixquality=1
$GPRMC,170411.800,A,4305.1459,N,07740.8059,W,0.00,139.20,140319,,,A*7A
$GPGGA,170412.000,4305.1459,N,07740.8059,W,1,10,0.79,159.1,M,-34.4,M,,*59
lng=-77.680091, lat=43.085765, altitude=159.10, speed=0.00, satellites=10, angle=139.2000, fixquality=1
$GPRMC,170412.200,A,4305.1459,N,07740.8059,W,0.00,265.51,140319,,,A*7F
$GPGGA,170412.400,4305.1459,N,07740.8059,W,1,10,0.79,159.1,M,-34.4,M,,*5D
lng=-77.680091, lat=43.085765, altitude=159.10, speed=0.00, satellites=10, angle=265.5100, fixquality=1
$GPRMC,170412.600,A,4305.1459,N,07740.8059,W,0.00,32.41,140319,,,A*4A
$GPGGA,170412.800,4305.1459,N,07740.8059,W,1,10,0.79,159.1,M,-34.4,M,,*51
lng=-77.680091, lat=43.085765, altitude=159.10, speed=0.00, satellites=10, angle=32.4100, fixquality=1
$GPRMC,170413.000,A,4305.1459,N,07740.8059,W,0.00,342.57,140319,,,A*7E
$GPGGA,170413.200,4305.1459,N,07740.8059,W,1,10,0.79,159.1,M,-34.4,M,,*5A
lng=-77.680091, lat=43.085765, altitude=159.10, speed=0.00, satellites=10, angle=342.5700, fixquality=1
$GPRMC,170413.400,A,4305.1459,N,07740.8059,W,0.01,269.14,140319,,,A*74
$GPGGA,170413.600,4305.1459,N,07740.8059,W,1,10,0.79,159.1,M,-34.4,M,,*5E
lng=-77.680091, lat=43.085765, altitude=159.10, speed=0.01, satellites=10, angle=269.1400, fixquality=1
$GPRMC,170413.800,A,4305.1459,N,07740.8059,W,0.00,58.78,140319,,,A*43
$GPGGA,170414.000,4305.1459,N,07740.8059,W,1,10,0.79,159.1,M,-34.4,M,,*5F
lng=-77.680091, lat=43.085765, altitude=159.10, speed=0.00, satellites=10, angle=58.7800, fixquality=1
$GPRMC,170414.200,A,4305.1459,N,07740.8059,W,0.01,339.51,140319,,,A*70
$GPGGA,170414.400,4305.1459,N,07740.8059,W,1,10,0.79,159.1,M,-34.4,M,,*5B
lng=-77.680091, lat=43.085765, altitude=159.10, speed=0.01, satellites=10, angle=339.5100, fixquality=1
$GPRMC,170414.600,A,4305.1459,N,07740.8059,W,0.01,352.75,140319,,,A*7F
$GPGGA,170414.800,4305.1459,N,07740.8059,W,1,10,0.79,159.1,M,-34.4,M,,*57
lng=-77.680091, lat=43.085765, altitude=159.10, speed=0.01, satellites=10, angle=352.7500, fixquality=1
$GPRMC,170415.000,A,4305.1459,N,07740.8059,W,0.00,206.85,140319,,,A*76
$GPGGA,170415.200,4305.1459,N,07740.8059,W,1,10,0.79,159.1,M,-34.4,M,,*5C
lng=-77.680091, lat=43.085765, altitude=159.10, speed=0.00, satellites=10, angle=206.8500, fixquality=1
$GPRMC,170415.400,A,4305.1459,N,07740.8059,W,0.00,118.46,140319,,,A*71
$GPGGA,170415.600,4305.1459,N,07740.8059,W,1,10,0.79,159.1,M,-34.4,M,,*58
lng=-77.680091, lat=43.085765, altitude=159.10, speed=0.00, satellites=10, angle=118.4600, fixquality=1
$GPRMC,170415.800,A,4305.1459,N,07740.8059,W,0.01,34.09,140319,,,A*48
$GPGGA,170416.000,4305.1459,N,07740.8059,W,1,10,0.79,159.1,M,-34.4,M,,*5D
lng=-77.680091, lat=43.085765, altitude=159.10, speed=0.01, satellites=10, angle=34.0900, fixquality=1
$GPRMC,170416.200,A,4305.1459,N,07740.8059,W,0.01,169.09,140319,,,A*78
$GPGGA,170416.400,4305.1459,N,07740.8059,W,1,10,0.79,159.1,M,-34.4,M,,*59
lng=-77.680091, lat=43.085765, altitude=159.10, speed=0.01, satellites=10, angle=169.0900, fixquality=1
$GPRMC,170416.600,A,4305.1459,N,07740.8059,W,0.00,0.00,140319,,,A*7A
$GPGGA,170416.800,4305.1459,N,07740.8059,W,1,10,0.79,159.1,M,-34.4,M,,*55
lng=-77.680091, lat=43.085765, altitude=159.10, speed=0.00, satellites=10, angle=0.0000, fixquality=1
$GPRMC,170417.000,A,4305.1459,N,07740.8059,W,0.01,148.93,140319,,,A*7B
$GPGGA,170417.200,4305.1459,N,07740.8059,W,1,10,0.79,159.1,M,-34.4,M,,*5E
lng=-77.680091, lat=43.085765, altitude=159.10, speed=0.01, satellites=10, angle=148.9300, fixquality=1
$GPRMC,170417.400,A,4305.1459,N,07740.8059,W,0.00,158.04,140319,,,A*71
$GPGGA,170417.600,4305.1459,N,07740.8059,W,1,10,0.79,159.1,M,-34.4,M,,*5A
lng=-77.680091, lat=43.085765, altitude=159.10, speed=0.00, satellites=10, angle=158.0400, fixquality=1
$GPRMC,170417.800,A,4305.1459,N,07740.8059,W,0.00,203.96,140319,,,A*7B
$GPGGA,170418.000,4305.1459,N,07740.8059,W,1,10,0.79,159.1,M,-34.4,M,,*53
lng=-77.680091, lat=43.085765, altitude=159.10, speed=0.00, satellites=10, angle=203.9600, fixquality=1
$GPRMC,170418.200,A,4305.1459,N,07740.8059,W,0.00,337.40,140319,,,A*73
$GPGGA,170418.400,4305.1459,N,07740.8059,W,1,10,0.79,159.1,M,-34.4,M,,*57
lng=-77.680091, lat=43.085765, altitude=159.10, speed=0.00, satellites=10, angle=337.4000, fixquality=1
$GPRMC,170418.600,A,4305.1459,N,07740.8059,W,0.00,76.49,140319,,,A*48
$GPGGA,170418.800,4305.1459,N,07740.8059,W,1,10,0.79,159.1,M,-34.4,M,,*5B
lng=-77.680091, lat=43.085765, altitude=159.10, speed=0.00, satellites=10, angle=76.4900, fixquality=1
$GPRMC,170419.000,A,4305.1459,N,07740.8059,W,0.01,82.79,140319,,,A*46
$GPGGA,170419.200,4305.1459,N,07740.8059,W,1,10,0.79,159.1,M,-34.4,M,,*50
lng=-77.680091, lat=43.085765, altitude=159.10, speed=0.01, satellites=10, angle=82.7900, fixquality=1
$GPRMC,170419.400,A,4305.1459,N,07740.8059,W,0.00,79.46,140319,,,A*4B
$GPGGA,170419.600,4305.1459,N,07740.8059,W,1,10,0.79,159.1,M,-34.4,M,,*54
lng=-77.680091, lat=43.085765, altitude=159.10, speed=0.00, satellites=10, angle=79.4600, fixquality=1
$GPRMC,170419.800,A,4305.1459,N,07740.8059,W,0.00,88.21,140319,,,A*48
$GPGGA,170420.000,4305.1459,N,07740.8059,W,1,10,0.79,159.1,M,-34.4,M,,*58
lng=-77.680091, lat=43.085765, altitude=159.10, speed=0.00, satellites=10, angle=88.2100, fixquality=1
$GPRMC,170420.200,A,4305.1459,N,07740.8059,W,0.01,131.87,140319,,,A*76
$GPGGA,170420.400,4305.1459,N,07740.8059,W,1,10,0.79,159.1,M,-34.4,M,,*5C
lng=-77.680091, lat=43.085765, altitude=159.10, speed=0.01, satellites=10, angle=131.8700, fixquality=1
$GPRMC,170420.600,A,4305.1459,N,07740.8059,W,0.00,255.51,140319,,,A*79
$GPGGA,170420.800,4305.1459,N,07740.8059,W,1,10,0.79,159.1,M,-34.4,M,,*50
lng=-77.680091, lat=43.085765, altitude=159.10, speed=0.00, satellites=10, angle=255.5100, fixquality=1
$GPRMC,170421.000,A,4305.1459,N,07740.8059,W,0.00,207.07,140319,,,A*7A
$GPGGA,170421.200,4305.1459,N,07740.8059,W,1,10,0.79,159.1,M,-34.4,M,,*5B
lng=-77.680091, lat=43.085765, altitude=159.10, speed=0.00, satellites=10, angle=207.0700, fixquality=1
$GPRMC,170421.400,A,4305.1459,N,07740.8059,W,0.00,28.89,140319,,,A*47
$GPGGA,170421.600,4305.1459,N,07740.8059,W,1,10,0.79,159.1,M,-34.4,M,,*5F
lng=-77.680091, lat=43.085765, altitude=159.10, speed=0.00, satellites=10, angle=28.8900, fixquality=1
$GPRMC,170421.800,A,4305.1459,N,07740.8059,W,0.00,0.00,140319,,,A*70
$GPGGA,170422.000,4305.1459,N,07740.8059,W,1,10,0.79,159.1,M,-34.4,M,,*5A
lng=-77.680091, lat=43.085765, altitude=159.10, speed=0.00, satellites=10, angle=0.0000, fixquality=1
$GPRMC,170422.200,A,4305.1459,N,07740.8059,W,0.00,280.84,140319,,,A*7F
$GPGGA,170422.400,4305.1459,N,07740.8059,W,1,10,0.79,159.1,M,-34.4,M,,*5E
lng=-77.680091, lat=43.085765, altitude=159.10, speed=0.00, satellites=10, angle=280.8400, fixquality=1
$GPRMC,170422.600,A,4305.1459,N,07740.8059,W,0.00,211.15,140319,,,A*7B
$GPGGA,170422.800,4305.1459,N,07740.8059,W,1,10,0.79,159.1,M,-34.4,M,,*52
lng=-77.680091, lat=43.085765, altitude=159.10, speed=0.00, satellites=10, angle=211.1500, fixquality=1
$GPRMC,170423.000,A,4305.1459,N,07740.8059,W,0.01,300.56,140319,,,A*7B
$GPGGA,170423.200,4305.1459,N,07740.8059,W,1,10,0.79,159.1,M,-34.4,M,,*59
lng=-77.680091, lat=43.085765, altitude=159.10, speed=0.01, satellites=10, angle=300.5600, fixquality=1
$GPRMC,170423.400,A,4305.1459,N,07740.8059,W,0.00,292.93,140319,,,A*7D
$GPGGA,170423.600,4305.1459,N,07740.8059,W,1,10,0.79,159.1,M,-34.4,M,,*5D
lng=-77.680091, lat=43.085765, altitude=159.10, speed=0.00, satellites=10, angle=292.9300, fixquality=1
$GPRMC,170423.800,A,4305.1459,N,07740.8059,W,0.01,6.83,140319,,,A*7E
$GPGGA,170424.000,4305.1459,N,07740.8059,W,1,10,0.79,159.1,M,-34.4,M,,*5C
lng=-77.680091, lat=43.085765, altitude=159.10, speed=0.01, satellites=10, angle=6.8300, fixquality=1
$GPRMC,170424.200,A,4305.1459,N,07740.8059,W,0.01,145.41,140319,,,A*7B
$GPGGA,170424.400,4305.1459,N,07740.8059,W,1,10,0.79,159.1,M,-34.4,M,,*58
lng=-77.680091, lat=43.085765, altitude=159.10, speed=0.01, satellites=10, angle=145.4100, fixquality=1
$GPRMC,170424.600,A,4305.1459,N,07740.8059,W,0.00,293.65,140319,,,A*70
$GPGGA,170424.800,4305.1459,N,07740.8059,W,1,10,0.79,159.1,M,-34.4,M,,*54
lng=-77.680091, lat=43.085765, altitude=159.10, speed=0.00, satellites=10, angle=293.6500, fixquality=1
$GPRMC,170425.000,A,4305.1459,N,07740.8059,W,0.00,43.32,140319,,,A*4A
$GPGGA,170425.200,4305.1459,N,07740.8059,W,1,10,0.79,159.1,M,-34.4,M,,*5F
lng=-77.680091, lat=43.085765, altitude=159.10, speed=0.00, satellites=10, angle=43.3200, fixquality=1
$GPRMC,170425.400,A,4305.1459,N,07740.8059,W,0.00,18.59,140319,,,A*4D
$GPGGA,170425.600,4305.1459,N,07740.8059,W,1,10,0.79,159.1,M,-34.4,M,,*5B
lng=-77.680091, lat=43.085765, altitude=159.10, speed=0.00, satellites=10, angle=18.5900, fixquality=1
$GPRMC,170425.800,A,4305.1459,N,07740.8059,W,0.00,21.53,140319,,,A*41
$GPGGA,170426.000,4305.1459,N,07740.8059,W,1,10,0.79,159.1,M,-34.4,M,,*5E
lng=-77.680091, lat=43.085765, altitude=159.10, speed=0.00, satellites=10, angle=21.5300, fixquality=1
$GPRMC,170426.200,A,4305.1459,N,07740.8059,W,0.00,176.15,140319,,,A*79
$GPGGA,170426.400,4305.1459,N,07740.8059,W,1,10,0.79,159.1,M,-34.4,M,,*5A
lng=-77.680091, lat=43.085765, altitude=159.10, speed=0.00, satellites=10, angle=176.1500, fixquality=1
$GPRMC,170426.600,A,4305.1459,N,07740.8059,W,0.00,184.26,140319,,,A*70
$GPGGA,170426.800,4305.1459,N,07740.8059,W,1,10,0.79,159.1,M,-34.4,M,,*56
lng=-77.680091, lat=43.085765, altitude=159.10, speed=0.00, satellites=10, angle=184.2600, fixquality=1
$GPRMC,170427.000,A,4305.1459,N,07740.8059,W,0.00,321.56,140319,,,A*7D
$GPGGA,170427.200,4305.1459,N,07740.8059,W,1,10,0.79,159.1,M,-34.4,M,,*5D
lng=-77.680091, lat=43.085765, altitude=159.10, speed=0.00, satellites=10, angle=321.5600, fixquality=1
$GPRMC,170427.400,A,4305.1459,N,07740.8059,W,0.00,155.01,140319,,,A*7A
$GPGGA,170427.600,4305.1459,N,07740.8059,W,1,10,0.79,159.1,M,-34.4,M,,*59
lng=-77.680091, lat=43.085765, altitude=159.10, speed=0.00, satellites=10, angle=155.0100, fixquality=1
$GPRMC,170427.800,A,4305.1459,N,07740.8059,W,0.00,326.87,140319,,,A*7E
$GPGGA,170428.000,4305.1459,N,07740.8059,W,1,10,0.79,159.1,M,-34.4,M,,*50
lng=-77.680091, lat=43.085765, altitude=159.10, speed=0.00, satellites=10, angle=326.8700, fixquality=1
$GPRMC,170428.200,A,4305.1459,N,07740.8059,W,0.00,0.00,140319,,,A*73
$GPGGA,170428.400,4305.1459,N,07740.8059,W,1,10,0.79,159.1,M,-34.4,M,,*54
lng=-77.680091, lat=43.085765, altitude=159.10, speed=0.00, satellites=10, angle=0.0000, fixquality=1
$GPRMC,170428.600,A,4305.1459,N,07740.8059,W,0.00,1.54,140319,,,A*77
$GPGGA,170428.800,4305.1459,N,07740.8059,W,1,10,0.79,159.1,M,-34.4,M,,*58
lng=-77.680091, lat=43.085765, altitude=159.10, speed=0.00, satellites=10, angle=1.5400, fixquality=1
$GPRMC,170429.000,A,4305.1459,N,07740.8059,W,0.01,185.49,140319,,,A*70
$GPGGA,170429.200,4305.1459,N,07740.8059,W,1,10,0.79,159.1,M,-34.4,M,,*53
lng=-77.680091, lat=43.085765, altitude=159.10, speed=0.01, satellites=10, angle=185.4900, fixquality=1
$GPRMC,170429.400,A,4305.1459,N,07740.8059,W,0.01,175.33,140319,,,A*76
$GPGGA,170429.600,4305.1459,N,07740.8059,W,1,10,0.79,159.1,M,-34.4,M,,*57
lng=-77.680091, lat=43.085765, altitude=159.10, speed=0.01, satellites=10, angle=175.3300, fixquality=1
$GPRMC,170429.800,A,4305.1459,N,07740.8059,W,0.00,296.83,140319,,,A*7E
$GPGGA,170430.000,4305.1459,N,07740.8059,W,1,10,0.79,159.1,M,-34.4,M,,*59
lng=-77.680091, lat=43.085765, altitude=159.10, speed=0.00, satellites=10, angle=296.8300, fixquality=1
$GPRMC,170430.200,A,4305.1459,N,07740.8059,W,0.00,317.59,140319,,,A*73
$GPGGA,170430.400,4305.1459,N,07740.8059,W,1,10,0.79,159.1,M,-34.4,M,,*5D
lng=-77.680091, lat=43.085765, altitude=159.10, speed=0.00, satellites=10, angle=317.5900, fixquality=1
$GPRMC,170430.600,A,4305.1459,N,07740.8059,W,0.01,156.80,140319,,,A*75
$GPGGA,170430.800,4305.1459,N,07740.8059,W,1,10,0.79,159.1,M,-34.4,M,,*51
lng=-77.680091, lat=43.085765, altitude=159.10, speed=0.01, satellites=10, angle=156.8000, fixquality=1
$GPRMC,170431.000,A,4305.1459,N,07740.8059,W,0.00,0.00,140319,,,A*79
$GPGGA,170431.200,4305.1459,N,07740.8059,W,1,10,0.79,159.1,M,-34.4,M,,*5A
lng=-77.680091, lat=43.085765, altitude=159.10, speed=0.00, satellites=10, angle=0.0000, fixquality=1
$GPRMC,170431.400,A,4305.1459,N,07740.8059,W,0.00,148.76,140319,,,A*71
$GPGGA,170431.600,4305.1459,N,07740.8059,W,1,10,0.79,159.1,M,-34.4,M,,*5E
lng=-77.680091, lat=43.085765, altitude=159.10, speed=0.00, satellites=10, angle=148.7600, fixquality=1
$GPRMC,170431.800,A,4305.1459,N,07740.8059,W,0.00,175.90,140319,,,A*7B
$GPGGA,170432.000,4305.1459,N,07740.8059,W,1,10,0.79,159.1,M,-34.4,M,,*5B
lng=-77.680091, lat=43.085765, altitude=159.10, speed=0.00, satellites=10, angle=175.9000, fixquality=1
$GPRMC,170432.200,A,4305.1459,N,07740.8059,W,0.00,164.41,140319,,,A*7E
$GPGGA,170432.400,4305.1459,N,07740.8059,W,1,10,0.79,159.1,M,-34.4,M,,*5F
lng=-77.680091, lat=43.085765, altitude=159.10, speed=0.00, satellites=10, angle=164.4100, fixquality=1
$GPRMC,170432.600,A,4305.1459,N,07740.8059,W,0.01,339.30,140319,,,A*77
$GPGGA,170432.800,4305.1459,N,07740.8059,W,1,10,0.79,159.1,M,-34.4,M,,*53
lng=-77.680091, lat=43.085765, altitude=159.10, speed=0.01, satellites=10, angle=339.3000, fixquality=1
$GPRMC,170433.000,A,4305.1459,N,07740.8059,W,0.00,171.10,140319,,,A*7D
$GPGGA,170433.200,4305.1459,N,07740.8059,W,1,10,0.79,159.1,M,-34.4,M,,*58
lng=-77.680091, lat=43.085765, altitude=159.10, speed=0.00, satellites=10, angle=171.1000, fixquality=1
$GPRMC,170433.400,A,4305.1459,N,07740.8059,W,0.00,272.30,140319,,,A*7B
$GPGGA,170433.600,4305.1459,N,07740.8059,W,1,10,0.79,159.1,M,-34.4,M,,*5C
lng=-77.680091, lat=43.085765, altitude=159.10, speed=0.00, satellites=10, angle=272.3000, fixquality=1
$GPRMC,170433.800,A,4305.1459,N,07740.8059,W,0.00,324.94,140319,,,A*7B
$GPGGA,170434.000,4305.1459,N,07740.8059,W,1,10,0.79,159.1,M,-34.4,M,,*5D
lng=-77.680091, lat=43.085765, altitude=159.10, speed=0.00, satellites=10, angle=324.9400, fixquality=1
$GPRMC,170434.200,A,4305.1459,N,07740.8059,W,0.00,98.16,140319,,,A*48
$GPGGA,170434.400,4305.1459,N,07740.8059,W,1,10,0.79,159.1,M,-34.4,M,,*59
lng=-77.680091, lat=43.085765, altitude=159.10, speed=0.00, satellites=10, angle=98.1600, fixquality=1
$GPRMC,170434.600,A,4305.1459,N,07740.8059,W,0.01,265.57,140319,,,A*78
$GPGGA,170434.800,4305.1459,N,07740.8059,W,1,10,0.79,159.1,M,-34.4,M,,*55
lng=-77.680091, lat=43.085765, altitude=159.10, speed=0.01, satellites=10, angle=265.5700, fixquality=1
$GPRMC,170435.000,A,4305.1459,N,07740.8059,W,0.00,121.13,140319,,,A*7D
$GPGGA,170435.200,4305.1459,N,07740.8059,W,1,10,0.79,159.1,M,-34.4,M,,*5E
lng=-77.680091, lat=43.085765, altitude=159.10, speed=0.00, satellites=10, angle=121.1300, fixquality=1
$GPRMC,170435.400,A,4305.1459,N,07740.8059,W,0.01,4.30,140319,,,A*7F
$GPGGA,170435.600,4305.1459,N,07740.8059,W,1,10,0.79,159.1,M,-34.4,M,,*5A
lng=-77.680091, lat=43.085765, altitude=159.10, speed=0.01, satellites=10, angle=4.3000, fixquality=1
$GPRMC,170435.800,A,4305.1459,N,07740.8059,W,0.00,0.00,140319,,,A*75
$GPGGA,170436.000,4305.1459,N,07740.8059,W,1,10,0.79,159.1,M,-34.4,M,,*5F
lng=-77.680091, lat=43.085765, altitude=159.10, speed=0.00, satellites=10, angle=0.0000, fixquality=1
$GPRMC,170436.200,A,4305.1459,N,07740.8059,W,0.01,69.85,140319,,,A*4F
$GPGGA,170436.400,4305.1459,N,07740.8059,W,2,10,0.79,159.1,M,-34.4,M,0000,0000*58
lng=-77.680091, lat=43.085765, altitude=159.10, speed=0.01, satellites=10, angle=69.8500, fixquality=1
$GPRMC,170436.600,A,4305.1459,N,07740.8059,W,0.00,320.72,140319,,,D*79
$GPGGA,170436.800,4305.1459,N,07740.8058,W,2,10,0.79,159.2,M,-34.4,M,0000,0000*56
lng=-77.680091, lat=43.085765, altitude=159.10, speed=0.00, satellites=10, angle=320.7200, fixquality=2
$GPRMC,170437.000,A,4305.1459,N,07740.8058,W,0.00,119.82,140319,,,D*78
$GPGGA,170437.200,4305.1459,N,07740.8057,W,2,10,0.79,159.1,M,-34.4,M,0000,0000*51
lng=-77.680091, lat=43.085765, altitude=159.20, speed=0.00, satellites=10, angle=119.8200, fixquality=2
$GPRMC,170437.400,A,4305.1459,N,07740.8057,W,0.00,81.80,140319,,,D*41
$GPGGA,170437.600,4305.1459,N,07740.8057,W,2,10,0.79,159.1,M,-34.4,M,0000,0000*55
lng=-77.680091, lat=43.085765, altitude=159.10, speed=0.00, satellites=10, angle=81.8000, fixquality=2
$GPRMC,170437.800,A,4305.1459,N,07740.8056,W,0.01,108.13,140319,,,D*77
$GPGGA,170438.000,4305.1459,N,07740.8056,W,2,10,0.79,159.2,M,-34.4,M,0000,0000*5E
lng=-77.680091, lat=43.085765, altitude=159.10, speed=0.01, satellites=10, angle=108.1300, fixquality=2
$GPRMC,170438.200,A,4305.1458,N,07740.8055,W,0.00,121.85,140319,,,D*75
$GPGGA,170438.400,4305.1458,N,07740.8055,W,2,10,0.79,159.2,M,-34.4,M,0000,0000*58
lng=-77.680091, lat=43.085765, altitude=159.20, speed=0.00, satellites=10, angle=121.8500, fixquality=2
$GPRMC,170438.600,A,4305.1458,N,07740.8055,W,0.00,147.89,140319,,,D*7D
$GPGGA,170438.800,4305.1458,N,07740.8054,W,2,10,0.79,159.2,M,-34.4,M,0000,0000*55
lng=-77.680091, lat=43.085765, altitude=159.20, speed=0.00, satellites=10, angle=147.8900, fixquality=2
$GPRMC,170439.000,A,4305.1458,N,07740.8054,W,0.00,105.42,140319,,,D*7A
$GPGGA,170439.200,4305.1458,N,07740.8054,W,2,10,0.79,159.2,M,-34.4,M,0000,0000*5E
lng=-77.680084, lat=43.085765, altitude=159.20, speed=0.00, satellites=10, angle=105.4200, fixquality=2
$GPRMC,170439.400,A,4305.1458,N,07740.8053,W,0.00,216.47,140319,,,D*7D
$GPGGA,170439.600,4305.1458,N,07740.8053,W,2,10,0.79,159.2,M,-34.4,M,0000,0000*5D
lng=-77.680084, lat=43.085765, altitude=159.20, speed=0.00, satellites=10, angle=216.4700, fixquality=2
$GPRMC,170439.800,A,4305.1458,N,07740.8053,W,0.00,89.96,140319,,,D*49
$GPGGA,170440.000,4305.1458,N,07740.8052,W,2,10,0.79,159.2,M,-34.4,M,0000,0000*54
lng=-77.680084, lat=43.085765, altitude=159.20, speed=0.00, satellites=10, angle=89.9600, fixquality=2
$GPRMC,170440.200,A,4305.1457,N,07740.8052,W,0.00,0.00,140319,,,D*7D
$GPGGA,170440.400,4305.1457,N,07740.8052,W,2,10,0.79,159.2,M,-34.4,M,0000,0000*5F
lng=-77.680084, lat=43.085758, altitude=159.20, speed=0.00, satellites=10, angle=0.0000, fixquality=2
$GPRMC,170440.600,A,4305.1457,N,07740.8051,W,0.00,354.51,140319,,,D*7C
$GPGGA,170440.800,4305.1457,N,07740.8051,W,2,10,0.79,159.2,M,-34.4,M,0000,0000*50
lng=-77.680084, lat=43.085758, altitude=159.20, speed=0.00, satellites=10, angle=354.5100, fixquality=2
$GPRMC,170441.000,A,4305.1457,N,07740.8051,W,0.00,167.23,140319,,,D*7C
$GPGGA,170441.200,4305.1457,N,07740.8050,W,2,10,0.79,159.2,M,-34.4,M,0000,0000*5A
lng=-77.680084, lat=43.085758, altitude=159.20, speed=0.00, satellites=10, angle=167.2300, fixquality=2
$GPRMC,170441.400,A,4305.1457,N,07740.8050,W,0.01,178.16,140319,,,D*70
$GPGGA,170441.600,4305.1457,N,07740.8050,W,2,10,0.79,159.2,M,-34.4,M,0000,0000*5E
lng=-77.680084, lat=43.085758, altitude=159.20, speed=0.01, satellites=10, angle=178.1600, fixquality=2
$GPRMC,170441.800,A,4305.1457,N,07740.8049,W,0.00,94.03,140319,,,D*42
$GPGGA,170442.000,4305.1457,N,07740.8049,W,2,10,0.79,159.3,M,-34.4,M,0000,0000*52
lng=-77.680076, lat=43.085758, altitude=159.20, speed=0.00, satellites=10, angle=94.0300, fixquality=2
$GPRMC,170442.200,A,4305.1457,N,07740.8049,W,0.00,197.56,140319,,,D*79
$GPGGA,170442.400,4305.1457,N,07740.8048,W,2,10,0.79,159.2,M,-34.4,M,0000,0000*56
lng=-77.680076, lat=43.085758, altitude=159.30, speed=0.00, satellites=10, angle=197.5600, fixquality=2
$GPRMC,170442.600,A,4305.1457,N,07740.8048,W,0.00,49.57,140319,,,D*4F
$GPGGA,170442.800,4305.1458,N,07740.8048,W,2,10,0.79,159.2,M,-34.4,M,0000,0000*55
lng=-77.680076, lat=43.085758, altitude=159.20, speed=0.00, satellites=10, angle=49.5700, fixquality=2
$GPRMC,170443.000,A,4305.1458,N,07740.8048,W,0.00,355.25,140319,,,D*7C
$GPGGA,170443.200,4305.1458,N,07740.8048,W,2,10,0.79,159.2,M,-34.4,M,0000,0000*5E
lng=-77.680076, lat=43.085765, altitude=159.20, speed=0.00, satellites=10, angle=355.2500, fixquality=2
$GPRMC,170443.400,A,4305.1458,N,07740.8048,W,0.01,115.44,140319,,,D*78
$GPGGA,170443.600,4305.1459,N,07740.8048,W,2,10,0.79,159.1,M,-34.4,M,0000,0000*58
lng=-77.680076, lat=43.085765, altitude=159.20, speed=0.01, satellites=10, angle=115.4400, fixquality=2
$GPRMC,170443.800,A,4305.1459,N,07740.8047,W,0.00,87.18,140319,,,D*48
$GPGGA,170444.000,4305.1459,N,07740.8047,W,2,10,0.79,159.1,M,-34.4,M,0000,0000*56
lng=-77.680076, lat=43.085765, altitude=159.10, speed=0.00, satellites=10, angle=87.1800, fixquality=2
$GPRMC,170444.200,A,4305.1459,N,07740.8047,W,0.01,346.10,140319,,,D*72
$GPGGA,170444.400,4305.1460,N,07740.8047,W,2,10,0.79,159.0,M,-34.4,M,0000,0000*59
lng=-77.680076, lat=43.085765, altitude=159.10, speed=0.01, satellites=10, angle=346.1000, fixquality=2
$GPRMC,170444.600,A,4305.1460,N,07740.8047,W,0.00,172.20,140319,,,D*7B
$GPGGA,170444.800,4305.1460,N,07740.8047,W,2,10,0.79,159.0,M,-34.4,M,0000,0000*55
lng=-77.680076, lat=43.085765, altitude=159.00, speed=0.00, satellites=10, angle=172.2000, fixquality=2
$GPRMC,170445.000,A,4305.1460,N,07740.8046,W,0.00,0.00,140319,,,D*7B
$GPGGA,170445.200,4305.1461,N,07740.8046,W,2,10,0.79,158.9,M,-34.4,M,0000,0000*56
lng=-77.680076, lat=43.085765, altitude=159.00, speed=0.00, satellites=10, angle=0.0000, fixquality=2
$GPRMC,170445.400,A,4305.1461,N,07740.8046,W,0.00,232.10,140319,,,D*7C
$GPGGA,170445.600,4305.1461,N,07740.8046,W,2,10,0.79,158.9,M,-34.4,M,0000,0000*52
lng=-77.680076, lat=43.085765, altitude=158.90, speed=0.00, satellites=10, angle=232.1000, fixquality=2
$GPRMC,170445.800,A,4305.1461,N,07740.8046,W,0.00,292.53,140319,,,D*7D
$GPGGA,170446.000,4305.1461,N,07740.8046,W,2,10,0.79,158.9,M,-34.4,M,0000,0000*57
lng=-77.680076, lat=43.085765, altitude=158.90, speed=0.00, satellites=10, angle=292.5300, fixquality=2
$GPRMC,170446.200,A,4305.1462,N,07740.8046,W,0.00,323.55,140319,,,D*7A
$GPGGA,170446.400,4305.1462,N,07740.8045,W,2,10,0.79,158.8,M,-34.4,M,0000,0000*52
lng=-77.680076, lat=43.085765, altitude=158.90, speed=0.00, satellites=10, angle=323.5500, fixquality=2
$GPRMC,170446.600,A,4305.1462,N,07740.8045,W,0.01,199.04,140319,,,D*7B
$GPGGA,170446.800,4305.1462,N,07740.8045,W,2,10,0.79,158.8,M,-34.4,M,0000,0000*5E
lng=-77.680076, lat=43.085765, altitude=158.80, speed=0.01, satellites=10, angle=199.0400, fixquality=2
$GPRMC,170447.000,A,4305.1463,N,07740.8045,W,0.01,65.60,140319,,,D*4D
$GPGGA,170447.200,4305.1463,N,07740.8045,W,2,10,0.79,158.7,M,-34.4,M,0000,0000*5B
lng=-77.680076, lat=43.085773, altitude=158.80, speed=0.01, satellites=10, angle=65.6000, fixquality=2
$GPRMC,170447.400,A,4305.1463,N,07740.8045,W,0.00,306.32,140319,,,D*79
$GPGGA,170447.600,4305.1463,N,07740.8045,W,2,10,0.79,158.7,M,-34.4,M,0000,0000*5F
lng=-77.680076, lat=43.085773, altitude=158.70, speed=0.00, satellites=10, angle=306.3200, fixquality=2
$GPRMC,170447.800,A,4305.1464,N,07740.8044,W,0.01,130.77,140319,,,D*74
$GPGGA,170448.000,4305.1464,N,07740.8044,W,2,10,0.79,158.7,M,-34.4,M,0000,0000*50
lng=-77.680068, lat=43.085773, altitude=158.70, speed=0.01, satellites=10, angle=130.7700, fixquality=2
$GPRMC,170448.200,A,4305.1464,N,07740.8044,W,0.01,30.10,140319,,,D*41
$GPGGA,170448.400,4305.1464,N,07740.8044,W,2,10,0.79,158.6,M,-34.4,M,0000,0000*55
lng=-77.680068, lat=43.085773, altitude=158.70, speed=0.01, satellites=10, angle=30.1000, fixquality=2
$GPRMC,170448.600,A,4305.1465,N,07740.8044,W,0.01,207.67,140319,,,D*72
$GPGGA,170448.800,4305.1465,N,07740.8044,W,2,10,0.79,158.6,M,-34.4,M,0000,0000*58
lng=-77.680068, lat=43.085773, altitude=158.60, speed=0.01, satellites=10, angle=207.6700, fixquality=2
$GPRMC,170449.000,A,4305.1465,N,07740.8044,W,0.01,137.70,140319,,,D*73
$GPGGA,170449.200,4305.1465,N,07740.8044,W,2,10,0.79,158.6,M,-34.4,M,0000,0000*53
lng=-77.680068, lat=43.085773, altitude=158.60, speed=0.01, satellites=10, angle=137.7000, fixquality=2
$GPRMC,170449.400,A,4305.1465,N,07740.8044,W,0.00,100.06,140319,,,D*73
$GPGGA,170449.600,4305.1466,N,07740.8044,W,2,10,0.79,158.6,M,-34.4,M,0000,0000*54
lng=-77.680068, lat=43.085773, altitude=158.60, speed=0.00, satellites=10, angle=100.0600, fixquality=2
$GPRMC,170449.800,A,4305.1466,N,07740.8044,W,0.01,188.81,140319,,,D*72
$GPGGA,170450.000,4305.1466,N,07740.8045,W,2,10,0.79,158.6,M,-34.4,M,0000,0000*5B
lng=-77.680068, lat=43.085773, altitude=158.60, speed=0.01, satellites=10, angle=188.8100, fixquality=2
$GPRMC,170450.200,A,4305.1466,N,07740.8045,W,0.00,103.81,140319,,,D*73
$GPGGA,170450.400,4305.1466,N,07740.8045,W,2,10,0.79,158.6,M,-34.4,M,0000,0000*5F
lng=-77.680076, lat=43.085773, altitude=158.60, speed=0.00, satellites=10, angle=103.8100, fixquality=2
$GPRMC,170450.600,A,4305.1466,N,07740.8045,W,0.01,282.77,140319,,,D*75
$GPGGA,170450.800,4305.1466,N,07740.8045,W,2,10,0.79,158.5,M,-34.4,M,0000,0000*50
lng=-77.680076, lat=43.085773, altitude=158.60, speed=0.01, satellites=10, angle=282.7700, fixquality=2
$GPRMC,170451.000,A,4305.1466,N,07740.8046,W,0.00,75.46,140319,,,D*48
$GPGGA,170451.200,4305.1466,N,07740.8046,W,2,10,0.79,158.5,M,-34.4,M,0000,0000*58
lng=-77.680076, lat=43.085773, altitude=158.50, speed=0.00, satellites=10, angle=75.4600, fixquality=2
$GPRMC,170451.400,A,4305.1466,N,07740.8046,W,0.00,0.00,140319,,,D*7C
$GPGGA,170451.600,4305.1467,N,07740.8046,W,2,10,0.79,158.5,M,-34.4,M,0000,0000*5D
lng=-77.680076, lat=43.085773, altitude=158.50, speed=0.00, satellites=10, angle=0.0000, fixquality=2
$GPRMC,170451.800,A,4305.1467,N,07740.8046,W,0.00,279.50,140319,,,D*78
$GPGGA,170452.000,4305.1467,N,07740.8046,W,2,10,0.79,158.5,M,-34.4,M,0000,0000*58
lng=-77.680076, lat=43.085773, altitude=158.50, speed=0.00, satellites=10, angle=279.5000, fixquality=2
$GPRMC,170452.200,A,4305.1467,N,07740.8046,W,0.01,327.81,140319,,,D*76
$GPGGA,170452.400,4305.1467,N,07740.8047,W,2,10,0.79,158.5,M,-34.4,M,0000,0000*5D
lng=-77.680076, lat=43.085773, altitude=158.50, speed=0.01, satellites=10, angle=327.8100, fixquality=2
$GPRMC,170452.600,A,4305.1467,N,07740.8047,W,0.00,183.50,140319,,,D*72
$GPGGA,170452.800,4305.1467,N,07740.8047,W,2,10,0.79,158.5,M,-34.4,M,0000,0000*51
lng=-77.680076, lat=43.085773, altitude=158.50, speed=0.00, satellites=10, angle=183.5000, fixquality=2
$GPRMC,170453.000,A,4305.1467,N,07740.8047,W,0.01,154.31,140319,,,D*79
$GPGGA,170453.200,4305.1468,N,07740.8047,W,2,10,0.79,158.5,M,-34.4,M,0000,0000*55
lng=-77.680076, lat=43.085773, altitude=158.50, speed=0.01, satellites=10, angle=154.3100, fixquality=2
$GPRMC,170453.400,A,4305.1468,N,07740.8047,W,0.00,194.77,140319,,,D*7D
$GPGGA,170453.600,4305.1468,N,07740.8047,W,2,10,0.79,158.5,M,-34.4,M,0000,0000*51
lng=-77.680076, lat=43.085781, altitude=158.50, speed=0.00, satellites=10, angle=194.7700, fixquality=2
$GPRMC,170453.800,A,4305.1468,N,07740.8048,W,0.01,107.24,140319,,,D*73
$GPGGA,170454.000,4305.1468,N,07740.8048,W,2,10,0.79,158.5,M,-34.4,M,0000,0000*5F
lng=-77.680076, lat=43.085781, altitude=158.50, speed=0.01, satellites=10, angle=107.2400, fixquality=2
$GPRMC,170454.200,A,4305.1468,N,07740.8048,W,0.01,308.71,140319,,,D*73
$GPGGA,170454.400,4305.1469,N,07740.8048,W,2,10,0.79,158.5,M,-34.4,M,0000,0000*5A
lng=-77.680076, lat=43.085781, altitude=158.50, speed=0.01, satellites=10, angle=308.7100, fixquality=2
$GPRMC,170454.600,A,4305.1469,N,07740.8048,W,0.00,317.13,140319,,,D*7D
$GPGGA,170454.800,4305.1469,N,07740.8048,W,2,10,0.79,158.5,M,-34.4,M,0000,0000*56
lng=-77.680076, lat=43.085781, altitude=158.50, speed=0.00, satellites=10, angle=317.1300, fixquality=2
$GPRMC,170455.000,A,4305.1469,N,07740.8048,W,0.01,334.18,140319,,,D*71
$GPGGA,170455.200,4305.1469,N,07740.8048,W,2,10,0.79,158.5,M,-34.4,M,0000,0000*5D
lng=-77.680076, lat=43.085781, altitude=158.50, speed=0.01, satellites=10, angle=334.1800, fixquality=2
$GPRMC,170455.400,A,4305.1469,N,07740.8049,W,0.00,118.43,140319,,,D*77
$GPGGA,170455.600,4305.1470,N,07740.8049,W,2,10,0.79,158.5,M,-34.4,M,0000,0000*50
