Vers 57
USE_SERIAL_FEEDBACK=false
DEVELOPMENT_MODE=false
USE_RMC_ONLY=false

$GPGGA,222731.000,4305.1533,N,07740.8308,W,1,09,1.01,161.4,M,-34.4,M,,*5D
$GPRMC,222731.000,A,4305.1533,N,07740.8308,W,0.01,337.86,200319,,,A*7B
lng=-77.680511, lat=43.085887, altitude=161.40, speed=0.06, satellites=9, angle=150.6200, fixquality=1
$GPGGA,222731.200,4305.1533,N,07740.8308,W,1,09,1.01,161.5,M,-34.4,M,,*5E
$GPRMC,222731.200,A,4305.1533,N,07740.8308,W,0.02,344.51,200319,,,A*74
lng=-77.680511, lat=43.085887, altitude=161.50, speed=0.01, satellites=9, angle=337.8600, fixquality=1
$GPGGA,222731.400,4305.1533,N,07740.8309,W,1,09,1.01,161.6,M,-34.4,M,,*5A
$GPRMC,222731.400,A,4305.1533,N,07740.8309,W,0.02,170.20,200319,,,A*70
lng=-77.680519, lat=43.085887, altitude=161.60, speed=0.02, satellites=9, angle=344.5100, fixquality=1
$GPGGA,222731.600,4305.1533,N,07740.8309,W,1,09,1.01,161.7,M,-34.4,M,,*59
$GPRMC,222731.600,A,4305.1533,N,07740.8309,W,0.02,327.64,200319,,,A*72
lng=-77.680519, lat=43.085887, altitude=161.70, speed=0.02, satellites=9, angle=170.2000, fixquality=1
$GPGGA,222731.800,4305.1532,N,07740.8309,W,1,09,1.02,161.8,M,-34.4,M,,*5A
$GPRMC,222731.800,A,4305.1532,N,07740.8309,W,0.03,170.38,200319,,,A*75
lng=-77.680519, lat=43.085887, altitude=161.80, speed=0.02, satellites=9, angle=327.6400, fixquality=1
$GPGGA,222732.000,4305.1532,N,07740.8309,W,1,09,1.01,161.8,M,-34.4,M,,*52
$GPRMC,222732.000,A,4305.1532,N,07740.8309,W,0.01,142.12,200319,,,A*75
lng=-77.680519, lat=43.085887, altitude=161.80, speed=0.03, satellites=9, angle=170.3800, fixquality=1
$GPGGA,222732.200,4305.1532,N,07740.8309,W,1,09,1.01,161.8,M,-34.4,M,,*50
$GPRMC,222732.200,A,4305.1532,N,07740.8309,W,0.02,351.95,200319,,,A*7B
lng=-77.680519, lat=43.085887, altitude=161.80, speed=0.01, satellites=9, angle=142.1200, fixquality=1
$GPGGA,222732.400,4305.1532,N,07740.8309,W,1,09,1.02,161.8,M,-34.4,M,,*55
$GPRMC,222732.400,A,4305.1532,N,07740.8309,W,0.02,155.08,200319,,,A*7F
lng=-77.680519, lat=43.085887, altitude=161.80, speed=0.02, satellites=9, angle=351.9500, fixquality=1
$GPGGA,222732.600,4305.1532,N,07740.8309,W,1,09,1.01,161.9,M,-34.4,M,,*55
$GPRMC,222732.600,A,4305.1532,N,07740.8309,W,0.01,307.05,200319,,,A*76
lng=-77.680519, lat=43.085887, altitude=161.90, speed=0.02, satellites=9, angle=155.0800, fixquality=1
$GPGGA,222732.800,4305.1532,N,07740.8309,W,1,09,1.01,161.9,M,-34.4,M,,*5B
$GPRMC,222732.800,A,4305.1532,N,07740.8309,W,0.05,154.40,200319,,,A*79
lng=-77.680519, lat=43.085887, altitude=161.90, speed=0.01, satellites=9, angle=307.0500, fixquality=1
$GPGGA,222733.000,4305.1532,N,07740.8309,W,1,09,1.01,161.9,M,-34.4,M,,*52
$GPRMC,222733.000,A,4305.1532,N,07740.8309,W,0.06,161.11,200319,,,A*71
lng=-77.680519, lat=43.085887, altitude=161.90, speed=0.05, satellites=9, angle=154.4000, fixquality=1
$GPGGA,222733.200,4305.1532,N,07740.8309,W,1,09,1.01,161.9,M,-34.4,M,,*50
$GPRMC,222733.200,A,4305.1532,N,07740.8309,W,0.01,191.09,200319,,,A*72
lng=-77.680519, lat=43.085887, altitude=161.90, speed=0.06, satellites=9, angle=161.1100, fixquality=1
$GPGGA,222733.400,4305.1531,N,07740.8309,W,1,09,1.01,162.0,M,-34.4,M,,*5F
$GPRMC,222733.400,A,4305.1531,N,07740.8309,W,0.04,140.36,20031
lng=-77.680519, lat=43.085887, altitude=162.00, speed=0.01, satellites=9, angle=191.0900, fixquality=1
$GPGGA,222733.600,4305.1531,N,07740.8309,W,1,09,1.01,162.1,M,-34.4,M,,*5C
$GPRMC,222733.600,A,4305.1531,N,07740.8309,W,0.02,155.55,200319,,,A*77
lng=-77.680519, lat=43.085887, altitude=162.10, speed=0.04, satellites=9, angle=140.3600, fixquality=1
$GPGGA,222733.800,4305.1531,N,07740.8308,W,1,09,1.01,162.1,M,-34.4,M,,*53
$GPRMC,222733.800,A,4305.1531,N,07740.8308,W,0.01,67.55,200319
lng=-77.680511, lat=43.085887, altitude=162.10, speed=0.02, satellites=9, angle=155.5500, fixquality=1
$GPGGA,222734.000,4305.1530,N,07740.8308,W,1,09,1.01,162.1,M,-34.4,M,,*5D
$GPRMC,222734.000,A,4305.1530,N,07740.8308,W,0.01,212.04,200319,,,A*71
lng=-77.680511, lat=43.085880, altitude=162.10, speed=0.01, satellites=9, angle=67.5500, fixquality=1
$GPGGA,222734.200,4305.1530,N,07740.8308,W,1,09,1.01,162.2,M,-34.4,M,,*5C
$GPRMC,222734.200,A,4305.1530,N,07740.8308,W,0.01,64.94,200319,
lng=-77.680511, lat=43.085880, altitude=162.20, speed=0.01, satellites=9, angle=212.0400, fixquality=1
$GPGGA,222734.400,4305.1530,N,07740.8308,W,1,09,1.01,162.2,M,-34.4,M,,*5A
$GPRMC,222734.400,A,4305.1530,N,07740.8308,W,0.00,297.88,200319,,,A*7D
lng=-77.680511, lat=43.085880, altitude=162.20, speed=0.01, satellites=9, angle=64.9400, fixquality=1
$GPGGA,222734.600,4305.1530,N,07740.8308,W,1,09,1.01,162.2,M,-34.4,M,,*58
$GPRMC,222734.600,A,4305.1530,N,07740.8308,W,0.02,177.48,200319,,,A*7C
lng=-77.680511, lat=43.085880, altitude=162.20, speed=0.00, satellites=9, angle=297.8800, fixquality=1
$GPGGA,222734.800,4305.1529,N,07740.8308,W,1,09,1.01,162.3,M,-34.4,M,,*5F
$GPRMC,222734.800,A,4305.1529,N,07740.8308,W,0.01,209.10,200319,,,A*7E
lng=-77.680511, lat=43.085880, altitude=162.30, speed=0.02, satellites=9, angle=177.4800, fixquality=1
$GPGGA,222735.000,4305.1529,N,07740.8307,W,1,09,1.01,162.3,M,-34.4,M,,*59
$GPRMC,222735.000,A,4305.1529,N,07740.8307,W,0.02,340.50,200319,,,A*73
lng=-77.680511, lat=43.085880, altitude=162.30, speed=0.01, satellites=9, angle=209.1000, fixquality=1
$GPGGA,222735.200,4305.1529,N,07740.8307,W,1,09,1.01,162.4,M,-34.4,M,,*5C
$GPRMC,222735.200,A,4305.1529,N,07740.8307,W,0.02,135.97,200319,,,A*7A
lng=-77.680511, lat=43.085880, altitude=162.40, speed=0.02, satellites=9, angle=340.5000, fixquality=1
$GPGGA,222735.400,4305.1528,N,07740.8307,W,1,09,1.01,162.4,M,-34.4,M,,*5B
$GPRMC,222735.400,A,4305.1528,N,07740.8307,W,0.01,244.14,200319,,,A*70
lng=-77.680511, lat=43.085880, altitude=162.40, speed=0.02, satellites=9, angle=135.9700, fixquality=1
$GPGGA,222735.600,4305.1528,N,07740.8307,W,1,09,1.01,162.5,M,-34.4,M,,*58
$GPRMC,222735.600,A,4305.1528,N,07740.8307,W,0.01,115.46,200319,,,A*72
lng=-77.680511, lat=43.085880, altitude=162.50, speed=0.01, satellites=9, angle=244.1400, fixquality=1
$GPGGA,222735.800,4305.1528,N,07740.8306,W,1,09,1.01,162.5,M,-34.4,M,,*57
$GPRMC,222735.800,A,4305.1528,N,07740.8306,W,0.01,333.38,200319,,,A*72
lng=-77.680511, lat=43.085880, altitude=162.50, speed=0.01, satellites=9, angle=115.4600, fixquality=1
$GPGGA,222736.000,4305.1528,N,07740.8306,W,1,09,1.01,162.6,M,-34.4,M,,*5F
$GPRMC,222736.000,A,4305.1528,N,07740.8306,W,0.01,343.62,200319,,,A*71
lng=-77.680511, lat=43.085880, altitude=162.60, speed=0.01, satellites=9, angle=333.3800, fixquality=1
$GPGGA,222736.200,4305.1527,N,07740.8306,W,1,09,1.01,162.6,M,-34.4,M,,*52
$GPRMC,222736.200,A,4305.1527,N,07740.8306,W,0.01,141.56,200319,,,A*7B
lng=-77.680511, lat=43.085880, altitude=162.60, speed=0.01, satellites=9, angle=343.6200, fixquality=1
$GPGGA,222736.400,4305.1527,N,07740.8306,W,1,09,1.01,162.7,M,-34.4,M,,*55
$GPRMC,222736.400,A,4305.1527,N,07740.8306,W,0.01,259.21,200319,,,A*77
lng=-77.680511, lat=43.085880, altitude=162.70, speed=0.01, satellites=9, angle=141.5600, fixquality=1
$GPGGA,222736.600,4305.1527,N,07740.8305,W,1,09,1.01,162.7,M,-34.4,M,,*54
$GPRMC,222736.600,A,4305.1527,N,07740.8305,W,0.01,136.02,200319,,,A*7D
lng=-77.680511, lat=43.085880, altitude=162.70, speed=0.01, satellites=9, angle=259.2100, fixquality=1
$GPGGA,222736.800,4305.1527,N,07740.8305,W,1,09,1.01,162.7,M,-34.4,M,,*5A
$GPRMC,222736.800,A,4305.1527,N,07740.8305,W,0.01,261.99,200319,,,A*70
lng=-77.680511, lat=43.085880, altitude=162.70, speed=0.01, satellites=9, angle=136.0200, fixquality=1
$GPGGA,222737.000,4305.1526,N,07740.8305,W,1,09,1.01,162.8,M,-34.4,M,,*5D
$GPRMC,222737.000,A,4305.1526,N,07740.8305,W,0.01,270.87,200319,,,A*77
lng=-77.680511, lat=43.085880, altitude=162.80, speed=0.01, satellites=9, angle=261.9900, fixquality=1
$GPGGA,222737.200,4305.1526,N,07740.8305,W,1,09,1.01,162.8,M,-34.4,M,,*5F
$GPRMC,222737.200,A,4305.1526,N,07740.8305,W,0.00,206.92,200319,,,A*71
lng=-77.680511, lat=43.085880, altitude=162.80, speed=0.01, satellites=9, angle=270.8700, fixquality=1
$GPGGA,222737.400,4305.1526,N,07740.8304,W,1,09,1.01,162.9,M,-34.4,M,,*59
$GPRMC,222737.400,A,4305.1526,N,07740.8304,W,0.01,72.60,200319,,,A*4B
lng=-77.680511, lat=43.085880, altitude=162.90, speed=0.00, satellites=9, angle=206.9200, fixquality=1
$GPGGA,222737.600,4305.1526,N,07740.8304,W,1,09,1.01,163.0,M,-34.4,M,,*53
$GPRMC,222737.600,A,4305.1526,N,07740.8304,W,0.00,203.46,200319,,,A*78
lng=-77.680511, lat=43.085880, altitude=163.00, speed=0.01, satellites=9, angle=72.6000, fixquality=1
$GPGGA,222737.800,4305.1526,N,07740.8304,W,1,09,1.01,163.0,M,-34.4,M,,*5D
$GPRMC,222737.800,A,4305.1526,N,07740.8304,W,0.00,271.22,200319,,,A*71
lng=-77.680511, lat=43.085880, altitude=163.00, speed=0.00, satellites=9, angle=203.4600, fixquality=1
$GPGGA,222738.000,4305.1525,N,07740.8304,W,1,09,1.01,163.0,M,-34.4,M,,*59
$GPRMC,222738.000,A,4305.1525,N,07740.8304,W,0.01,50.15,200319,,,A*41
lng=-77.680511, lat=43.085872, altitude=163.00, speed=0.00, satellites=9, angle=271.2200, fixquality=1
$GPGGA,222738.200,4305.1525,N,07740.8303,W,1,09,1.01,163.0,M,-34.4,M,,*5C
$GPRMC,222738.200,A,4305.1525,N,07740.8303,W,0.01,150.05,200319,,,A*74
lng=-77.680503, lat=43.085872, altitude=163.00, speed=0.01, satellites=9, angle=50.1500, fixquality=1
$GPGGA,222738.400,4305.1525,N,07740.8303,W,1,09,1.01,163.1,M,-34.4,M,,*5B
$GPRMC,222738.400,A,4305.1525,N,07740.8303,W,0.03,196.97,200319,,,A*71
lng=-77.680503, lat=43.085872, altitude=163.10, speed=0.01, satellites=9, angle=150.0500, fixquality=1
$GPGGA,222738.600,4305.1524,N,07740.8303,W,1,09,1.01,163.1,M,-34.4,M,,*58
$GPRMC,222738.600,A,4305.1524,N,07740.8303,W,0.02,256.50,200319,,,A*77
lng=-77.680503, lat=43.085872, altitude=163.10, speed=0.03, satellites=9, angle=196.9700, fixquality=1
$GPGGA,222738.800,4305.1524,N,07740.8303,W,1,09,1.01,163.1,M,-34.4,M,,*56
$GPRMC,222738.800,A,4305.1524,N,07740.8303,W,0.02,318.89,200319
lng=-77.680503, lat=43.085872, altitude=163.10, speed=0.02, satellites=9, angle=256.5000, fixquality=1
$GPGGA,222739.000,4305.1524,N,07740.8302,W,1,09,1.01,163.1,M,-34.4,M,,*5E
$GPRMC,222739.000,A,4305.1524,N,07740.8302,W,0.01,62.22,200319,,,A*42
lng=-77.680503, lat=43.085872, altitude=163.10, speed=0.02, satellites=9, angle=318.8900, fixquality=1
$GPGGA,222739.200,4305.1524,N,07740.8302,W,1,09,1.01,163.1,M,-34.4,M,,*5C
$GPRMC,222739.200,A,4305.1524,N,07740.8302,W,0.06,14.71,200319,
lng=-77.680503, lat=43.085872, altitude=163.10, speed=0.01, satellites=9, angle=62.2200, fixquality=1
$GPGGA,222739.400,4305.1524,N,07740.8302,W,1,09,1.02,163.1,M,-34.4,M,,*59
$GPRMC,222739.400,A,4305.1524,N,07740.8302,W,0.07,294.10,200319,,,A*7A
lng=-77.680503, lat=43.085872, altitude=163.10, speed=0.06, satellites=9, angle=14.7100, fixquality=1
$GPGGA,222739.600,4305.1524,N,07740.8302,W,1,09,1.01,163.0,M,-34.4,M,,*59
$GPRMC,222739.600,A,4305.1524,N,07740.8302,W,0.05,333.88,2003197
lng=-77.680503, lat=43.085872, altitude=163.00, speed=0.07, satellites=9, angle=294.1000, fixquality=1
$GPGGA,222739.800,4305.1524,N,07740.8302,W,1,09,1.01,163.0,M,-34.4,M,,*57
$GPRMC,222739.800,A,4305.1524,N,07740.8302,W,0.03,341.05,200319,,,A*7F
lng=-77.680503, lat=43.085872, altitude=163.00, speed=0.05, satellites=9, angle=333.8800, fixquality=1
$GPGGA,222740.000,4305.1524,N,07740.8302,W,1,09,1.01,163.0,M,-34.4,M,,*51
$GPRMC,222740.000,A,4305.1524,N,07740.8302,W,0.03,299.76,200319,,,A*79
lng=-77.680503, lat=43.085872, altitude=163.00, speed=0.03, satellites=9, angle=341.0500, fixquality=1
$GPGGA,222740.200,4305.1524,N,07740.8302,W,1,09,1.01,163.0,M,-34.4,M,,*53
$GPRMC,222740.200,A,4305.1524,N,07740.8302,W,0.02,332.77,200319,,,A*7B
lng=-77.680503, lat=43.085872, altitude=163.00, speed=0.03, satellites=9, angle=299.7600, fixquality=1
$GPGGA,222740.400,4305.1524,N,07740.8302,W,1,09,1.01,163.0,M,-34.4,M,,*55
$GPRMC,222740.400,A,4305.1524,N,07740.8302,W,0.02,310.32,200319,,,A*7C
lng=-77.680503, lat=43.085872, altitude=163.00, speed=0.02, satellites=9, angle=332.7700, fixquality=1
$GPGGA,222740.600,4305.1524,N,07740.8302,W,1,09,1.01,163.0,M,-34.4,M,,*57
$GPRMC,222740.600,A,4305.1524,N,07740.8302,W,0.01,264.33,200319,,,A*7E
lng=-77.680503, lat=43.085872, altitude=163.00, speed=0.02, satellites=9, angle=310.3200, fixquality=1
$GPGGA,222740.800,4305.1524,N,07740.8302,W,1,09,1.01,163.0,M,-34.4,M,,*59
$GPRMC,222740.800,A,4305.1524,N,07740.8302,W,0.02,324.06,200319,,,A*70
lng=-77.680503, lat=43.085872, altitude=163.00, speed=0.01, satellites=9, angle=264.3300, fixquality=1
$GPGGA,222741.000,4305.1524,N,07740.8302,W,1,09,1.01,162.9,M,-34.4,M,,*58
$GPRMC,222741.000,A,4305.1524,N,07740.8302,W,0.04,167.15,200319,,,A*78
lng=-77.680503, lat=43.085872, altitude=162.90, speed=0.02, satellites=9, angle=324.0600, fixquality=1
$GPGGA,222741.200,4305.1524,N,07740.8302,W,1,09,1.01,162.9,M,-34.4,M,,*5A
$GPRMC,222741.200,A,4305.1524,N,07740.8302,W,0.02,121.74,200319,,,A*79
lng=-77.680503, lat=43.085872, altitude=162.90, speed=0.04, satellites=9, angle=167.1500, fixquality=1
$GPGGA,222741.400,4305.1524,N,07740.8302,W,1,09,1.01,162.9,M,-34.4,M,,*5C
$GPRMC,222741.400,A,4305.1524,N,07740.8302,W,0.03,143.94,200319,,,A*74
lng=-77.680503, lat=43.085872, altitude=162.90, speed=0.02, satellites=9, angle=121.7400, fixquality=1
$GPGGA,222741.600,4305.1524,N,07740.8302,W,1,09,1.01,162.9,M,-34.4,M,,*5E
$GPRMC,222741.600,A,4305.1524,N,07740.8302,W,0.01,211.62,200319,,,A*79
lng=-77.680503, lat=43.085872, altitude=162.90, speed=0.03, satellites=9, angle=143.9400, fixquality=1
$GPGGA,222741.800,4305.1524,N,07740.8302,W,1,09,1.01,162.8,M,-34.4,M,,*51
$GPRMC,222741.800,A,4305.1524,N,07740.8302,W,0.02,26.30,200319,,,A*45
lng=-77.680503, lat=43.085872, altitude=162.80, speed=0.01, satellites=9, angle=211.6200, fixquality=1
$GPGGA,222742.000,4305.1524,N,07740.8302,W,1,09,1.01,162.8,M,-34.4,M,,*5A
$GPRMC,222742.000,A,4305.1524,N,07740.8302,W,0.01,215.30,200319,,,A*7F
lng=-77.680503, lat=43.085872, altitude=162.80, speed=0.02, satellites=9, angle=26.3000, fixquality=1
$GPGGA,222742.200,4305.1524,N,07740.8302,W,1,09,1.01,162.8,M,-34.4,M,,*58
$GPRMC,222742.200,A,4305.1524,N,07740.8302,W,0.04,165.87,200319,,,A*70
lng=-77.680503, lat=43.085872, altitude=162.80, speed=0.01, satellites=9, angle=215.3000, fixquality=1
$GPGGA,222742.400,4305.1524,N,07740.8302,W,1,09,1.01,162.7,M,-34.4,M,,*51
$GPRMC,222742.400,A,4305.1524,N,07740.8302,W,0.02,166.07,200319,,,A*7B
lng=-77.680503, lat=43.085872, altitude=162.70, speed=0.04, satellites=9, angle=165.8700, fixquality=1
$GPGGA,222742.600,4305.1524,N,07740.8301,W,1,09,1.01,162.7,M,-34.4,M,,*50
$GPRMC,222742.600,A,4305.1524,N,07740.8301,W,0.00,49.60,200319,,,A*45
lng=-77.680503, lat=43.085872, altitude=162.70, speed=0.02, satellites=9, angle=166.0700, fixquality=1
$GPGGA,222742.800,4305.1524,N,07740.8301,W,1,09,1.01,162.7,M,-34.4,M,,*5E
$GPRMC,222742.800,A,4305.1524,N,07740.8301,W,0.02,281.48,200319,,,A*75
lng=-77.680503, lat=43.085872, altitude=162.70, speed=0.00, satellites=9, angle=49.6000, fixquality=1
$GPGGA,222743.000,4305.1524,N,07740.8301,W,1,09,1.01,162.6,M,-34.4,M,,*56
$GPRMC,222743.000,A,4305.1524,N,07740.8301,W,0.00,269.87,200319,,,A*7B
lng=-77.680503, lat=43.085872, altitude=162.60, speed=0.02, satellites=9, angle=281.4800, fixquality=1
$GPGGA,222743.200,4305.1524,N,07740.8301,W,1,09,1.01,162.6,M,-34.4,M,,*54
$GPRMC,222743.200,A,4305.1524,N,07740.8301,W,0.02,177.75,200319,,,A*7A
lng=-77.680503, lat=43.085872, altitude=162.60, speed=0.00, satellites=9, angle=269.8700, fixquality=1
$GPGGA,222743.400,4305.1524,N,07740.8301,W,1,09,1.01,162.5,M,-34.4,M,,*51
$GPRMC,222743.400,A,4305.1524,N,07740.8301,W,0.02,47.10,200319,,,A*4D
lng=-77.680503, lat=43.085872, altitude=162.50, speed=0.02, satellites=9, angle=177.7500, fixquality=1
$GPGGA,222743.600,4305.1524,N,07740.8301,W,1,09,1.01,162.4,M,-34.4,M,,*52
$GPRMC,222743.600,A,4305.1524,N,07740.8301,W,0.03,180.03,200319,,,A*76
lng=-77.680503, lat=43.085872, altitude=162.40, speed=0.02, satellites=9, angle=47.1000, fixquality=1
$GPGGA,222743.800,4305.1524,N,07740.8301,W,1,09,1.01,162.4,M,-34.4,M,,*5C
$GPRMC,222743.800,A,4305.1524,N,07740.8301,W,0.03,239.62,200319,,,A*7E
lng=-77.680503, lat=43.085872, altitude=162.40, speed=0.03, satellites=9, angle=180.0300, fixquality=1
$GPGGA,222744.000,4305.1524,N,07740.8301,W,1,09,1.01,162.3,M,-34.4,M,,*54
$GPRMC,222744.000,A,4305.1524,N,07740.8301,W,0.02,15.71,200319,,,A*4E
lng=-77.680503, lat=43.085872, altitude=162.30, speed=0.03, satellites=9, angle=239.6200, fixquality=1
$GPGGA,222744.200,4305.1524,N,07740.8301,W,1,09,1.01,162.3,M,-34.4,M,,*56
$GPRMC,222744.200,A,4305.1524,N,07740.8301,W,0.02,198.38,200319,,,A*75
lng=-77.680503, lat=43.085872, altitude=162.30, speed=0.02, satellites=9, angle=15.7100, fixquality=1
$GPGGA,222744.400,4305.1524,N,07740.8301,W,1,09,1.01,162.2,M,-34.4,M,,*51
$GPRMC,222744.400,A,4305.1524,N,07740.8301,W,0.01,279.81,200319,,,A*7E
lng=-77.680503, lat=43.085872, altitude=162.20, speed=0.02, satellites=9, angle=198.3800, fixquality=1
$GPGGA,222744.600,4305.1524,N,07740.8301,W,1,09,1.01,162.2,M,-34.4,M,,*53
$GPRMC,222744.600,A,4305.1524,N,07740.8301,W,0.02,99.90,200319,
lng=-77.680503, lat=43.085872, altitude=162.20, speed=0.01, satellites=9, angle=279.8100, fixquality=1
$GPGGA,222744.800,4305.1524,N,07740.8301,W,1,09,1.01,162.2,M,-34.4,M,,*5D
$GPRMC,222744.800,A,4305.1524,N,07740.8301,W,0.01,255.99,200319,,,A*75
lng=-77.680503, lat=43.085872, altitude=162.20, speed=0.02, satellites=9, angle=99.9000, fixquality=1
$GPGGA,222745.000,4305.1524,N,07740.8301,W,1,09,1.01,162.1,M,-34.4,M,,*57
$GPRMC,222745.000,A,4305.1524,N,07740.8301,W,0.02,338.07,2003192
lng=-77.680503, lat=43.085872, altitude=162.10, speed=0.01, satellites=9, angle=255.9900, fixquality=1
$GPGGA,222745.200,4305.1524,N,07740.8301,W,1,09,1.01,162.1,M,-34.4,M,,*55
$GPRMC,222745.200,A,4305.1524,N,07740.8301,W,0.02,4.76,200319,,,A*7A
lng=-77.680503, lat=43.085872, altitude=162.10, speed=0.02, satellites=9, angle=338.0700, fixquality=1
$GPGGA,222745.400,4305.1524,N,07740.8301,W,1,09,1.02,162.0,M,-34.4,M,,*51
$GPRMC,222745.400,A,4305.1524,N,07740.8301,W,0.01,182.58,200319
lng=-77.680503, lat=43.085872, altitude=162.00, speed=0.02, satellites=9, angle=4.7600, fixquality=1
$GPGGA,222745.600,4305.1524,N,07740.8301,W,1,09,1.01,162.0,M,-34.4,M,,*50
$GPRMC,222745.600,A,4305.1524,N,07740.8301,W,0.02,227.15,200319,,,A*78
lng=-77.680503, lat=43.085872, altitude=162.00, speed=0.01, satellites=9, angle=182.5800, fixquality=1
$GPGGA,222745.800,4305.1524,N,07740.8301,W,1,09,1.01,161.9,M,-34.4,M,,*54
$GPRMC,222745.800,A,4305.1524,N,07740.8301,W,0.02,0.12,200319,,,A*76
lng=-77.680503, lat=43.085872, altitude=161.90, speed=0.02, satellites=9, angle=227.1500, fixquality=1
$GPGGA,222746.000,4305.1524,N,07740.8301,W,1,09,1.02,161.9,M,-34.4,M,,*5C
$GPRMC,222746.000,A,4305.1524,N,07740.8301,W,0.02,28.33,200319,,,A*44
lng=-77.680503, lat=43.085872, altitude=161.90, speed=0.02, satellites=9, angle=0.1200, fixquality=1
$GPGGA,222746.200,4305.1525,N,07740.8301,W,1,09,1.01,161.9,M,-34.4,M,,*5C
$GPRMC,222746.200,A,4305.1525,N,07740.8301,W,0.04,217.84,200319,,,A*73
lng=-77.680503, lat=43.085872, altitude=161.90, speed=0.02, satellites=9, angle=28.3300, fixquality=1
$GPGGA,222746.400,4305.1525,N,07740.8301,W,1,09,1.01,161.8,M,-34.4,M,,*5B
$GPRMC,222746.400,A,4305.1525,N,07740.8301,W,0.01,51.21,200319,,,A*4F
lng=-77.680503, lat=43.085872, altitude=161.80, speed=0.04, satellites=9, angle=217.8400, fixquality=1
$GPGGA,222746.600,4305.1525,N,07740.8301,W,1,09,1.01,161.7,M,-34.4,M,,*56
$GPRMC,222746.600,A,4305.1525,N,07740.8301,W,0.01,136.24,200319,,,A*78
lng=-77.680503, lat=43.085872, altitude=161.70, speed=0.01, satellites=9, angle=51.2100, fixquality=1
$GPGGA,222746.800,4305.1525,N,07740.8301,W,1,09,1.01,161.5,M,-34.4,M,,*5A
$GPRMC,222746.800,A,4305.1525,N,07740.8301,W,0.02,261.46,200319,,,A*70
lng=-77.680503, lat=43.085872, altitude=161.50, speed=0.01, satellites=9, angle=136.2400, fixquality=1
$GPGGA,222747.000,4305.1525,N,07740.8301,W,1,09,1.01,161.4,M,-34.4,M,,*52
$GPRMC,222747.000,A,4305.1525,N,07740.8301,W,0.02,132.01,200319,,,A*7F
lng=-77.680503, lat=43.085872, altitude=161.40, speed=0.02, satellites=9, angle=261.4600, fixquality=1
$GPGGA,222747.200,4305.1526,N,07740.8302,W,1,09,1.01,161.3,M,-34.4,M,,*57
$GPRMC,222747.200,A,4305.1526,N,07740.8302,W,0.00,90.77,200319,,,A*47
lng=-77.680503, lat=43.085880, altitude=161.30, speed=0.02, satellites=9, angle=132.0100, fixquality=1
$GPGGA,222747.400,4305.1526,N,07740.8302,W,1,08,1.22,161.1,M,-34.4,M,,*53
$GPRMC,222747.400,A,4305.1526,N,07740.8302,W,0.01,359.15,200319,,,A*72
lng=-77.680503, lat=43.085880, altitude=161.10, speed=0.00, satellites=8, angle=90.7700, fixquality=1
$GPGGA,222747.600,4305.1526,N,07740.8302,W,1,09,1.02,161.0,M,-34.4,M,,*53
$GPRMC,222747.600,A,4305.1526,N,07740.8302,W,0.03,281.04,200319,,,A*76
lng=-77.680503, lat=43.085880, altitude=161.00, speed=0.01, satellites=9, angle=359.1500, fixquality=1
$GPGGA,222747.800,4305.1526,N,07740.8302,W,1,09,1.01,160.9,M,-34.4,M,,*56
$GPRMC,222747.800,A,4305.1526,N,07740.8302,W,0.02,228.51,200319,,,A*7A
lng=-77.680503, lat=43.085880, altitude=160.90, speed=0.03, satellites=9, angle=281.0400, fixquality=1
$GPGGA,222748.000,4305.1526,N,07740.8302,W,1,09,1.01,160.9,M,-34.4,M,,*51
$GPRMC,222748.000,A,4305.1526,N,07740.8302,W,0.03,29.41,200319,,,A*4E
lng=-77.680503, lat=43.085880, altitude=160.90, speed=0.02, satellites=9, angle=228.5100, fixquality=1
$GPGGA,222748.200,4305.1526,N,07740.8302,W,1,09,1.01,160.8,M,-34.4,M,,*52
$GPRMC,222748.200,A,4305.1526,N,07740.8302,W,0.01,55.12,200319,,,A*43
lng=-77.680503, lat=43.085880, altitude=160.80, speed=0.03, satellites=9, angle=29.4100, fixquality=1
$GPGGA,222748.400,4305.1527,N,07740.8302,W,1,09,1.01,160.6,M,-34.4,M,,*5B
$GPRMC,222748.400,A,4305.1527,N,07740.8302,W,0.02,286.20,200319,,,A*7A
lng=-77.680503, lat=43.085880, altitude=160.60, speed=0.01, satellites=9, angle=55.1200, fixquality=1
$GPGGA,222748.600,4305.1527,N,07740.8302,W,1,09,1.01,160.6,M,-34.4,M,,*59
$GPRMC,222748.600,A,4305.1527,N,07740.8302,W,0.04,17.28,200319,,,A*4C
lng=-77.680503, lat=43.085880, altitude=160.60, speed=0.02, satellites=9, angle=286.2000, fixquality=1
$GPGGA,222748.800,4305.1527,N,07740.8302,W,1,09,1.01,160.4,M,-34.4,M,,*55
$GPRMC,222748.800,A,4305.1527,N,07740.8302,W,0.05,218.38,200319,,,A*7F
lng=-77.680503, lat=43.085880, altitude=160.40, speed=0.04, satellites=9, angle=17.2800, fixquality=1
$GPGGA,222749.000,4305.1527,N,07740.8303,W,1,09,1.01,160.2,M,-34.4,M,,*5B
$GPRMC,222749.000,A,4305.1527,N,07740.8303,W,0.01,241.16,200319,,,A*73
lng=-77.680503, lat=43.085880, altitude=160.20, speed=0.05, satellites=9, angle=218.3800, fixquality=1
$GPGGA,222749.200,4305.1527,N,07740.8303,W,1,09,1.01,160.1,M,-34.4,M,,*5A
$GPRMC,222749.200,A,4305.1527,N,07740.8303,W,0.03,4.06,200319,,,A*71
lng=-77.680503, lat=43.085880, altitude=160.10, speed=0.01, satellites=9, angle=241.1600, fixquality=1
$GPGGA,222749.400,4305.1528,N,07740.8303,W,1,09,1.02,160.0,M,-34.4,M,,*51
$GPRMC,222749.400,A,4305.1528,N,07740.8303,W,0.02,129.66,200319,,,A*71
lng=-77.680503, lat=43.085880, altitude=160.00, speed=0.03, satellites=9, angle=4.0600, fixquality=1
$GPGGA,222749.600,4305.1528,N,07740.8303,W,1,09,1.01,159.9,M,-34.4,M,,*53
$GPRMC,222749.600,A,4305.1528,N,07740.8303,W,0.01,56.21,200319
lng=-77.680503, lat=43.085880, altitude=159.90, speed=0.02, satellites=9, angle=129.6600, fixquality=1
$GPGGA,222749.800,4305.1528,N,07740.8303,W,1,09,1.01,159.7,M,-34.4,M,,*53
$GPRMC,222749.800,A,4305.1528,N,07740.8303,W,0.01,354.46,200319,,,A*74
lng=-77.680503, lat=43.085880, altitude=159.70, speed=0.01, satellites=9, angle=56.2100, fixquality=1
$GPGGA,222750.000,4305.1528,N,07740.8303,W,1,09,1.02,159.6,M,-34.4,M,,*51
$GPRMC,222750.000,A,4305.1528,N,07740.8303,W,0.03,286.05,200319F
lng=-77.680503, lat=43.085880, altitude=159.60, speed=0.01, satellites=9, angle=354.4600, fixquality=1
$GPGGA,222750.200,4305.1528,N,07740.8304,W,1,09,1.01,159.6,M,-34.4,M,,*57
$GPRMC,222750.200,A,4305.1528,N,07740.8304,W,0.01,82.36,200319,,,A*4E
lng=-77.680511, lat=43.085880, altitude=159.60, speed=0.03, satellites=9, angle=286.0500, fixquality=1
$GPGGA,222750.400,4305.1528,N,07740.8304,W,1,09,1.01,159.4,M,-34.4,M,,*53
$GPRMC,222750.400,A,4305.1528,N,07740.8304,W,0.01,233.02,2003197
lng=-77.680511, lat=43.085880, altitude=159.40, speed=0.01, satellites=9, angle=82.3600, fixquality=1
$GPGGA,222750.600,4305.1528,N,07740.8304,W,1,09,1.01,159.3,M,-34.4,M,,*56
$GPRMC,222750.600,A,4305.1528,N,07740.8304,W,0.02,84.86,200319,,,A*44
lng=-77.680511, lat=43.085880, altitude=159.30, speed=0.01, satellites=9, angle=233.0200, fixquality=1
$GPGGA,222750.800,4305.1529,N,07740.8304,W,1,09,1.01,159.0,M,-34.4,M,,*5A
$GPRMC,222750.800,A,4305.1529,N,07740.8304,W,0.02,254.56,200319
lng=-77.680511, lat=43.085880, altitude=159.00, speed=0.02, satellites=9, angle=84.8600, fixquality=1
$GPGGA,222751.000,4305.1529,N,07740.8304,W,1,09,1.01,158.9,M,-34.4,M,,*5B
$GPRMC,222751.000,A,4305.1529,N,07740.8304,W,0.02,352.73,200319,,,A*70
lng=-77.680511, lat=43.085880, altitude=158.90, speed=0.02, satellites=9, angle=254.5600, fixquality=1
$GPGGA,222751.200,4305.1529,N,07740.8305,W,1,09,1.02,158.9,M,-34.4,M,,*5B
$GPRMC,222751.200,A,4305.1529,N,07740.8305,W,0.04,323.80,200319,,,A*7F
lng=-77.680511, lat=43.085880, altitude=158.90, speed=0.02, satellites=9, angle=352.7300, fixquality=1
$GPGGA,222751.400,4305.1529,N,07740.8305,W,1,09,1.01,158.8,M,-34.4,M,,*5F
$GPRMC,222751.400,A,4305.1529,N,07740.8305,W,0.02,181.40,200319,,,A*79
lng=-77.680511, lat=43.085880, altitude=158.80, speed=0.04, satellites=9, angle=323.8000, fixquality=1
$GPGGA,222751.600,4305.1529,N,07740.8306,W,1,09,1.01,158.7,M,-34.4,M,,*51
$GPRMC,222751.600,A,4305.1529,N,07740.8306,W,0.01,301.76,200319,,,A*74
lng=-77.680511, lat=43.085880, altitude=158.70, speed=0.02, satellites=9, angle=181.4000, fixquality=1
$GPGGA,222751.800,4305.1529,N,07740.8305,W,1,09,1.01,158.5,M,-34.4,M,,*5E
$GPRMC,222751.800,A,4305.1529,N,07740.8305,W,0.02,168.22,200319,,,A*76
lng=-77.680511, lat=43.085880, altitude=158.50, speed=0.01, satellites=9, angle=301.7600, fixquality=1
$GPGGA,222752.000,4305.1529,N,07740.8306,W,1,09,1.01,158.4,M,-34.4,M,,*57
$GPRMC,222752.000,A,4305.1529,N,07740.8306,W,0.02,179.73,200319,,,A*7A
lng=-77.680511, lat=43.085880, altitude=158.40, speed=0.02, satellites=9, angle=168.2200, fixquality=1
$GPGGA,222752.200,4305.1529,N,07740.8306,W,1,09,1.01,158.2,M,-34.4,M,,*53
$GPRMC,222752.200,A,4305.1529,N,07740.8306,W,0.02,89.54,200319,,,A*43
lng=-77.680511, lat=43.085880, altitude=158.20, speed=0.02, satellites=9, angle=179.7300, fixquality=1
$GPGGA,222752.400,4305.1529,N,07740.8306,W,1,09,1.01,158.1,M,-34.4,M,,*56
$GPRMC,222752.400,A,4305.1529,N,07740.8306,W,0.04,255.13,200319,,,A*73
lng=-77.680511, lat=43.085880, altitude=158.10, speed=0.02, satellites=9, angle=89.5400, fixquality=1
$GPGGA,222752.600,4305.1530,N,07740.8306,W,1,09,1.01,157.9,M,-34.4,M,,*5B
$GPRMC,222752.600,A,4305.1530,N,07740.8306,W,0.01,89.03,200319,,,A*4E
lng=-77.680511, lat=43.085880, altitude=157.90, speed=0.04, satellites=9, angle=255.1300, fixquality=1
$GPGGA,222752.800,4305.1530,N,07740.8307,W,1,09,1.01,157.8,M,-34.4,M,,*55
$GPRMC,222752.800,A,4305.1530,N,07740.8307,W,0.01,76.52,200319,,,A*45
lng=-77.680511, lat=43.085880, altitude=157.80, speed=0.01, satellites=9, angle=89.0300, fixquality=1
$GPGGA,222753.000,4305.1530,N,07740.8307,W,1,09,1.01,157.7,M,-34.4,M,,*53
$GPRMC,222753.000,A,4305.1530,N,07740.8307,W,0.01,221.46,200319,,,A*79
lng=-77.680511, lat=43.085880, altitude=157.70, speed=0.01, satellites=9, angle=76.5200, fixquality=1
$GPGGA,222753.200,4305.1530,N,07740.8307,W,1,09,1.01,157.6,M,-34.4,M,,*50
$GPRMC,222753.200,A,4305.1530,N,07740.8307,W,0.01,155.91,200319,,,A*71
lng=-77.680511, lat=43.085880, altitude=157.60, speed=0.01, satellites=9, angle=221.4600, fixquality=1
$GPGGA,222753.400,4305.1530,N,07740.8307,W,1,09,1.01,157.5,M,-34.4,M,,*55
$GPRMC,222753.400,A,4305.1530,N,07740.8307,W,0.01,124.25,200319,,,A*7E
lng=-77.680511, lat=43.085880, altitude=157.50, speed=0.01, satellites=9, angle=155.9100, fixquality=1
$GPGGA,222753.600,4305.1530,N,07740.8308,W,1,09,1.01,157.3,M,-34.4,M,,*5E
$GPRMC,222753.600,A,4305.1530,N,07740.8308,W,0.01,326.09,200319,,,A*7D
lng=-77.680511, lat=43.085880, altitude=157.30, speed=0.01, satellites=9, angle=124.2500, fixquality=1
$GPGGA,222753.800,4305.1531,N,07740.8308,W,1,09,1.01,157.1,M,-34.4,M,,*53
$GPRMC,222753.800,A,4305.1531,N,07740.8308,W,0.02,324.98,200319,,,A*7B
lng=-77.680511, lat=43.085887, altitude=157.10, speed=0.01, satellites=9, angle=326.0900, fixquality=1
$GPGGA,222754.000,4305.1531,N,07740.8309,W,1,09,1.01,157.0,M,-34.4,M,,*5C
$GPRMC,222754.000,A,4305.1531,N,07740.8309,W,0.03,106.93,200319,,,A*7D
lng=-77.680519, lat=43.085887, altitude=157.00, speed=0.02, satellites=9, angle=324.9800, fixquality=1
$GPGGA,222754.200,4305.1531,N,07740.8309,W,1,09,1.01,156.9,M,-34.4,M,,*56
$GPRMC,222754.200,A,4305.1531,N,07740.8309,W,0.01,239.64,200319,,,A*7A
lng=-77.680519, lat=43.085887, altitude=156.90, speed=0.03, satellites=9, angle=106.9300, fixquality=1
$GPGGA,222754.400,4305.1531,N,07740.8309,W,1,09,1.01,156.8,M,-34.4,M,,*51
$GPRMC,222754.400,A,4305.1531,N,07740.8309,W,0.01,335.43,200319,,,A*74
lng=-77.680519, lat=43.085887, altitude=156.80, speed=0.01, satellites=9, angle=239.6400, fixquality=1
$GPGGA,222754.600,4305.1531,N,07740.8309,W,1,09,1.01,156.7,M,-34.4,M,,*5C
$GPRMC,222754.600,A,4305.1531,N,07740.8309,W,0.01,94.52,200319,,,A*4E
lng=-77.680519, lat=43.085887, altitude=156.70, speed=0.01, satellites=9, angle=335.4300, fixquality=1
$GPGGA,222754.800,4305.1531,N,07740.8309,W,1,09,1.01,156.6,M,-34.4,M,,*53
$GPRMC,222754.800,A,4305.1531,N,07740.8309,W,0.02,206.93,200319,,,A*77
lng=-77.680519, lat=43.085887, altitude=156.60, speed=0.01, satellites=9, angle=94.5200, fixquality=1
$GPGGA,222755.000,4305.1531,N,07740.8309,W,1,09,1.01,156.5,M,-34.4,M,,*59
$GPRMC,222755.000,A,4305.1531,N,07740.8309,W,0.01,122.34,20031
lng=-77.680519, lat=43.085887, altitude=156.50, speed=0.02, satellites=9, angle=206.9300, fixquality=1
$GPGGA,222755.200,4305.1531,N,07740.8309,W,1,09,1.01,156.4,M,-34.4,M,,*5A
$GPRMC,222755.200,A,4305.1531,N,07740.8309,W,0.03,246.51,200319,,,A*77
lng=-77.680519, lat=43.085887, altitude=156.40, speed=0.01, satellites=9, angle=122.3400, fixquality=1
$GPGGA,222755.400,4305.1531,N,07740.8310,W,1,09,1.01,156.2,M,-34.4,M,,*52
$GPRMC,222755.400,A,4305.1531,N,07740.8310,W,0.02,14.41,200319
lng=-77.680519, lat=43.085887, altitude=156.20, speed=0.03, satellites=9, angle=246.5100, fixquality=1
$GPGGA,222755.600,4305.1531,N,07740.8310,W,1,09,1.02,156.1,M,-34.4,M,,*50
$GPRMC,222755.600,A,4305.1531,N,07740.8310,W,0.02,162.81,200319,,,A*72
lng=-77.680519, lat=43.085887, altitude=156.10, speed=0.02, satellites=9, angle=14.4100, fixquality=1
$GPGGA,222755.800,4305.1531,N,07740.8310,W,1,09,1.01,156.0,M,-34.4,M,,*5C
$GPRMC,222755.800,A,4305.1531,N,07740.8310,W,0.03,272.28,200319C
lng=-77.680519, lat=43.085887, altitude=156.00, speed=0.02, satellites=9, angle=162.8100, fixquality=1
$GPGGA,222756.000,4305.1531,N,07740.8310,W,1,09,1.01,155.9,M,-34.4,M,,*5D
$GPRMC,222756.000,A,4305.1531,N,07740.8310,W,0.01,76.67,200319,,,A*48
lng=-77.680519, lat=43.085887, altitude=155.90, speed=0.03, satellites=9, angle=272.2800, fixquality=1
$GPGGA,222756.200,4305.1531,N,07740.8311,W,1,09,1.01,155.8,M,-34.4,M,,*5F
$GPRMC,222756.200,A,4305.1531,N,07740.8311,W,0.02,211.49,20031
lng=-77.680519, lat=43.085887, altitude=155.80, speed=0.01, satellites=9, angle=76.6700, fixquality=1
$GPGGA,222756.400,4305.1531,N,07740.8311,W,1,09,1.01,155.8,M,-34.4,M,,*59
$GPRMC,222756.400,A,4305.1531,N,07740.8311,W,0.02,2.10,200319,,,A*7D
lng=-77.680519, lat=43.085887, altitude=155.80, speed=0.02, satellites=9, angle=211.4900, fixquality=1
$GPGGA,222756.600,4305.1531,N,07740.8311,W,1,09,1.02,155.6,M,-34.4,M,,*56
$GPRMC,222756.600,A,4305.1531,N,07740.8311,W,0.01,302.06,200319,,,A*78
lng=-77.680519, lat=43.085887, altitude=155.60, speed=0.02, satellites=9, angle=2.1000, fixquality=1
$GPGGA,222756.800,4305.1532,N,07740.8311,W,1,09,1.01,155.5,M,-34.4,M,,*5B
$GPRMC,222756.800,A,4305.1532,N,07740.8311,W,0.01,257.98,200319,,,A*73
lng=-77.680519, lat=43.085887, altitude=155.50, speed=0.01, satellites=9, angle=302.0600, fixquality=1
$GPGGA,222757.000,4305.1531,N,07740.8311,W,1,09,1.01,155.3,M,-34.4,M,,*57
$GPRMC,222757.000,A,4305.1531,N,07740.8311,W,0.02,189.38,200319,,,A*70
lng=-77.680519, lat=43.085887, altitude=155.30, speed=0.01, satellites=9, angle=257.9800, fixquality=1
$GPGGA,222757.200,4305.1531,N,07740.8311,W,1,09,1.01,155.3,M,-34.4,M,,*55
$GPRMC,222757.200,A,4305.1531,N,07740.8311,W,0.00,73.10,200319,,,A*4E
lng=-77.680519, lat=43.085887, altitude=155.30, speed=0.02, satellites=9, angle=189.3800, fixquality=1
$GPGGA,222757.400,4305.1531,N,07740.8311,W,1,09,1.01,155.2,M,-34.4,M,,*52
$GPRMC,222757.400,A,4305.1531,N,07740.8311,W,0.01,22.75,200319,,,A*4E
lng=-77.680519, lat=43.085887, altitude=155.20, speed=0.00, satellites=9, angle=73.1000, fixquality=1
$GPGGA,222757.600,4305.1531,N,07740.8311,W,1,09,1.01,155.2,M,-34.4,M,,*50
$GPRMC,222757.600,A,4305.1531,N,07740.8311,W,0.02,190.99,200319,,,A*75
lng=-77.680519, lat=43.085887, altitude=155.20, speed=0.01, satellites=9, angle=22.7500, fixquality=1
$GPGGA,222757.800,4305.1532,N,07740.8311,W,1,09,1.01,155.1,M,-34.4,M,,*5E
$GPRMC,222757.800,A,4305.1532,N,07740.8311,W,0.01,33.46,200319,,,A*41
lng=-77.680519, lat=43.085887, altitude=155.10, speed=0.02, satellites=9, angle=190.9900, fixquality=1
$GPGGA,222758.000,4305.1532,N,07740.8311,W,1,09,1.01,155.0,M,-34.4,M,,*58
$GPRMC,222758.000,A,4305.1532,N,07740.8311,W,0.02,240.69,200319,,,A*7E
lng=-77.680519, lat=43.085887, altitude=155.00, speed=0.01, satellites=9, angle=33.4600, fixquality=1
$GPGGA,222758.200,4305.1532,N,07740.8311,W,1,09,1.01,154.9,M,-34.4,M,,*52
$GPRMC,222758.200,A,4305.1532,N,07740.8311,W,0.02,57.09,200319,,,A*4E
lng=-77.680519, lat=43.085887, altitude=154.90, speed=0.02, satellites=9, angle=240.6900, fixquality=1
$GPGGA,222758.400,4305.1532,N,07740.8311,W,1,09,1.01,154.9,M,-34.4,M,,*54
$GPRMC,222758.400,A,4305.1532,N,07740.8311,W,0.02,350.27,200319,,,A*70
lng=-77.680519, lat=43.085887, altitude=154.90, speed=0.02, satellites=9, angle=57.0900, fixquality=1
$GPGGA,222758.600,4305.1532,N,07740.8311,W,1,09,1.02,154.8,M,-34.4,M,,*54
$GPRMC,222758.600,A,4305.1532,N,07740.8311,W,0.03,287.43,200319,,,A*7A
lng=-77.680519, lat=43.085887, altitude=154.80, speed=0.02, satellites=9, angle=350.2700, fixquality=1
$GPGGA,222758.800,4305.1532,N,07740.8311,W,1,09,1.01,154.8,M,-34.4,M,,*59
$GPRMC,222758.800,A,4305.1532,N,07740.8311,W,0.01,192.95,200319,,,A*7A
lng=-77.680519, lat=43.085887, altitude=154.80, speed=0.03, satellites=9, angle=287.4300, fixquality=1
$GPGGA,222759.000,4305.1532,N,07740.8311,W,1,09,1.01,154.7,M,-34.4,M,,*5F
$GPRMC,222759.000,A,4305.1532,N,07740.8311,W,0.01,4.38,200319,,,A*7A
lng=-77.680519, lat=43.085887, altitude=154.70, speed=0.01, satellites=9, angle=192.9500, fixquality=1
$GPGGA,222759.200,4305.1532,N,07740.8311,W,1,09,1.02,154.7,M,-34.4,M,,*5E
$GPRMC,222759.200,A,4305.1532,N,07740.8311,W,0.00,0.00,200319,,,A*76
lng=-77.680519, lat=43.085887, altitude=154.70, speed=0.01, satellites=9, angle=4.3800, fixquality=1
$GPGGA,222759.400,4305.1532,N,07740.8311,W,1,09,1.02,154.7,M,-34.4,M,,*58
$GPRMC,222759.400,A,4305.1532,N,07740.8311,W,0.01,10.45,200319,,,A*41
lng=-77.680519, lat=43.085887, altitude=154.70, speed=0.00, satellites=9, angle=0.0000, fixquality=1
$GPGGA,222759.600,4305.1531,N,07740.8311,W,1,09,1.02,154.7,M,-34.4,M,,*59
$GPRMC,222759.600,A,4305.1531,N,07740.8311,W,0.01,179.97,200319,,,A*71
lng=-77.680519, lat=43.085887, altitude=154.70, speed=0.01, satellites=9, angle=10.4500, fixquality=1
$GPGGA,222759.800,4305.1531,N,07740.8311,W,1,09,1.01,154.7,M,-34.4,M,,*54
$GPRMC,222759.800,A,4305.1531,N,07740.8311,W,0.02,286.67,200319,,,A*70
lng=-77.680519, lat=43.085887, altitude=154.70, speed=0.01, satellites=9, angle=179.9700, fixquality=1
$GPGGA,222800.000,4305.1531,N,07740.8311,W,1,09,1.01,154.6,M,-34.4,M,,*5E
$GPRMC,222800.000,A,4305.1531,N,07740.8311,W,0.01,160.72,200319,,,A*77
lng=-77.680519, lat=43.085887, altitude=154.60, speed=0.02, satellites=9, angle=286.6700, fixquality=1
$GPGGA,222800.200,4305.1531,N,07740.8311,W,1,09,1.01,154.6,M,-34.4,M,,*5C
$GPRMC,222800.200,A,4305.1531,N,07740.8311,W,0.01,168.59,200319,,,A*74
lng=-77.680519, lat=43.085887, altitude=154.60, speed=0.01, satellites=9, angle=160.7200, fixquality=1
$GPGGA,222800.400,4305.1531,N,07740.8310,W,1,08,1.10,154.5,M,-34.4,M,,*59
$GPRMC,222800.400,A,4305.1531,N,07740.8310,W,0.01,291.03,20031
lng=-77.680519, lat=43.085887, altitude=154.50, speed=0.01, satellites=8, angle=168.5900, fixquality=1
$GPGGA,222800.600,4305.1531,N,07740.8310,W,1,09,1.01,154.5,M,-34.4,M,,*5A
$GPRMC,222800.600,A,4305.1531,N,07740.8310,W,0.01,37.50,200319,,,A*43
lng=-77.680519, lat=43.085887, altitude=154.50, speed=0.01, satellites=9, angle=291.0300, fixquality=1
$GPGGA,222800.800,4305.1531,N,07740.8310,W,1,09,1.01,154.4,M,-34.4,M,,*55
$GPRMC,222800.800,A,4305.1531,N,07740.8310,W,0.02,248.69,200319
lng=-77.680519, lat=43.085887, altitude=154.40, speed=0.01, satellites=9, angle=37.5000, fixquality=1
$GPGGA,222801.000,4305.1531,N,07740.8309,W,1,09,1.01,154.4,M,-34.4,M,,*54
$GPRMC,222801.000,A,4305.1531,N,07740.8309,W,0.03,10.26,200319,,,A*4A
lng=-77.680519, lat=43.085887, altitude=154.40, speed=0.02, satellites=9, angle=248.6900, fixquality=1
$GPGGA,222801.200,4305.1531,N,07740.8309,W,1,09,1.02,154.3,M,-34.4,M,,*52
$GPRMC,222801.200,A,4305.1531,N,07740.8309,W,0.02,320.75,200319
lng=-77.680519, lat=43.085887, altitude=154.30, speed=0.03, satellites=9, angle=10.2600, fixquality=1
$GPGGA,222801.400,4305.1531,N,07740.8309,W,1,09,1.01,154.3,M,-34.4,M,,*57
$GPRMC,222801.400,A,4305.1531,N,07740.8309,W,0.01,278.60,200319,,,A*72
lng=-77.680519, lat=43.085887, altitude=154.30, speed=0.02, satellites=9, angle=320.7500, fixquality=1
$GPGGA,222801.600,4305.1531,N,07740.8309,W,1,09,1.01,154.2,M,-34.4,M,,*54
$GPRMC,222801.600,A,4305.1531,N,07740.8309,W,0.00,311.62,200319,,,A*7D
lng=-77.680519, lat=43.085887, altitude=154.20, speed=0.01, satellites=9, angle=278.6000, fixquality=1
$GPGGA,222801.800,4305.1531,N,07740.8308,W,1,09,1.01,154.2,M,-34.4,M,,*5B
$GPRMC,222801.800,A,4305.1531,N,07740.8308,W,0.01,309.28,200319,,,A*74
lng=-77.680511, lat=43.085887, altitude=154.20, speed=0.00, satellites=9, angle=311.6200, fixquality=1
$GPGGA,222802.000,4305.1531,N,07740.8308,W,1,09,1.01,154.1,M,-34.4,M,,*53
$GPRMC,222802.000,A,4305.1531,N,07740.8308,W,0.00,9.90,200319,,,A*7E
lng=-77.680511, lat=43.085887, altitude=154.10, speed=0.01, satellites=9, angle=309.2800, fixquality=1
$GPGGA,222802.200,4305.1531,N,07740.8308,W,1,09,1.02,154.1,M,-34.4,M,,*52
$GPRMC,222802.200,A,4305.1531,N,07740.8308,W,0.02,328.65,200319,,,A*74
lng=-77.680511, lat=43.085887, altitude=154.10, speed=0.00, satellites=9, angle=9.9000, fixquality=1
$GPGGA,222802.400,4305.1531,N,07740.8308,W,1,09,1.01,154.1,M,-34.4,M,,*57
$GPRMC,222802.400,A,4305.1531,N,07740.8308,W,0.01,177.81,200319,,,A*73
lng=-77.680511, lat=43.085887, altitude=154.10, speed=0.02, satellites=9, angle=328.6500, fixquality=1
$GPGGA,222802.600,4305.1531,N,07740.8307,W,1,09,1.01,154.0,M,-34.4,M,,*5B
$GPRMC,222802.600,A,4305.1531,N,07740.8307,W,0.01,319.33,200319,,,A*7D
lng=-77.680511, lat=43.085887, altitude=154.00, speed=0.01, satellites=9, angle=177.8100, fixquality=1
$GPGGA,222802.800,4305.1531,N,07740.8307,W,1,09,1.01,154.0,M,-34.4,M,,*55
$GPRMC,222802.800,A,4305.1531,N,07740.8307,W,0.02,211.72,200319,,,A*7C
lng=-77.680511, lat=43.085887, altitude=154.00, speed=0.01, satellites=9, angle=319.3300, fixquality=1
$GPGGA,222803.000,4305.1531,N,07740.8307,W,1,09,1.01,153.9,M,-34.4,M,,*52
$GPRMC,222803.000,A,4305.1531,N,07740.8307,W,0.01,328.77,200319,,,A*78
lng=-77.680511, lat=43.085887, altitude=153.90, speed=0.02, satellites=9, angle=211.7200, fixquality=1
$GPGGA,222803.200,4305.1531,N,07740.8307,W,1,09,1.01,153.9,M,-34.4,M,,*50
$GPRMC,222803.200,A,4305.1531,N,07740.8307,W,0.02,143.95,200319,,,A*7A
lng=-77.680511, lat=43.085887, altitude=153.90, speed=0.01, satellites=9, angle=328.7700, fixquality=1
$GPGGA,222803.400,4305.1531,N,07740.8307,W,1,09,1.01,153.9,M,-34.4,M,,*56
$GPRMC,222803.400,A,4305.1531,N,07740.8307,W,0.01,189.50,200319,,,A*70
lng=-77.680511, lat=43.085887, altitude=153.90, speed=0.02, satellites=9, angle=143.9500, fixquality=1
$GPGGA,222803.600,4305.1531,N,07740.8306,W,1,09,1.01,153.9,M,-34.4,M,,*55
$GPRMC,222803.600,A,4305.1531,N,07740.8306,W,0.01,13.02,200319,,,A*46
lng=-77.680511, lat=43.085887, altitude=153.90, speed=0.01, satellites=9, angle=189.5000, fixquality=1
$GPGGA,222803.800,4305.1531,N,07740.8306,W,1,09,1.02,153.9,M,-34.4,M,,*58
$GPRMC,222803.800,A,4305.1531,N,07740.8306,W,0.02,9.67,200319,,,A*73
lng=-77.680511, lat=43.085887, altitude=153.90, speed=0.01, satellites=9, angle=13.0200, fixquality=1
$GPGGA,222804.000,4305.1531,N,07740.8306,W,1,09,1.02,153.9,M,-34.4,M,,*57
$GPRMC,222804.000,A,4305.1531,N,07740.8306,W,0.03,152.59,200319,,,A*7F
lng=-77.680511, lat=43.085887, altitude=153.90, speed=0.02, satellites=9, angle=9.6700, fixquality=1
$GPGGA,222804.200,4305.1531,N,07740.8306,W,1,09,1.01,153.9,M,-34.4,M,,*56
$GPRMC,222804.200,A,4305.1531,N,07740.8306,W,0.00,16.11,200319,,,A*43
lng=-77.680511, lat=43.085887, altitude=153.90, speed=0.03, satellites=9, angle=152.5900, fixquality=1
$GPGGA,222804.400,4305.1531,N,07740.8306,W,1,09,1.01,153.9,M,-34.4,M,,*50
$GPRMC,222804.400,A,4305.1531,N,07740.8306,W,0.02,285.81,200319,,,A*76
lng=-77.680511, lat=43.085887, altitude=153.90, speed=0.00, satellites=9, angle=16.1100, fixquality=1
$GPGGA,222804.600,4305.1531,N,07740.8306,W,1,09,1.01,153.9,M,-34.4,M,,*52
$GPRMC,222804.600,A,4305.1531,N,07740.8306,W,0.03,332.40,200319,,,A*75
lng=-77.680511, lat=43.085887, altitude=153.90, speed=0.02, satellites=9, angle=285.8100, fixquality=1
$GPGGA,222804.800,4305.1531,N,07740.8306,W,1,09,1.01,153.9,M,-34.4,M,,*5C
$GPRMC,222804.800,A,4305.1531,N,07740.8306,W,0.02,23.93,200319,,,A*47
lng=-77.680511, lat=43.085887, altitude=153.90, speed=0.03, satellites=9, angle=332.4000, fixquality=1
$GPGGA,222805.000,4305.1531,N,07740.8306,W,1,09,1.01,153.9,M,-34.4,M,,*55
$GPRMC,222805.000,A,4305.1531,N,07740.8306,W,0.01,260.36,200319,,,A*77
lng=-77.680511, lat=43.085887, altitude=153.90, speed=0.02, satellites=9, angle=23.9300, fixquality=1
$GPGGA,222805.200,4305.1531,N,07740.8306,W,1,09,1.01,153.9,M,-34.4,M,,*57
$GPRMC,222805.200,A,4305.1531,N,07740.8306,W,0.01,158.63,200319,,,A*7D
lng=-77.680511, lat=43.085887, altitude=153.90, speed=0.01, satellites=9, angle=260.3600, fixquality=1
$GPGGA,222805.400,4305.1531,N,07740.8306,W,1,09,1.01,153.9,M,-34.4,M,,*51
$GPRMC,222805.400,A,4305.1531,N,07740.8306,W,0.02,333.09,200319,,,A*7B
lng=-77.680511, lat=43.085887, altitude=153.90, speed=0.01, satellites=9, angle=158.6300, fixquality=1
$GPGGA,222805.600,4305.1531,N,07740.8306,W,1,09,1.01,153.9,M,-34.4,M,,*53
$GPRMC,222805.600,A,4305.1531,N,07740.8306,W,0.01,253.02,200319,,,A*76
lng=-77.680511, lat=43.085887, altitude=153.90, speed=0.02, satellites=9, angle=333.0900, fixquality=1
$GPGGA,222805.800,4305.1531,N,07740.8306,W,1,09,1.01,153.9,M,-34.4,M,,*5D
$GPRMC,222805.800,A,4305.1531,N,07740.8306,W,0.01,295.76,200319
lng=-77.680511, lat=43.085887, altitude=153.90, speed=0.01, satellites=9, angle=253.0200, fixquality=1
$GPGGA,222806.000,4305.1531,N,07740.8306,W,1,09,1.01,153.9,M,-34.4,M,,*56
$GPRMC,222806.000,A,4305.1531,N,07740.8306,W,0.01,317.91,200319,,,A*78
lng=-77.680511, lat=43.085887, altitude=153.90, speed=0.01, satellites=9, angle=295.7600, fixquality=1
$GPGGA,222806.200,4305.1531,N,07740.8306,W,1,09,1.01,153.9,M,-34.4,M,,*54
$GPRMC,222806.200,A,4305.1531,N,07740.8306,W,0.00,62.72,200319,
lng=-77.680511, lat=43.085887, altitude=153.90, speed=0.01, satellites=9, angle=317.9100, fixquality=1
$GPGGA,222806.400,4305.1531,N,07740.8306,W,1,09,1.01,153.9,M,-34.4,M,,*52
$GPRMC,222806.400,A,4305.1531,N,07740.8306,W,0.01,1.63,200319,,,A*75
lng=-77.680511, lat=43.085887, altitude=153.90, speed=0.00, satellites=9, angle=62.7200, fixquality=1
$GPGGA,222806.600,4305.1531,N,07740.8306,W,1,09,1.02,153.9,M,-34.4,M,,*53
$GPRMC,222806.600,A,4305.1531,N,07740.8306,W,0.01,76.69,200319
lng=-77.680511, lat=43.085887, altitude=153.90, speed=0.01, satellites=9, angle=1.6300, fixquality=1
$GPGGA,222806.800,4305.1531,N,07740.8306,W,1,09,1.01,153.9,M,-34.4,M,,*5E
$GPRMC,222806.800,A,4305.1531,N,07740.8306,W,0.01,232.14,200319,,,A*7B
lng=-77.680511, lat=43.085887, altitude=153.90, speed=0.01, satellites=9, angle=76.6900, fixquality=1
$GPGGA,222807.000,4305.1531,N,07740.8306,W,1,09,1.01,153.9,M,-34.4,M,,*57
$GPRMC,222807.000,A,4305.1531,N,07740.8306,W,0.15,179.20,200319,,,A*7C
lng=-77.680511, lat=43.085887, altitude=153.90, speed=0.01, satellites=9, angle=232.1400, fixquality=1
$GPGGA,222807.200,4305.1531,N,07740.8306,W,1,09,1.01,153.9,M,-34.4,M,,*55
$GPRMC,222807.200,A,4305.1531,N,07740.8306,W,0.38,175.25,200319,,,A*78
lng=-77.680511, lat=43.085887, altitude=153.90, speed=0.15, satellites=9, angle=179.2000, fixquality=1
$GPGGA,222807.400,4305.1531,N,07740.8306,W,1,09,1.01,153.9,M,-34.4,M,,*53
$GPRMC,222807.400,A,4305.1531,N,07740.8306,W,0.64,179.55,200319,,,A*7C
lng=-77.680511, lat=43.085887, altitude=153.90, speed=0.38, satellites=9, angle=175.2500, fixquality=1
$GPGGA,222807.600,4305.1531,N,07740.8306,W,1,09,1.01,153.9,M,-34.4,M,,*51
$GPRMC,222807.600,A,4305.1531,N,07740.8306,W,1.20,176.24,200319,,,A*76
lng=-77.680511, lat=43.085887, altitude=153.90, speed=0.64, satellites=9, angle=179.5500, fixquality=1
$GPGGA,222807.800,4305.1530,N,07740.8306,W,1,09,1.01,153.9,M,-34.4,M,,*5E
$GPRMC,222807.800,A,4305.1530,N,07740.8306,W,1.51,178.13,200319,,,A*75
lng=-77.680511, lat=43.085880, altitude=153.90, speed=1.20, satellites=9, angle=176.2400, fixquality=1
$GPGGA,222808.000,4305.1529,N,07740.8306,W,1,09,1.01,153.9,M,-34.4,M,,*51
$GPRMC,222808.000,A,4305.1529,N,07740.8306,W,1.76,177.28,200319,,,A*78
lng=-77.680511, lat=43.085880, altitude=153.90, speed=1.51, satellites=9, angle=178.1300, fixquality=1
$GPGGA,222808.200,4305.1528,N,07740.8306,W,1,09,1.01,153.9,M,-34.4,M,,*52
$GPRMC,222808.200,A,4305.1528,N,07740.8306,W,1.77,180.77,200319,,,A*78
lng=-77.680511, lat=43.085880, altitude=153.90, speed=1.76, satellites=9, angle=177.2800, fixquality=1
$GPGGA,222808.400,4305.1527,N,07740.8306,W,1,09,1.01,153.9,M,-34.4,M,,*5B
$GPRMC,222808.400,A,4305.1527,N,07740.8306,W,1.77,184.70,200319,,,A*72
lng=-77.680511, lat=43.085880, altitude=153.90, speed=1.77, satellites=9, angle=180.7700, fixquality=1
$GPGGA,222808.600,4305.1526,N,07740.8306,W,1,09,1.01,153.9,M,-34.4,M,,*58
$GPRMC,222808.600,A,4305.1526,N,07740.8306,W,1.56,181.14,200319,,,A*75
lng=-77.680511, lat=43.085880, altitude=153.90, speed=1.77, satellites=9, angle=184.7000, fixquality=1
$GPGGA,222808.800,4305.1525,N,07740.8305,W,1,09,1.01,154.0,M,-34.4,M,,*58
$GPRMC,222808.800,A,4305.1525,N,07740.8305,W,1.47,183.82,200319,,,A*76
lng=-77.680511, lat=43.085872, altitude=154.00, speed=1.56, satellites=9, angle=181.1400, fixquality=1
$GPGGA,222809.000,4305.1524,N,07740.8305,W,1,09,1.01,154.0,M,-34.4,M,,*50
$GPRMC,222809.000,A,4305.1524,N,07740.8305,W,1.40,183.37,200319,,,A*77
lng=-77.680511, lat=43.085872, altitude=154.00, speed=1.47, satellites=9, angle=183.8200, fixquality=1
$GPGGA,222809.200,4305.1523,N,07740.8306,W,1,09,1.01,154.0,M,-34.4,M,,*56
$GPRMC,222809.200,A,4305.1523,N,07740.8306,W,1.38,187.89,200319,,,A*7F
lng=-77.680511, lat=43.085872, altitude=154.00, speed=1.40, satellites=9, angle=183.3700, fixquality=1
$GPGGA,222809.400,4305.1522,N,07740.8305,W,1,09,1.01,154.0,M,-34.4,M,,*52
$GPRMC,222809.400,A,4305.1522,N,07740.8305,W,1.45,187.61,200319,,,A*77
lng=-77.680511, lat=43.085872, altitude=154.00, speed=1.38, satellites=9, angle=187.8900, fixquality=1
$GPGGA,222809.600,4305.1522,N,07740.8305,W,1,09,1.01,154.0,M,-34.4,M,,*50
$GPRMC,222809.600,A,4305.1522,N,07740.8305,W,1.50,187.84,200319,,,A*7A
lng=-77.680511, lat=43.085872, altitude=154.00, speed=1.45, satellites=9, angle=187.6100, fixquality=1
$GPGGA,222809.800,4305.1521,N,07740.8306,W,1,09,1.01,154.1,M,-34.4,M,,*5F
$GPRMC,222809.800,A,4305.1521,N,07740.8306,W,1.42,187.92,200319,,,A*70
lng=-77.680511, lat=43.085865, altitude=154.10, speed=1.50, satellites=9, angle=187.8400, fixquality=1
$GPGGA,222810.000,4305.1520,N,07740.8306,W,1,09,1.01,154.1,M,-34.4,M,,*5E
$GPRMC,222810.000,A,4305.1520,N,07740.8306,W,1.49,191.23,200319,,,A*77
lng=-77.680511, lat=43.085865, altitude=154.10, speed=1.42, satellites=9, angle=187.9200, fixquality=1
$GPGGA,222810.200,4305.1519,N,07740.8306,W,1,09,1.01,154.2,M,-34.4,M,,*55
$GPRMC,222810.200,A,4305.1519,N,07740.8306,W,1.55,186.60,200319,,,A*73
lng=-77.680511, lat=43.085865, altitude=154.20, speed=1.49, satellites=9, angle=191.2300, fixquality=1
$GPGGA,222810.400,4305.1518,N,07740.8306,W,1,09,1.01,154.2,M,-34.4,M,,*52
$GPRMC,222810.400,A,4305.1518,N,07740.8306,W,1.51,190.11,200319,,,A*71
lng=-77.680511, lat=43.085865, altitude=154.20, speed=1.55, satellites=9, angle=186.6000, fixquality=1
$GPGGA,222810.600,4305.1517,N,07740.8306,W,1,09,1.01,154.2,M,-34.4,M,,*5F
$GPRMC,222810.600,A,4305.1517,N,07740.8306,W,1.54,196.11,200319,,,A*7F
lng=-77.680511, lat=43.085865, altitude=154.20, speed=1.51, satellites=9, angle=190.1100, fixquality=1
$GPGGA,222810.800,4305.1516,N,07740.8306,W,1,09,1.01,154.3,M,-34.4,M,,*51
$GPRMC,222810.800,A,4305.1516,N,07740.8306,W,1.56,194.02,200319,,,A*72
lng=-77.680511, lat=43.085857, altitude=154.30, speed=1.54, satellites=9, angle=196.1100, fixquality=1
$GPGGA,222811.000,4305.1515,N,07740.8306,W,1,09,1.01,154.3,M,-34.4,M,,*5B
$GPRMC,222811.000,A,4305.1515,N,07740.8306,W,1.57,194.80,200319,,,A*73
lng=-77.680511, lat=43.085857, altitude=154.30, speed=1.56, satellites=9, angle=194.0200, fixquality=1
$GPGGA,222811.200,4305.1514,N,07740.8306,W,1,09,1.01,154.3,M,-34.4,M,,*58
$GPRMC,222811.200,A,4305.1514,N,07740.8306,W,1.61,195.75,200319
lng=-77.680511, lat=43.085857, altitude=154.30, speed=1.57, satellites=9, angle=194.8000, fixquality=1
$GPGGA,222811.400,4305.1513,N,07740.8306,W,1,09,1.01,154.4,M,-34.4,M,,*5E
$GPRMC,222811.400,A,4305.1513,N,07740.8306,W,1.67,196.42,200319,,,A*7E
lng=-77.680511, lat=43.085857, altitude=154.40, speed=1.61, satellites=9, angle=195.7500, fixquality=1
$GPGGA,222811.600,4305.1512,N,07740.8307,W,1,09,1.01,154.4,M,-34.4,M,,*5C
$GPRMC,222811.600,A,4305.1512,N,07740.8307,W,1.69,197.08,200319D
lng=-77.680511, lat=43.085857, altitude=154.40, speed=1.67, satellites=9, angle=196.4200, fixquality=1
$GPGGA,222811.800,4305.1511,N,07740.8307,W,1,09,1.01,154.5,M,-34.4,M,,*50
$GPRMC,222811.800,A,4305.1511,N,07740.8307,W,1.70,200.37,200319,,,A*79
lng=-77.680511, lat=43.085849, altitude=154.50, speed=1.69, satellites=9, angle=197.0800, fixquality=1
$GPGGA,222812.000,4305.1510,N,07740.8307,W,1,09,1.01,154.5,M,-34.4,M,,*5A
$GPRMC,222812.000,A,4305.1510,N,07740.8307,W,1.75,199.38,200319A
lng=-77.680511, lat=43.085849, altitude=154.50, speed=1.70, satellites=9, angle=200.3700, fixquality=1
$GPGGA,222812.200,4305.1509,N,07740.8307,W,1,09,1.01,154.5,M,-34.4,M,,*50
$GPRMC,222812.200,A,4305.1509,N,07740.8307,W,1.52,198.31,200319,,,A*7D
lng=-77.680511, lat=43.085849, altitude=154.50, speed=1.75, satellites=9, angle=199.3800, fixquality=1
$GPGGA,222812.400,4305.1508,N,07740.8307,W,1,09,1.01,154.6,M,-34.4,M,,*54
$GPRMC,222812.400,A,4305.1508,N,07740.8307,W,1.27,201.08,200319
lng=-77.680511, lat=43.085849, altitude=154.60, speed=1.52, satellites=9, angle=198.3100, fixquality=1
$GPGGA,222812.600,4305.1507,N,07740.8307,W,1,09,1.01,154.6,M,-34.4,M,,*59
$GPRMC,222812.600,A,4305.1507,N,07740.8307,W,0.96,205.05,200319,,,A*7E
lng=-77.680511, lat=43.085849, altitude=154.60, speed=1.27, satellites=9, angle=201.0800, fixquality=1
$GPGGA,222812.800,4305.1507,N,07740.8307,W,1,09,1.01,154.7,M,-34.4,M,,*56
$GPRMC,222812.800,A,4305.1507,N,07740.8307,W,0.93,201.44,200319,,,A*74
lng=-77.680511, lat=43.085849, altitude=154.70, speed=0.96, satellites=9, angle=205.0500, fixquality=1
$GPGGA,222813.000,4305.1506,N,07740.8307,W,1,09,1.01,154.7,M,-34.4,M,,*5E
$GPRMC,222813.000,A,4305.1506,N,07740.8307,W,0.98,204.77,200319,,,A*72
lng=-77.680511, lat=43.085838, altitude=154.70, speed=0.93, satellites=9, angle=201.4400, fixquality=1
$GPGGA,222813.200,4305.1506,N,07740.8308,W,1,09,1.01,154.7,M,-34.4,M,,*53
$GPRMC,222813.200,A,4305.1506,N,07740.8308,W,1.27,206.08,200319,,,A*70
lng=-77.680511, lat=43.085838, altitude=154.70, speed=0.98, satellites=9, angle=204.7700, fixquality=1
$GPGGA,222813.400,4305.1505,N,07740.8308,W,1,09,1.01,154.8,M,-34.4,M,,*59
$GPRMC,222813.400,A,4305.1505,N,07740.8308,W,1.64,205.78,200319,,,A*76
lng=-77.680511, lat=43.085838, altitude=154.80, speed=1.27, satellites=9, angle=206.0800, fixquality=1
$GPGGA,222813.600,4305.1504,N,07740.8308,W,1,09,1.01,154.8,M,-34.4,M,,*5A
$GPRMC,222813.600,A,4305.1504,N,07740.8308,W,1.92,207.44,200319,,,A*71
lng=-77.680511, lat=43.085838, altitude=154.80, speed=1.64, satellites=9, angle=205.7800, fixquality=1
$GPGGA,222813.800,4305.1502,N,07740.8309,W,1,09,1.01,154.9,M,-34.4,M,,*52
$GPRMC,222813.800,A,4305.1502,N,07740.8309,W,2.14,207.95,200319,,,A*79
lng=-77.680519, lat=43.085838, altitude=154.90, speed=1.92, satellites=9, angle=207.4400, fixquality=1
$GPGGA,222814.000,4305.1501,N,07740.8309,W,1,09,1.01,154.9,M,-34.4,M,,*5E
$GPRMC,222814.000,A,4305.1501,N,07740.8309,W,2.31,212.25,200319,,,A*7D
lng=-77.680519, lat=43.085830, altitude=154.90, speed=2.14, satellites=9, angle=207.9500, fixquality=1
$GPGGA,222814.200,4305.1500,N,07740.8310,W,1,09,1.01,155.0,M,-34.4,M,,*5D
$GPRMC,222814.200,A,4305.1500,N,07740.8310,W,2.53,214.29,200319,,,A*78
lng=-77.680519, lat=43.085830, altitude=155.00, speed=2.31, satellites=9, angle=212.2500, fixquality=1
$GPGGA,222814.400,4305.1499,N,07740.8311,W,1,09,1.01,155.0,M,-34.4,M,,*5B
$GPRMC,222814.400,A,4305.1499,N,07740.8311,W,2.53,220.21,200319,,,A*71
lng=-77.680519, lat=43.085830, altitude=155.00, speed=2.53, satellites=9, angle=214.2900, fixquality=1
$GPGGA,222814.600,4305.1498,N,07740.8312,W,1,09,1.01,155.0,M,-34.4,M,,*5B
$GPRMC,222814.600,A,4305.1498,N,07740.8312,W,2.49,225.27,200319,,,A*79
lng=-77.680519, lat=43.085830, altitude=155.00, speed=2.53, satellites=9, angle=220.2100, fixquality=1
$GPGGA,222814.800,4305.1497,N,07740.8313,W,1,09,1.01,155.1,M,-34.4,M,,*5A
$GPRMC,222814.800,A,4305.1497,N,07740.8313,W,2.41,227.98,200319,,,A*77
lng=-77.680519, lat=43.085830, altitude=155.10, speed=2.49, satellites=9, angle=225.2700, fixquality=1
$GPGGA,222815.000,4305.1495,N,07740.8314,W,1,09,1.01,155.1,M,-34.4,M,,*56
$GPRMC,222815.000,A,4305.1495,N,07740.8314,W,2.33,227.44,200319,,,A*7F
lng=-77.680526, lat=43.085823, altitude=155.10, speed=2.41, satellites=9, angle=227.9800, fixquality=1
$GPGGA,222815.200,4305.1495,N,07740.8316,W,1,09,1.01,155.2,M,-34.4,M,,*55
$GPRMC,222815.200,A,4305.1495,N,07740.8316,W,2.24,227.93,200319,,,A*73
lng=-77.680526, lat=43.085823, altitude=155.20, speed=2.33, satellites=9, angle=227.4400, fixquality=1
$GPGGA,222815.400,4305.1494,N,07740.8317,W,1,09,1.01,155.2,M,-34.4,M,,*53
$GPRMC,222815.400,A,4305.1494,N,07740.8317,W,2.04,230.70,200319,,,A*7C
lng=-77.680526, lat=43.085823, altitude=155.20, speed=2.24, satellites=9, angle=227.9300, fixquality=1
$GPGGA,222815.600,4305.1493,N,07740.8317,W,1,09,1.01,155.2,M,-34.4,M,,*56
$GPRMC,222815.600,A,4305.1493,N,07740.8317,W,1.74,232.83,200319,,,A*73
lng=-77.680526, lat=43.085823, altitude=155.20, speed=2.04, satellites=9, angle=230.7000, fixquality=1
$GPGGA,222815.800,4305.1493,N,07740.8318,W,1,09,1.01,155.3,M,-34.4,M,,*56
$GPRMC,222815.800,A,4305.1493,N,07740.8318,W,1.40,236.49,200319,,,A*77
lng=-77.680534, lat=43.085823, altitude=155.30, speed=1.74, satellites=9, angle=232.8300, fixquality=1
$GPGGA,222816.000,4305.1492,N,07740.8318,W,1,09,1.01,155.3,M,-34.4,M,,*5C
$GPRMC,222816.000,A,4305.1492,N,07740.8318,W,1.05,238.70,200319,,,A*78
lng=-77.680534, lat=43.085823, altitude=155.30, speed=1.40, satellites=9, angle=236.4900, fixquality=1
$GPGGA,222816.200,4305.1492,N,07740.8318,W,1,09,1.01,155.3,M,-34.4,M,,*5E
$GPRMC,222816.200,A,4305.1492,N,07740.8318,W,0.67,240.47,200319,,,A*74
lng=-77.680534, lat=43.085823, altitude=155.30, speed=1.05, satellites=9, angle=238.7000, fixquality=1
$GPGGA,222816.400,4305.1493,N,07740.8317,W,1,09,1.01,155.4,M,-34.4,M,,*51
$GPRMC,222816.400,A,4305.1493,N,07740.8317,W,0.31,243.43,200319,,,A*78
lng=-77.680526, lat=43.085823, altitude=155.40, speed=0.67, satellites=9, angle=240.4700, fixquality=1
$GPGGA,222816.600,4305.1493,N,07740.8316,W,1,09,1.01,155.4,M,-34.4,M,,*52
$GPRMC,222816.600,A,4305.1493,N,07740.8316,W,0.11,49.95,200319,,,A*4A
lng=-77.680526, lat=43.085823, altitude=155.40, speed=0.31, satellites=9, angle=243.4300, fixquality=1
$GPGGA,222816.800,4305.1493,N,07740.8315,W,1,09,1.01,155.4,M,-34.4,M,,*5F
$GPRMC,222816.800,A,4305.1493,N,07740.8315,W,0.43,57.50,200319,,,A*46
lng=-77.680526, lat=43.085823, altitude=155.40, speed=0.11, satellites=9, angle=49.9500, fixquality=1
$GPGGA,222817.000,4305.1494,N,07740.8312,W,1,09,1.01,155.4,M,-34.4,M,,*56
$GPRMC,222817.000,A,4305.1494,N,07740.8312,W,0.85,59.69,200319,$GPGGA,222817.200,4305.1495,N,07740.8310,W,1,09,1.01,155.5,M,-34.4,M,,*56
lng=-77.680519, lat=43.085823, altitude=155.40, speed=0.43, satellites=9, angle=57.5000, fixquality=1
$GPRMC,222817.400,A,4305.1496,N,07740.8306,W,1.88,60.22,200319,,,A*4B
$GPGGA,222817.600,4305.1497,N,07740.8302,W,1,09,1.01,155.5,M,-34.4,M,,*53
lng=-77.680511, lat=43.085823, altitude=155.40, speed=1.88, satellites=9, angle=60.2200, fixquality=1
$GPRMC,222817.800,A,4305.1498,N,07740.8298,W,4.43,65.42,200319,,,A*4E
$GPGGA,222818.000,4305.1499,N,07740.8292,W,1,08,1.26,155.6,M,-34.4,M,,*5B
lng=-77.680496, lat=43.085830, altitude=155.50, speed=4.43, satellites=9, angle=65.4200, fixquality=1
$GPRMC,222818.200,A,4305.1500,N,07740.8287,W,6.74,74.03,200319,,,A*46
$GPGGA,222818.400,4305.1501,N,07740.8281,W,1,09,1.02,155.7,M,-34.4,M,,*5B
lng=-77.680473, lat=43.085830, altitude=155.60, speed=6.74, satellites=8, angle=74.0300, fixquality=1
$GPRMC,222818.600,A,4305.1501,N,07740.8275,W,7.53,77.33,200319,,,A*4A
$GPGGA,222818.800,4305.1502,N,07740.8269,W,1,09,1.02,155.7,M,-34.4,M,,*52
lng=-77.680458, lat=43.085830, altitude=155.70, speed=7.53, satellites=9, angle=77.3300, fixquality=1
$GPRMC,222819.000,A,4305.1503,N,07740.8263,W,7.82,79.58,200319,,,A*47
$GPGGA,222819.200,4305.1503,N,07740.8257,W,1,09,1.02,155.8,M,-34.4,M,,*5A
lng=-77.680435, lat=43.085838, altitude=155.70, speed=7.82, satellites=9, angle=79.5800, fixquality=1
$GPRMC,222819.400,A,4305.1503,N,07740.8250,W,8.37,82.94,200319,,,A*46
$GPGGA,222819.600,4305.1504,N,07740.8243,W,1,09,1.02,155.8,M,-34.4,M,,*5C
lng=-77.680419, lat=43.085838, altitude=155.80, speed=8.37, satellites=9, angle=82.9400, fixquality=1
$GPRMC,222819.800,A,4305.1504,N,07740.8236,W,8.68,85.09,200319,,,A*44
$GPGGA,222820.000,4305.1504,N,07740.8229,W,1,09,1.02,155.8,M,-34.4,M,,*5C
lng=-77.680397, lat=43.085838, altitude=155.80, speed=8.68, satellites=9, angle=85.0900, fixquality=1
$GPRMC,222820.200,A,4305.1504,N,07740.8222,W,8.93,86.25,200319,,,A*48
$GPGGA,222820.400,4305.1504,N,07740.8215,W,1,09,1.02,155.8,M,-34.4,M,,*57
lng=-77.680374, lat=43.085838, altitude=155.80, speed=8.93, satellites=9, angle=86.2500, fixquality=1
$GPRMC,222820.600,A,4305.1504,N,07740.8207,W,9.30,86.82,200319,,,A*4E
$GPGGA,222820.800,4305.1504,N,07740.8199,W,1,09,1.02,155.9,M,-34.4,M,,*5D
lng=-77.680343, lat=43.085838, altitude=155.80, speed=9.30, satellites=9, angle=86.8200, fixquality=1
$GPRMC,222821.000,A,4305.1504,N,07740.8191,W,9.65,87.39,200319,,,A*44
$GPGGA,222821.200,4305.1504,N,07740.8183,W,1,09,1.02,155.9,M,-34.4,M,,*5D
lng=-77.680320, lat=43.085838, altitude=155.90, speed=9.65, satellites=9, angle=87.3900, fixquality=1
$GPRMC,222821.400,A,4305.1504,N,07740.8176,W,9.89,88.02,200319,,,A*4C
$GPGGA,222821.600,4305.1504,N,07740.8167,W,1,09,1.01,155.9,M,-34.4,M,,*50
lng=-77.680290, lat=43.085838, altitude=155.90, speed=9.89, satellites=9, angle=88.0200, fixquality=1
$GPRMC,222821.800,A,4305.1504,N,07740.8159,W,10.11,88.73,200319,,,A*72
$GPGGA,222822.000,4305.1503,N,07740.8151,W,1,09,1.01,155.9,M,-34.4,M,,*57
