Vers 57
USE_SERIAL_FEEDBACK=false
DEVELOPMENT_MODE=false
USE_RMC_ONLY=false

$GPRMC,153907.600,A,4308.4584,N,07726.3608,W,6.10,342.66,200319,,,A*73
$GPGGA,153907.800,4308.4588,N,07726.3611,W,1,08,0.98,157.6,M,-34.4,M,,*52
lng=-77.439346, lat=43.140975, altitude=157.80, speed=6.10, satellites=8, angle=342.6600, fixquality=1
$GPRMC,153908.000,A,4308.4593,N,07726.3616,W,8.09,330.53,200319,,,A*76
$GPGGA,153908.200,4308.4598,N,07726.3620,W,1,08,0.98,157.5,M,-34.4,M,,*57
lng=-77.439361, lat=43.140991, altitude=157.60, speed=8.09, satellites=8, angle=330.5300, fixquality=1
$GPRMC,153908.400,A,4308.4602,N,07726.3626,W,10.24,320.39,200319,,,A*41
$GPGGA,153908.600,4308.4606,N,07726.3631,W,1,08,0.98,157.4,M,-34.4,M,,*56
lng=-77.439376, lat=43.140998, altitude=157.50, speed=10.24, satellites=8, angle=320.3900, fixquality=1
$GPRMC,153908.800,A,4308.4610,N,07726.3637,W,10.78,314.74,200319,,,A*49
$GPGGA,153909.000,4308.4615,N,07726.3645,W,1,08,0.98,157.4,M,-34.4,M,,*50
lng=-77.439399, lat=43.141014, altitude=157.40, speed=10.78, satellites=8, angle=314.7400, fixquality=1
$GPRMC,153909.200,A,4308.4619,N,07726.3652,W,11.91,306.50,200319,,,A*4B
$GPGGA,153909.400,4308.4622,N,07726.3661,W,1,08,0.98,157.3,M,-34.4,M,,*51
lng=-77.439422, lat=43.141033, altitude=157.40, speed=11.91, satellites=8, angle=306.5000, fixquality=1
$GPRMC,153909.600,A,4308.4626,N,07726.3670,W,13.13,296.33,200319,,,A*46
$GPGGA,153909.800,4308.4629,N,07726.3680,W,1,08,0.98,157.3,M,-34.4,M,,*59
lng=-77.439453, lat=43.141040, altitude=157.30, speed=13.13, satellites=8, angle=296.3300, fixquality=1
$GPRMC,153910.000,A,4308.4632,N,07726.3692,W,15.20,290.52,200319,,,A*46
$GPGGA,153910.200,4308.4635,N,07726.3703,W,1,08,0.98,157.2,M,-34.4,M,,*5D
lng=-77.439483, lat=43.141056, altitude=157.30, speed=15.20, satellites=8, angle=290.5200, fixquality=1
$GPRMC,153910.400,A,4308.4638,N,07726.3715,W,16.62,287.45,200319,,,A*43
$GPGGA,153910.600,4308.4640,N,07726.3728,W,1,08,0.98,157.2,M,-34.4,M,,*52
lng=-77.439529, lat=43.141063, altitude=157.20, speed=16.62, satellites=8, angle=287.4500, fixquality=1
$GPRMC,153910.800,A,4308.4642,N,07726.3741,W,17.70,284.11,200319,,,A*43
$GPGGA,153911.000,4308.4644,N,07726.3755,W,1,08,0.98,157.1,M,-34.4,M,,*58
lng=-77.439567, lat=43.141071, altitude=157.20, speed=17.70, satellites=8, angle=284.1100, fixquality=1
$GPRMC,153911.200,A,4308.4645,N,07726.3770,W,18.70,280.79,200319,,,A*48
$GPGGA,153911.400,4308.4647,N,07726.3785,W,1,08,0.98,157.1,M,-34.4,M,,*52
lng=-77.439613, lat=43.141071, altitude=157.10, speed=18.70, satellites=8, angle=280.7900, fixquality=1
$GPRMC,153911.600,A,4308.4648,N,07726.3800,W,19.68,279.81,200319,,,A*40
$GPGGA,153911.800,4308.4650,N,07726.3816,W,1,08,0.98,157.1,M,-34.4,M,,*5D
lng=-77.439666, lat=43.141078, altitude=157.10, speed=19.68, satellites=8, angle=279.8100, fixquality=1
$GPRMC,153912.000,A,4308.4652,N,07726.3831,W,20.61,279.16,200319,,,A*41
$GPGGA,153912.200,4308.4653,N,07726.3848,W,1,08,0.98,157.1,M,-34.4,M,,*5C
lng=-77.439720, lat=43.141090, altitude=157.10, speed=20.61, satellites=8, angle=279.1600, fixquality=1
$GPRMC,153912.400,A,4308.4655,N,07726.3864,W,21.45,278.51,200319,,,A*47
$GPGGA,153912.600,4308.4656,N,07726.3881,W,1,08,0.98,157.0,M,-34.4,M,,*59
lng=-77.439773, lat=43.141090, altitude=157.10, speed=21.45, satellites=8, angle=278.5100, fixquality=1
$GPRMC,153912.800,A,4308.4658,N,07726.3897,W,21.68,277.62,200319,,,A*4A
$GPGGA,153913.000,4308.4659,N,07726.3914,W,1,08,0.98,157.0,M,-34.4,M,,*5C
lng=-77.439826, lat=43.141098, altitude=157.00, speed=21.68, satellites=8, angle=277.6200, fixquality=1
$GPRMC,153913.200,A,4308.4660,N,07726.3930,W,21.75,276.78,200319,,,A*40
$GPGGA,153913.400,4308.4662,N,07726.3947,W,1,08,0.98,157.0,M,-34.4,M,,*56
lng=-77.439888, lat=43.141098, altitude=157.00, speed=21.75, satellites=8, angle=276.7800, fixquality=1
$GPRMC,153913.600,A,4308.4663,N,07726.3964,W,21.85,276.71,200319,,,A*40
$GPGGA,153913.800,4308.4664,N,07726.3980,W,1,08,0.98,156.9,M,-34.4,M,,*5F
lng=-77.439941, lat=43.141105, altitude=157.00, speed=21.85, satellites=8, angle=276.7100, fixquality=1
$GPRMC,153914.000,A,4308.4666,N,07726.3997,W,21.93,276.74,200319,,,A*4A
$GPGGA,153914.200,4308.4668,N,07726.4014,W,1,08,0.98,156.9,M,-34.4,M,,*5D
lng=-77.439994, lat=43.141113, altitude=156.90, speed=21.93, satellites=8, angle=276.7400, fixquality=1
$GPRMC,153914.400,A,4308.4669,N,07726.4030,W,21.85,276.25,200319,,,A*41
$GPGGA,153914.600,4308.4670,N,07726.4046,W,1,08,0.98,156.9,M,-34.4,M,,*57
lng=-77.440048, lat=43.141113, altitude=156.90, speed=21.85, satellites=8, angle=276.2500, fixquality=1
$GPRMC,153914.800,A,4308.4672,N,07726.4063,W,21.74,276.13,200319,,,A*4A
$GPGGA,153915.000,4308.4673,N,07726.4079,W,1,08,0.98,156.9,M,-34.4,M,,*5F
lng=-77.440101, lat=43.141120, altitude=156.90, speed=21.74, satellites=8, angle=276.1300, fixquality=1
$GPRMC,153915.200,A,4308.4674,N,07726.4094,W,21.48,275.95,200319,,,A*4D
$GPGGA,153915.400,4308.4676,N,07726.4110,W,1,08,0.98,156.9,M,-34.4,M,,*50
lng=-77.440155, lat=43.141120, altitude=156.90, speed=21.48, satellites=8, angle=275.9500, fixquality=1
$GPRMC,153915.600,A,4308.4678,N,07726.4126,W,21.33,276.39,200319,,,A*44
$GPGGA,153915.800,4308.4679,N,07726.4141,W,1,08,0.98,156.8,M,-34.4,M,,*56
lng=-77.440208, lat=43.141128, altitude=156.90, speed=21.33, satellites=8, angle=276.3900, fixquality=1
$GPRMC,153916.000,A,4308.4681,N,07726.4156,W,21.29,277.63,200319,,,A*45
$GPGGA,153916.200,4308.4683,N,07726.4171,W,1,08,0.98,156.8,M,-34.4,M,,*59
lng=-77.440261, lat=43.141136, altitude=156.80, speed=21.29, satellites=8, angle=277.6300, fixquality=1
$GPRMC,153916.400,A,4308.4685,N,07726.4186,W,20.68,277.99,200319,,,A*49
$GPGGA,153916.600,4308.4689,N,07726.4198,W,1,08,0.98,156.7,M,-34.4,M,,*5F
lng=-77.440307, lat=43.141136, altitude=156.80, speed=20.68, satellites=8, angle=277.9900, fixquality=1
$GPRMC,153916.800,A,4308.4689,N,07726.4213,W,19.16,277.74,200319,,,A*46
$GPGGA,153917.000,4308.4691,N,07726.4226,W,1,08,1.00,156.7,M,-34.4,M,,*57
lng=-77.440353, lat=43.141147, altitude=156.70, speed=19.16, satellites=8, angle=277.7400, fixquality=1
$GPRMC,153917.200,A,4308.4693,N,07726.4239,W,17.49,278.30,200319,,,A*45
$GPGGA,153917.400,4308.4694,N,07726.4251,W,1,08,1.00,156.7,M,-34.4,M,,*56
lng=-77.440399, lat=43.141155, altitude=156.70, speed=17.49, satellites=8, angle=278.3000, fixquality=1
$GPRMC,153917.600,A,4308.4696,N,07726.4262,W,15.52,278.53,200319,,,A*47
$GPGGA,153917.800,4308.4697,N,07726.4273,W,1,08,1.00,156.6,M,-34.4,M,,*58
lng=-77.440437, lat=43.141162, altitude=156.70, speed=15.52, satellites=8, angle=278.5300, fixquality=1
$GPRMC,153918.000,A,4308.4698,N,07726.4283,W,13.38,276.71,200319,,,A*4B
$GPGGA,153918.200,4308.4699,N,07726.4292,W,1,08,1.00,156.6,M,-34.4,M,,*5C
lng=-77.440467, lat=43.141162, altitude=156.60, speed=13.38, satellites=8, angle=276.7100, fixquality=1
$GPRMC,153918.400,A,4308.4700,N,07726.4300,W,11.08,276.40,200319,,,A*46
$GPGGA,153918.600,4308.4701,N,07726.4308,W,1,08,0.98,156.6,M,-34.4,M,,*5A
lng=-77.440505, lat=43.141170, altitude=156.60, speed=11.08, satellites=8, angle=276.4000, fixquality=1
$GPRMC,153918.800,A,4308.4702,N,07726.4314,W,9.01,276.22,200319,,,A*79
$GPGGA,153919.000,4308.4703,N,07726.4320,W,1,08,1.00,156.6,M,-34.4,M,,*55
lng=-77.440528, lat=43.141170, altitude=156.60, speed=9.01, satellites=8, angle=276.2200, fixquality=1
$GPRMC,153919.200,A,4308.4703,N,07726.4325,W,6.95,275.40,200319,,,A*74
$GPGGA,153919.400,4308.4703,N,07726.4330,W,1,08,1.00,156.5,M,-34.4,M,,*53
lng=-77.440544, lat=43.141170, altitude=156.60, speed=6.95, satellites=8, angle=275.4000, fixquality=1
$GPRMC,153919.600,A,4308.4704,N,07726.4334,W,5.45,276.14,200319,,,A*7B
$GPGGA,153919.800,4308.4704,N,07726.4338,W,1,08,0.98,156.5,M,-34.4,M,,*50
lng=-77.440559, lat=43.141170, altitude=156.50, speed=5.45, satellites=8, angle=276.1400, fixquality=1
$GPRMC,153920.000,A,4308.4704,N,07726.4341,W,4.47,276.40,200319,,,A*77
$GPGGA,153920.200,4308.4705,N,07726.4344,W,1,08,0.98,156.5,M,-34.4,M,,*5A
lng=-77.440567, lat=43.141170, altitude=156.50, speed=4.47, satellites=8, angle=276.4000, fixquality=1
$GPRMC,153920.400,A,4308.4705,N,07726.4347,W,3.53,276.57,200319,,,A*70
$GPGGA,153920.600,4308.4706,N,07726.4349,W,1,08,0.98,156.5,M,-34.4,M,,*50
lng=-77.440574, lat=43.141178, altitude=156.50, speed=3.53, satellites=8, angle=276.5700, fixquality=1
$GPRMC,153920.800,A,4308.4706,N,07726.4351,W,2.64,281.94,200319,,,A*7A
$GPGGA,153921.000,4308.4707,N,07726.4353,W,1,08,0.98,156.4,M,-34.4,M,,*5C
lng=-77.440582, lat=43.141178, altitude=156.50, speed=2.64, satellites=8, angle=281.9400, fixquality=1
$GPRMC,153921.200,A,4308.4707,N,07726.4354,W,1.49,281.94,200319,,,A*79
$GPGGA,153921.400,4308.4707,N,07726.4355,W,1,08,0.98,156.4,M,-34.4,M,,*5E
lng=-77.440589, lat=43.141178, altitude=156.40, speed=1.49, satellites=8, angle=281.9400, fixquality=1
$GPRMC,153921.600,A,4308.4708,N,07726.4356,W,0.40,281.94,200319,,,A*78
$GPGGA,153921.800,4308.4708,N,07726.4356,W,1,08,0.98,156.5,M,-34.4,M,,*5F
lng=-77.440589, lat=43.141178, altitude=156.40, speed=0.40, satellites=8, angle=281.9400, fixquality=1
$GPRMC,153922.000,A,4308.4708,N,07726.4356,W,0.08,281.94,200319,,,A*71
$GPGGA,153922.200,4308.4709,N,07726.4356,W,1,08,0.98,156.5,M,-34.4,M,,*57
lng=-77.440589, lat=43.141178, altitude=156.50, speed=0.08, satellites=8, angle=281.9400, fixquality=1
$GPRMC,153922.400,A,4308.4709,N,07726.4356,W,0.02,281.94,200319,,,A*7E
$GPGGA,153922.600,4308.4709,N,07726.4356,W,1,08,0.98,156.5,M,-34.4,M,,*53
lng=-77.440589, lat=43.141178, altitude=156.50, speed=0.02, satellites=8, angle=281.9400, fixquality=1
$GPRMC,153922.800,A,4308.4710,N,07726.4356,W,0.01,281.94,200319,,,A*79
$GPGGA,153923.000,4308.4710,N,07726.4356,W,1,08,1.00,156.5,M,-34.4,M,,*5C
lng=-77.440589, lat=43.141185, altitude=156.50, speed=0.01, satellites=8, angle=281.9400, fixquality=1
$GPRMC,153923.200,A,4308.4710,N,07726.4356,W,0.01,281.94,200319,,,A*72
$GPGGA,153923.400,4308.4710,N,07726.4356,W,1,08,0.98,156.5,M,-34.4,M,,*58
lng=-77.440589, lat=43.141185, altitude=156.50, speed=0.01, satellites=8, angle=281.9400, fixquality=1
$GPRMC,153923.600,A,4308.4710,N,07726.4356,W,0.01,281.94,200319,,,A*76
$GPGGA,153923.800,4308.4710,N,07726.4356,W,1,08,0.98,156.5,M,-34.4,M,,*54
lng=-77.440589, lat=43.141185, altitude=156.50, speed=0.01, satellites=8, angle=281.9400, fixquality=1
$GPRMC,153924.000,A,4308.4711,N,07726.4356,W,0.04,281.94,200319,,,A*73
$GPGGA,153924.200,4308.4711,N,07726.4356,W,1,08,0.98,156.4,M,-34.4,M,,*59
lng=-77.440589, lat=43.141185, altitude=156.50, speed=0.04, satellites=8, angle=281.9400, fixquality=1
$GPRMC,153924.400,A,4308.4711,N,07726.4356,W,0.03,281.94,200319,,,A*70
$GPGGA,153924.600,4308.4711,N,07726.4356,W,1,08,0.98,156.4,M,-34.4,M,,*5D
lng=-77.440589, lat=43.141185, altitude=156.40, speed=0.03, satellites=8, angle=281.9400, fixquality=1
$GPRMC,153924.800,A,4308.4711,N,07726.4356,W,0.03,281.94,200319,,,A*7C
$GPGGA,153925.000,4308.4711,N,07726.4355,W,1,08,0.98,156.4,M,-34.4,M,,*59
lng=-77.440589, lat=43.141185, altitude=156.40, speed=0.03, satellites=8, angle=281.9400, fixquality=1
$GPRMC,153925.200,A,4308.4711,N,07726.4355,W,0.02,281.94,200319,,,A*75
$GPGGA,153925.400,4308.4711,N,07726.4355,W,1,08,0.98,156.4,M,-34.4,M,,*5D
lng=-77.440589, lat=43.141185, altitude=156.40, speed=0.02, satellites=8, angle=281.9400, fixquality=1
$GPRMC,153925.600,A,4308.4711,N,07726.4355,W,0.01,281.94,200319,,,A*72
$GPGGA,153925.800,4308.4711,N,07726.4355,W,1,08,0.98,156.4,M,-34.4,M,,*51
lng=-77.440589, lat=43.141185, altitude=156.40, speed=0.01, satellites=8, angle=281.9400, fixquality=1
$GPRMC,153926.000,A,4308.4711,N,07726.4355,W,0.02,281.94,200319,,,A*74
$GPGGA,153926.200,4308.4711,N,07726.4355,W,1,08,0.98,156.4,M,-34.4,M,,*58
lng=-77.440589, lat=43.141185, altitude=156.40, speed=0.02, satellites=8, angle=281.9400, fixquality=1
$GPRMC,153926.400,A,4308.4711,N,07726.4355,W,0.04,281.94,200319,,,A*76
$GPGGA,153926.600,4308.4711,N,07726.4354,W,1,08,0.98,156.4,M,-34.4,M,,*5D
lng=-77.440589, lat=43.141185, altitude=156.40, speed=0.04, satellites=8, angle=281.9400, fixquality=1
$GPRMC,153926.800,A,4308.4711,N,07726.4354,W,0.03,281.94,200319,,,A*7C
$GPGGA,153927.000,4308.4711,N,07726.4354,W,1,08,0.98,156.4,M,-34.4,M,,*5A
lng=-77.440589, lat=43.141185, altitude=156.40, speed=0.03, satellites=8, angle=281.9400, fixquality=1
$GPRMC,153927.200,A,4308.4711,N,07726.4354,W,0.05,281.94,200319,,,A*71
$GPGGA,153927.400,4308.4711,N,07726.4354,W,1,08,0.98,156.4,M,-34.4,M,,*5E
lng=-77.440589, lat=43.141185, altitude=156.40, speed=0.05, satellites=8, angle=281.9400, fixquality=1
$GPRMC,153927.600,A,4308.4711,N,07726.4354,W,0.03,281.94,200319,,,A*73
$GPGGA,153927.800,4308.4711,N,07726.4354,W,1,08,0.98,156.4,M,-34.4,M,,*52
lng=-77.440589, lat=43.141185, altitude=156.40, speed=0.03, satellites=8, angle=281.9400, fixquality=1
$GPRMC,153928.000,A,4308.4711,N,07726.4354,W,0.03,281.94,200319,,,A*7A
$GPGGA,153928.200,4308.4711,N,07726.4354,W,1,08,0.98,156.4,M,-34.4,M,,*57
lng=-77.440589, lat=43.141185, altitude=156.40, speed=0.03, satellites=8, angle=281.9400, fixquality=1
$GPRMC,153928.400,A,4308.4711,N,07726.4353,W,0.01,281.94,200319,,,A*7B
$GPGGA,153928.600,4308.4712,N,07726.4353,W,1,08,0.98,156.4,M,-34.4,M,,*57
lng=-77.440582, lat=43.141185, altitude=156.40, speed=0.01, satellites=8, angle=281.9400, fixquality=1
$GPRMC,153928.800,A,4308.4712,N,07726.4353,W,0.02,281.94,200319,,,A*77
$GPGGA,153929.000,4308.4712,N,07726.4353,W,1,08,0.98,156.4,M,-34.4,M,,*50
lng=-77.440582, lat=43.141185, altitude=156.40, speed=0.02, satellites=8, angle=281.9400, fixquality=1
$GPRMC,153929.200,A,4308.4712,N,07726.4353,W,0.03,281.94,200319,,,A*7D
$GPGGA,153929.400,4308.4712,N,07726.4353,W,1,08,0.98,156.3,M,-34.4,M,,*53
lng=-77.440582, lat=43.141185, altitude=156.40, speed=0.03, satellites=8, angle=281.9400, fixquality=1
$GPRMC,153929.600,A,4308.4712,N,07726.4353,W,0.03,281.94,200319,,,A*79
$GPGGA,153929.800,4308.4713,N,07726.4353,W,1,08,0.98,156.3,M,-34.4,M,,*5E
lng=-77.440582, lat=43.141185, altitude=156.30, speed=0.03, satellites=8, angle=281.9400, fixquality=1
$GPRMC,153930.000,A,4308.4713,N,07726.4353,W,0.03,281.94,200319,,,A*76
$GPGGA,153930.200,4308.4713,N,07726.4353,W,1,09,0.93,156.3,M,-34.4,M,,*56
lng=-77.440582, lat=43.141185, altitude=156.30, speed=0.03, satellites=8, angle=281.9400, fixquality=1
$GPRMC,153930.400,A,4308.4713,N,07726.4354,W,0.05,281.94,200319,,,A*73
$GPGGA,153930.600,4308.4713,N,07726.4353,W,1,09,0.93,156.3,M,-34.4,M,,*52
lng=-77.440589, lat=43.141185, altitude=156.30, speed=0.05, satellites=9, angle=281.9400, fixquality=1
$GPRMC,153930.800,A,4308.4713,N,07726.4354,W,0.04,281.94,200319,,,A*7E
$GPGGA,153931.000,4308.4713,N,07726.4354,W,1,09,0.93,156.3,M,-34.4,M,,*52
lng=-77.440589, lat=43.141185, altitude=156.30, speed=0.04, satellites=9, angle=281.9400, fixquality=1
$GPRMC,153931.200,A,4308.4713,N,07726.4354,W,0.06,281.94,200319,,,A*77
$GPGGA,153931.400,4308.4713,N,07726.4354,W,1,09,0.93,156.3,M,-34.4,M,,*56
lng=-77.440589, lat=43.141185, altitude=156.30, speed=0.06, satellites=9, angle=281.9400, fixquality=1
$GPRMC,153931.600,A,4308.4713,N,07726.4354,W,0.01,281.94,200319,,,A*74
$GPGGA,153931.800,4308.4713,N,07726.4354,W,1,09,0.93,156.2,M,-34.4,M,,*5B
lng=-77.440589, lat=43.141185, altitude=156.30, speed=0.01, satellites=9, angle=281.9400, fixquality=1
$GPRMC,153932.000,A,4308.4713,N,07726.4355,W,0.02,281.94,200319,,,A*73
$GPGGA,153932.200,4308.4714,N,07726.4355,W,1,09,0.93,156.2,M,-34.4,M,,*54
lng=-77.440589, lat=43.141185, altitude=156.20, speed=0.02, satellites=9, angle=281.9400, fixquality=1
$GPRMC,153932.400,A,4308.4714,N,07726.4355,W,0.01,281.94,200319,,,A*73
$GPGGA,153932.600,4308.4714,N,07726.4355,W,1,09,0.93,156.1,M,-34.4,M,,*53
lng=-77.440589, lat=43.141185, altitude=156.20, speed=0.01, satellites=9, angle=281.9400, fixquality=1
$GPRMC,153932.800,A,4308.4714,N,07726.4356,W,0.04,281.94,200319,,,A*79
$GPGGA,153933.000,4308.4715,N,07726.4356,W,1,09,0.93,156.1,M,-34.4,M,,*56
lng=-77.440589, lat=43.141185, altitude=156.10, speed=0.04, satellites=9, angle=281.9400, fixquality=1
$GPRMC,153933.200,A,4308.4715,N,07726.4356,W,0.02,281.94,200319,,,A*75
$GPGGA,153933.400,4308.4715,N,07726.4356,W,1,09,0.93,156.0,M,-34.4,M,,*53
lng=-77.440589, lat=43.141193, altitude=156.10, speed=0.02, satellites=9, angle=281.9400, fixquality=1
$GPRMC,153933.600,A,4308.4715,N,07726.4356,W,0.14,281.94,200319,,,A*76
$GPGGA,153933.800,4308.4715,N,07726.4357,W,1,09,0.93,156.0,M,-34.4,M,,*5E
lng=-77.440589, lat=43.141193, altitude=156.00, speed=0.14, satellites=9, angle=281.9400, fixquality=1
$GPRMC,153934.000,A,4308.4716,N,07726.4357,W,1.81,281.94,200319,,,A*78
$GPGGA,153934.200,4308.4716,N,07726.4359,W,1,09,0.93,156.0,M,-34.4,M,,*5E
lng=-77.440589, lat=43.141193, altitude=156.00, speed=1.81, satellites=9, angle=281.9400, fixquality=1
$GPRMC,153934.400,A,4308.4716,N,07726.4362,W,4.18,278.86,200319,,,A*7A
$GPGGA,153934.600,4308.4717,N,07726.4366,W,1,09,0.95,156.0,M,-34.4,M,,*51
lng=-77.440597, lat=43.141193, altitude=156.00, speed=4.18, satellites=9, angle=278.8600, fixquality=1
$GPRMC,153934.800,A,4308.4718,N,07726.4370,W,6.45,279.51,200319,,,A*7A
$GPGGA,153935.000,4308.4718,N,07726.4375,W,1,09,0.95,156.0,M,-34.4,M,,*5B
lng=-77.440620, lat=43.141193, altitude=156.00, speed=6.45, satellites=9, angle=279.5100, fixquality=1
$GPRMC,153935.200,A,4308.4719,N,07726.4382,W,8.63,279.07,200319,,,A*74
$GPGGA,153935.400,4308.4720,N,07726.4389,W,1,09,0.95,155.9,M,-34.4,M,,*5D
lng=-77.440635, lat=43.141193, altitude=156.00, speed=8.63, satellites=9, angle=279.0700, fixquality=1
$GPRMC,153935.600,A,4308.4720,N,07726.4397,W,10.74,279.50,200319,,,A*43
$GPGGA,153935.800,4308.4721,N,07726.4406,W,1,09,0.95,155.9,M,-34.4,M,,*50
lng=-77.440658, lat=43.141201, altitude=155.90, speed=10.74, satellites=9, angle=279.5000, fixquality=1
$GPRMC,153936.000,A,4308.4722,N,07726.4416,W,12.88,278.91,200319,,,A*47
$GPGGA,153936.200,4308.4723,N,07726.4426,W,1,09,0.95,155.8,M,-34.4,M,,*58
lng=-77.440689, lat=43.141201, altitude=155.90, speed=12.88, satellites=9, angle=278.9100, fixquality=1
$GPRMC,153936.400,A,4308.4724,N,07726.4437,W,14.37,278.86,200319,,,A*42
$GPGGA,153936.600,4308.4725,N,07726.4447,W,1,09,0.93,155.8,M,-34.4,M,,*5B
lng=-77.440727, lat=43.141201, altitude=155.80, speed=14.37, satellites=9, angle=278.8600, fixquality=1
$GPRMC,153936.800,A,4308.4727,N,07726.4459,W,15.42,277.48,200319,,,A*4B
$GPGGA,153937.000,4308.4728,N,07726.4471,W,1,09,0.93,155.8,M,-34.4,M,,*54
lng=-77.440765, lat=43.141212, altitude=155.80, speed=15.42, satellites=9, angle=277.4800, fixquality=1
$GPRMC,153937.200,A,4308.4730,N,07726.4484,W,17.63,278.45,200319,,,A*45
$GPGGA,153937.400,4308.4731,N,07726.4497,W,1,09,0.95,155.8,M,-34.4,M,,*56
lng=-77.440803, lat=43.141220, altitude=155.80, speed=17.63, satellites=9, angle=278.4500, fixquality=1
$GPRMC,153937.600,A,4308.4732,N,07726.4511,W,18.82,279.30,200319,,,A*4D
$GPGGA,153937.800,4308.4734,N,07726.4525,W,1,09,0.93,155.8,M,-34.4,M,,*51
lng=-77.440849, lat=43.141220, altitude=155.80, speed=18.82, satellites=9, angle=279.3000, fixquality=1
$GPRMC,153938.000,A,4308.4735,N,07726.4540,W,19.74,279.57,200319,,,A*4E
$GPGGA,153938.200,4308.4737,N,07726.4555,W,1,09,0.95,155.8,M,-34.4,M,,*56
lng=-77.440902, lat=43.141227, altitude=155.80, speed=19.74, satellites=9, angle=279.5700, fixquality=1
$GPRMC,153938.400,A,4308.4738,N,07726.4571,W,21.24,278.44,200319,,,A*48
$GPGGA,153938.600,4308.4740,N,07726.4587,W,1,09,0.93,155.8,M,-34.4,M,,*5B
lng=-77.440948, lat=43.141227, altitude=155.80, speed=21.24, satellites=9, angle=278.4400, fixquality=1
$GPRMC,153938.800,A,4308.4741,N,07726.4604,W,23.07,277.51,200319,,,A*43
$GPGGA,153939.000,4308.4742,N,07726.4622,W,1,09,0.95,155.8,M,-34.4,M,,*54
lng=-77.441009, lat=43.141235, altitude=155.80, speed=23.07, satellites=9, angle=277.5100, fixquality=1
$GPRMC,153939.200,A,4308.4743,N,07726.4640,W,24.03,276.49,200319,,,A*41
$GPGGA,153939.400,4308.4745,N,07726.4658,W,1,09,0.95,155.8,M,-34.4,M,,*5A
lng=-77.441062, lat=43.141235, altitude=155.80, speed=24.03, satellites=9, angle=276.4900, fixquality=1
$GPRMC,153939.600,A,4308.4747,N,07726.4676,W,25.09,277.04,200319,,,A*47
$GPGGA,153939.800,4308.4748,N,07726.4695,W,1,09,0.93,155.9,M,-34.4,M,,*5D
lng=-77.441131, lat=43.141242, altitude=155.80, speed=25.09, satellites=9, angle=277.0400, fixquality=1
$GPRMC,153940.000,A,4308.4750,N,07726.4715,W,26.06,277.70,200319,,,A*42
$GPGGA,153940.200,4308.4752,N,07726.4734,W,1,09,0.95,155.9,M,-34.4,M,,*5E
lng=-77.441192, lat=43.141250, altitude=155.90, speed=26.06, satellites=9, angle=277.7000, fixquality=1
$GPRMC,153940.400,A,4308.4753,N,07726.4754,W,26.32,277.15,200319,,,A*44
$GPGGA,153940.600,4308.4755,N,07726.4774,W,1,08,0.98,156.0,M,-34.4,M,,*5F
lng=-77.441261, lat=43.141250, altitude=155.90, speed=26.32, satellites=9, angle=277.1500, fixquality=1
$GPRMC,153940.800,A,4308.4756,N,07726.4794,W,26.53,276.66,200319,,,A*43
$GPGGA,153941.000,4308.4758,N,07726.4814,W,1,08,0.98,156.1,M,-34.4,M,,*5D
lng=-77.441322, lat=43.141258, altitude=156.00, speed=26.53, satellites=8, angle=276.6600, fixquality=1
$GPRMC,153941.200,A,4308.4759,N,07726.4834,W,27.15,276.23,200319,,,A*40
$GPGGA,153941.400,4308.4761,N,07726.4855,W,1,09,0.95,156.1,M,-34.4,M,,*5A
lng=-77.441390, lat=43.141269, altitude=156.10, speed=27.15, satellites=8, angle=276.2300, fixquality=1
$GPRMC,153941.600,A,4308.4762,N,07726.4876,W,27.16,276.27,200319,,,A*4D
$GPGGA,153941.800,4308.4764,N,07726.4897,W,1,09,0.93,156.2,M,-34.4,M,,*58
lng=-77.441459, lat=43.141269, altitude=156.10, speed=27.16, satellites=9, angle=276.2700, fixquality=1
$GPRMC,153942.000,A,4308.4766,N,07726.4918,W,27.49,275.79,200319,,,A*47
$GPGGA,153942.200,4308.4768,N,07726.4940,W,1,08,0.98,156.2,M,-34.4,M,,*5C
lng=-77.441528, lat=43.141277, altitude=156.20, speed=27.49, satellites=9, angle=275.7900, fixquality=1
$GPRMC,153942.400,A,4308.4769,N,07726.4963,W,29.69,275.82,200319,,,A*48
$GPGGA,153942.600,4308.4771,N,07726.4985,W,1,09,0.93,156.3,M,-34.4,M,,*52
lng=-77.441604, lat=43.141284, altitude=156.20, speed=29.69, satellites=8, angle=275.8200, fixquality=1
$GPRMC,153942.800,A,4308.4772,N,07726.5008,W,30.16,275.97,200319,,,A*4F
$GPGGA,153943.000,4308.4774,N,07726.5031,W,1,09,0.93,156.4,M,-34.4,M,,*50
lng=-77.441680, lat=43.141284, altitude=156.30, speed=30.16, satellites=9, angle=275.9700, fixquality=1
$GPRMC,153943.200,A,4308.4775,N,07726.5055,W,31.03,275.33,200319,,,A*40
$GPGGA,153943.400,4308.4777,N,07726.5079,W,1,09,0.95,156.4,M,-34.4,M,,*5D
lng=-77.441757, lat=43.141292, altitude=156.40, speed=31.03, satellites=9, angle=275.3300, fixquality=1
$GPRMC,153943.600,A,4308.4778,N,07726.5103,W,31.64,275.00,200319,,,A*4A
$GPGGA,153943.800,4308.4779,N,07726.5128,W,1,09,0.93,156.5,M,-34.4,M,,*5D
lng=-77.441841, lat=43.141300, altitude=156.40, speed=31.64, satellites=9, angle=275.0000, fixquality=1
$GPRMC,153944.000,A,4308.4781,N,07726.5154,W,31.97,274.41,200319,,,A*47
$GPGGA,153944.200,4308.4782,N,07726.5179,W,1,09,0.95,156.6,M,-34.4,M,,*55
lng=-77.441925, lat=43.141300, altitude=156.50, speed=31.97, satellites=9, angle=274.4100, fixquality=1
$GPRMC,153944.400,A,4308.4783,N,07726.5205,W,33.36,274.00,200319,,,A*4A
$GPGGA,153944.600,4308.4784,N,07726.5231,W,1,09,0.93,156.6,M,-34.4,M,,*5E
lng=-77.442008, lat=43.141307, altitude=156.60, speed=33.36, satellites=9, angle=274.0000, fixquality=1
$GPRMC,153944.800,A,4308.4785,N,07726.5258,W,34.02,273.63,200319,,,A*4A
$GPGGA,153945.000,4308.4786,N,07726.5284,W,1,09,0.95,156.7,M,-34.4,M,,*52
lng=-77.442100, lat=43.141307, altitude=156.60, speed=34.02, satellites=9, angle=273.6300, fixquality=1
$GPRMC,153945.200,A,4308.4787,N,07726.5312,W,34.88,273.45,200319,,,A*4A
$GPGGA,153945.400,4308.4788,N,07726.5339,W,1,09,0.95,156.7,M,-34.4,M,,*5F
lng=-77.442184, lat=43.141307, altitude=156.70, speed=34.88, satellites=9, angle=273.4500, fixquality=1
$GPRMC,153945.600,A,4308.4788,N,07726.5366,W,35.21,272.71,200319,,,A*46
$GPGGA,153945.800,4308.4789,N,07726.5393,W,1,09,0.93,156.7,M,-34.4,M,,*54
lng=-77.442276, lat=43.141315, altitude=156.70, speed=35.21, satellites=9, angle=272.7100, fixquality=1
$GPRMC,153946.000,A,4308.4790,N,07726.5421,W,35.55,273.04,200319,,,A*4E
$GPGGA,153946.200,4308.4791,N,07726.5450,W,1,09,0.95,156.8,M,-34.4,M,,*55
lng=-77.442367, lat=43.141315, altitude=156.70, speed=35.55, satellites=9, angle=273.0400, fixquality=1
$GPRMC,153946.400,A,4308.4792,N,07726.5478,W,36.60,273.30,200319,,,A*46
$GPGGA,153946.600,4308.4793,N,07726.5506,W,1,09,0.93,156.8,M,-34.4,M,,*57
lng=-77.442466, lat=43.141315, altitude=156.80, speed=36.60, satellites=9, angle=273.3000, fixquality=1
$GPRMC,153946.800,A,4308.4794,N,07726.5535,W,36.69,273.04,200319,,,A*4A
$GPGGA,153947.000,4308.4796,N,07726.5564,W,1,09,0.95,156.5,M,-34.4,M,,*5A
lng=-77.442558, lat=43.141323, altitude=156.80, speed=36.69, satellites=9, angle=273.0400, fixquality=1
$GPRMC,153947.200,A,4308.4797,N,07726.5593,W,37.13,273.20,200319,,,A*44
$GPGGA,153947.400,4308.4798,N,07726.5622,W,1,09,0.93,156.5,M,-34.4,M,,*57
lng=-77.442649, lat=43.141323, altitude=156.50, speed=37.13, satellites=9, angle=273.2000, fixquality=1
$GPRMC,153947.600,A,4308.4799,N,07726.5651,W,38.05,273.12,200319,,,A*4A
$GPGGA,153947.800,4308.4800,N,07726.5680,W,1,09,0.93,156.5,M,-34.4,M,,*5D
lng=-77.442749, lat=43.141334, altitude=156.50, speed=38.05, satellites=9, angle=273.1200, fixquality=1
$GPRMC,153948.000,A,4308.4802,N,07726.5710,W,38.51,273.10,200319,,,A*49
$GPGGA,153948.200,4308.4803,N,07726.5739,W,1,09,0.95,156.5,M,-34.4,M,,*5E
lng=-77.442848, lat=43.141334, altitude=156.50, speed=38.51, satellites=9, angle=273.1000, fixquality=1
$GPRMC,153948.400,A,4308.4804,N,07726.5769,W,38.79,272.90,200319,,,A*46
$GPGGA,153948.600,4308.4804,N,07726.5799,W,1,09,0.95,156.5,M,-34.4,M,,*57
lng=-77.442947, lat=43.141342, altitude=156.50, speed=38.79, satellites=9, angle=272.9000, fixquality=1
$GPRMC,153948.800,A,4308.4805,N,07726.5829,W,38.52,272.80,200319,,,A*48
$GPGGA,153949.000,4308.4806,N,07726.5859,W,1,09,0.95,156.5,M,-34.4,M,,*51
lng=-77.443046, lat=43.141342, altitude=156.50, speed=38.52, satellites=9, angle=272.8000, fixquality=1
$GPRMC,153949.200,A,4308.4807,N,07726.5888,W,38.16,272.73,200319,,,A*46
$GPGGA,153949.400,4308.4808,N,07726.5917,W,1,09,0.95,156.6,M,-34.4,M,,*53
lng=-77.443145, lat=43.141342, altitude=156.50, speed=38.16, satellites=9, angle=272.7300, fixquality=1
$GPRMC,153949.600,A,4308.4809,N,07726.5946,W,38.03,272.21,200319,,,A*4C
$GPGGA,153949.800,4308.4809,N,07726.5975,W,1,09,0.95,156.6,M,-34.4,M,,*5A
lng=-77.443244, lat=43.141349, altitude=156.60, speed=38.03, satellites=9, angle=272.2100, fixquality=1
$GPRMC,153950.000,A,4308.4810,N,07726.6004,W,37.12,272.12,200319,,,A*49
$GPGGA,153950.200,4308.4811,N,07726.6032,W,1,09,0.95,156.6,M,-34.4,M,,*58
lng=-77.443344, lat=43.141349, altitude=156.60, speed=37.12, satellites=9, angle=272.1200, fixquality=1
$GPRMC,153950.400,A,4308.4811,N,07726.6061,W,37.03,271.58,200319,,,A*42
$GPGGA,153950.600,4308.4812,N,07726.6089,W,1,09,0.95,156.7,M,-34.4,M,,*5E
lng=-77.443435, lat=43.141349, altitude=156.60, speed=37.03, satellites=9, angle=271.5800, fixquality=1
$GPRMC,153950.800,A,4308.4812,N,07726.6118,W,36.96,271.06,200319,,,A*44
$GPGGA,153951.000,4308.4812,N,07726.6146,W,1,09,0.95,156.7,M,-34.4,M,,*5B
lng=-77.443527, lat=43.141349, altitude=156.70, speed=36.96, satellites=9, angle=271.0600, fixquality=1
$GPRMC,153951.200,A,4308.4813,N,07726.6174,W,36.95,270.83,200319,,,A*4B
$GPGGA,153951.400,4308.4813,N,07726.6203,W,1,09,0.95,156.7,M,-34.4,M,,*5C
lng=-77.443618, lat=43.141357, altitude=156.70, speed=36.95, satellites=9, angle=270.8300, fixquality=1
$GPRMC,153951.600,A,4308.4812,N,07726.6231,W,36.98,270.17,200319,,,A*4C
$GPGGA,153951.800,4308.4812,N,07726.6260,W,1,09,0.95,156.7,M,-34.4,M,,*54
lng=-77.443717, lat=43.141349, altitude=156.70, speed=36.98, satellites=9, angle=270.1700, fixquality=1
$GPRMC,153952.000,A,4308.4812,N,07726.6288,W,37.02,269.87,200319,,,A*48
$GPGGA,153952.200,4308.4812,N,07726.6317,W,1,09,0.95,156.7,M,-34.4,M,,*5C
lng=-77.443817, lat=43.141349, altitude=156.70, speed=37.02, satellites=9, angle=269.8700, fixquality=1
$GPRMC,153952.400,A,4308.4811,N,07726.6345,W,37.18,268.99,200319,,,A*4A
$GPGGA,153952.600,4308.4811,N,07726.6374,W,1,09,0.95,156.7,M,-34.4,M,,*5E
lng=-77.443901, lat=43.141349, altitude=156.70, speed=37.18, satellites=9, angle=268.9900, fixquality=1
$GPRMC,153952.800,A,4308.4810,N,07726.6402,W,37.24,268.16,200319,,,A*4B
$GPGGA,153953.000,4308.4809,N,07726.6431,W,1,09,0.95,156.7,M,-34.4,M,,*56
lng=-77.444000, lat=43.141349, altitude=156.70, speed=37.24, satellites=9, angle=268.1600, fixquality=1
$GPRMC,153953.200,A,4308.4809,N,07726.6459,W,37.66,268.00,200319,,,A*47
$GPGGA,153953.400,4308.4808,N,07726.6488,W,1,09,0.95,156.7,M,-34.4,M,,*51
lng=-77.444099, lat=43.141349, altitude=156.70, speed=37.66, satellites=9, angle=268.0000, fixquality=1
$GPRMC,153953.600,A,4308.4807,N,07726.6517,W,37.78,267.68,200319,,,A*48
$GPGGA,153953.800,4308.4806,N,07726.6546,W,1,09,0.95,156.7,M,-34.4,M,,*50
lng=-77.444198, lat=43.141342, altitude=156.70, speed=37.78, satellites=9, angle=267.6800, fixquality=1
$GPRMC,153954.000,A,4308.4805,N,07726.6575,W,37.97,267.34,200319,,,A*47
$GPGGA,153954.200,4308.4804,N,07726.6604,W,1,09,0.95,156.7,M,-34.4,M,,*5A
lng=-77.444297, lat=43.141342, altitude=156.70, speed=37.97, satellites=9, angle=267.3400, fixquality=1
$GPRMC,153954.400,A,4308.4803,N,07726.6633,W,38.20,267.19,200319,,,A*48
$GPGGA,153954.600,4308.4802,N,07726.6662,W,1,09,0.95,156.8,M,-34.4,M,,*57
lng=-77.444381, lat=43.141342, altitude=156.70, speed=38.20, satellites=9, angle=267.1900, fixquality=1
$GPRMC,153954.800,A,4308.4801,N,07726.6691,W,38.26,267.04,200319,,,A*44
$GPGGA,153955.000,4308.4800,N,07726.6720,W,1,09,0.95,156.8,M,-34.4,M,,*55
lng=-77.444480, lat=43.141334, altitude=156.80, speed=38.26, satellites=9, angle=267.0400, fixquality=1
$GPRMC,153955.200,A,4308.4799,N,07726.6750,W,38.46,266.90,200319,,,A*47
$GPGGA,153955.400,4308.4798,N,07726.6779,W,1,09,0.95,156.9,M,-34.4,M,,*52
lng=-77.444580, lat=43.141334, altitude=156.80, speed=38.46, satellites=9, angle=266.9000, fixquality=1
$GPRMC,153955.600,A,4308.4796,N,07726.6808,W,38.59,266.46,200319,,,A*4B
$GPGGA,153955.800,4308.4795,N,07726.6838,W,1,09,0.95,157.0,M,-34.4,M,,*51
lng=-77.444679, lat=43.141323, altitude=156.90, speed=38.59, satellites=9, angle=266.4600, fixquality=1
$GPRMC,153956.000,A,4308.4793,N,07726.6867,W,38.70,266.29,200319,,,A*40
$GPGGA,153956.200,4308.4792,N,07726.6897,W,1,09,0.95,157.1,M,-34.4,M,,*5B
lng=-77.444778, lat=43.141323, altitude=157.00, speed=38.70, satellites=9, angle=266.2900, fixquality=1
$GPRMC,153956.400,A,4308.4790,N,07726.6926,W,38.92,266.27,200319,,,A*41
$GPGGA,153956.600,4308.4789,N,07726.6956,W,1,09,0.95,157.2,M,-34.4,M,,*5A
lng=-77.444869, lat=43.141315, altitude=157.10, speed=38.92, satellites=9, angle=266.2700, fixquality=1
$GPRMC,153956.800,A,4308.4787,N,07726.6985,W,38.95,266.02,200319,,,A*42
$GPGGA,153957.000,4308.4785,N,07726.7015,W,1,09,0.95,157.3,M,-34.4,M,,*5F
lng=-77.444976, lat=43.141307, altitude=157.20, speed=38.95, satellites=9, angle=266.0200, fixquality=1
$GPRMC,153957.200,A,4308.4783,N,07726.7044,W,39.03,265.85,200319,,,A*4A
$GPGGA,153957.400,4308.4781,N,07726.7074,W,1,09,0.95,157.5,M,-34.4,M,,*5E
lng=-77.445075, lat=43.141307, altitude=157.30, speed=39.03, satellites=9, angle=265.8500, fixquality=1
$GPRMC,153957.600,A,4308.4779,N,07726.7104,W,39.10,265.41,200319,,,A*44
$GPGGA,153957.800,4308.4777,N,07726.7133,W,1,09,0.95,157.6,M,-34.4,M,,*5A
lng=-77.445175, lat=43.141300, altitude=157.50, speed=39.10, satellites=9, angle=265.4100, fixquality=1
$GPRMC,153958.000,A,4308.4775,N,07726.7163,W,39.49,265.30,200319,,,A*4A
$GPGGA,153958.200,4308.4773,N,07726.7193,W,1,09,0.95,157.8,M,-34.4,M,,*5F
lng=-77.445274, lat=43.141292, altitude=157.60, speed=39.49, satellites=9, angle=265.3000, fixquality=1
$GPRMC,153958.400,A,4308.4771,N,07726.7223,W,39.88,265.58,200319,,,A*4E
$GPGGA,153958.600,4308.4770,N,07726.7253,W,1,09,0.95,158.0,M,-34.4,M,,*50
lng=-77.445365, lat=43.141284, altitude=157.80, speed=39.88, satellites=9, angle=265.5800, fixquality=1
$GPRMC,153958.800,A,4308.4768,N,07726.7284,W,40.25,265.92,200319,,,A*48
$GPGGA,153959.000,4308.4766,N,07726.7314,W,1,09,0.95,158.2,M,-34.4,M,,*50
lng=-77.445472, lat=43.141277, altitude=158.00, speed=40.25, satellites=9, angle=265.9200, fixquality=1
$GPRMC,153959.200,A,4308.4765,N,07726.7345,W,40.39,266.09,200319,,,A*4E
$GPGGA,153959.400,4308.4763,N,07726.7376,W,1,09,0.95,158.3,M,-34.4,M,,*54
lng=-77.445571, lat=43.141277, altitude=158.20, speed=40.39, satellites=9, angle=266.0900, fixquality=1
$GPRMC,153959.600,A,4308.4761,N,07726.7406,W,40.69,265.83,200319,,,A*4A
$GPGGA,153959.800,4308.4760,N,07726.7437,W,1,09,0.95,158.5,M,-34.4,M,,*5F
lng=-77.445678, lat=43.141269, altitude=158.30, speed=40.69, satellites=9, angle=265.8300, fixquality=1
$GPRMC,154000.000,A,4308.4758,N,07726.7468,W,40.11,266.17,200319,,,A*4D
$GPGGA,154000.200,4308.4757,N,07726.7498,W,1,09,0.95,158.7,M,-34.4,M,,*54
lng=-77.445777, lat=43.141258, altitude=158.50, speed=40.11, satellites=9, angle=266.1700, fixquality=1
$GPRMC,154000.400,A,4308.4755,N,07726.7528,W,40.01,265.62,200319,,,A*41
$GPGGA,154000.600,4308.4753,N,07726.7558,W,1,09,0.95,158.9,M,-34.4,M,,*57
lng=-77.445884, lat=43.141258, altitude=158.70, speed=40.01, satellites=9, angle=265.6200, fixquality=1
$GPRMC,154000.800,A,4308.4752,N,07726.7587,W,39.12,265.60,200319,,,A*41
$GPGGA,154001.000,4308.4750,N,07726.7617,W,1,09,0.95,159.0,M,-34.4,M,,*53
lng=-77.445976, lat=43.141250, altitude=158.90, speed=39.12, satellites=9, angle=265.6000, fixquality=1
$GPRMC,154001.200,A,4308.4748,N,07726.7646,W,39.18,265.51,200319,,,A*47
$GPGGA,154001.400,4308.4746,N,07726.7675,W,1,09,0.95,159.1,M,-34.4,M,,*55
lng=-77.446075, lat=43.141242, altitude=159.00, speed=39.18, satellites=9, angle=265.5100, fixquality=1
$GPRMC,154001.600,A,4308.4744,N,07726.7704,W,38.85,264.96,200319,,,A*47
$GPGGA,154001.800,4308.4743,N,07726.7733,W,1,09,0.95,159.1,M,-34.4,M,,*5F
lng=-77.446174, lat=43.141242, altitude=159.10, speed=38.85, satellites=9, angle=264.9600, fixquality=1
$GPRMC,154002.000,A,4308.4741,N,07726.7761,W,38.70,265.02,200319,,,A*42
$GPGGA,154002.200,4308.4739,N,07726.7790,W,1,09,0.93,159.1,M,-34.4,M,,*54
lng=-77.446266, lat=43.141235, altitude=159.10, speed=38.70, satellites=9, angle=265.0200, fixquality=1
$GPRMC,154002.400,A,4308.4737,N,07726.7818,W,38.42,264.78,200319,,,A*4B
$GPGGA,154002.600,4308.4735,N,07726.7847,W,1,09,0.93,159.2,M,-34.4,M,,*5A
lng=-77.446365, lat=43.141227, altitude=159.10, speed=38.42, satellites=9, angle=264.7800, fixquality=1
$GPRMC,154002.800,A,4308.4734,N,07726.7875,W,37.73,264.99,200319,,,A*4D
$GPGGA,154003.000,4308.4732,N,07726.7904,W,1,09,0.93,159.2,M,-34.4,M,,*5C
lng=-77.446456, lat=43.141227, altitude=159.20, speed=37.73, satellites=9, angle=264.9900, fixquality=1
$GPRMC,154003.200,A,4308.4730,N,07726.7933,W,37.96,265.03,200319,,,A*48
$GPGGA,154003.400,4308.4728,N,07726.7962,W,1,09,0.95,159.1,M,-34.4,M,,*56
lng=-77.446556, lat=43.141220, altitude=159.20, speed=37.96, satellites=9, angle=265.0300, fixquality=1
$GPRMC,154003.600,A,4308.4726,N,07726.7991,W,37.82,264.96,200319,,,A*4B
$GPGGA,154003.800,4308.4724,N,07726.8020,W,1,09,0.93,159.1,M,-34.4,M,,*50
lng=-77.446655, lat=43.141212, altitude=159.10, speed=37.82, satellites=9, angle=264.9600, fixquality=1
$GPRMC,154004.000,A,4308.4722,N,07726.8049,W,38.61,264.89,200319,,,A*41
$GPGGA,154004.200,4308.4720,N,07726.8078,W,1,09,0.93,159.1,M,-34.4,M,,*54
lng=-77.446746, lat=43.141201, altitude=159.10, speed=38.61, satellites=9, angle=264.8900, fixquality=1
$GPRMC,154004.400,A,4308.4718,N,07726.8107,W,38.56,265.31,200319,,,A*41
$GPGGA,154004.600,4308.4716,N,07726.8137,W,1,09,0.93,159.0,M,-34.4,M,,*5E
lng=-77.446846, lat=43.141193, altitude=159.10, speed=38.56, satellites=9, angle=265.3100, fixquality=1
$GPRMC,154004.800,A,4308.4715,N,07726.8166,W,39.04,265.94,200319,,,A*4E
$GPGGA,154005.000,4308.4713,N,07726.8196,W,1,09,0.93,159.0,M,-34.4,M,,*57
lng=-77.446937, lat=43.141193, altitude=159.00, speed=39.04, satellites=9, angle=265.9400, fixquality=1
$GPRMC,154005.200,A,4308.4711,N,07726.8226,W,39.20,265.94,200319,,,A*40
$GPGGA,154005.400,4308.4709,N,07726.8256,W,1,09,0.93,159.0,M,-34.4,M,,*57
lng=-77.447044, lat=43.141185, altitude=159.00, speed=39.20, satellites=9, angle=265.9400, fixquality=1
$GPRMC,154005.600,A,4308.4707,N,07726.8286,W,39.31,265.77,200319,,,A*44
$GPGGA,154005.800,4308.4705,N,07726.8316,W,1,09,0.93,159.0,M,-34.4,M,,*52
lng=-77.447143, lat=43.141178, altitude=159.00, speed=39.31, satellites=9, angle=265.7700, fixquality=1
$GPRMC,154006.000,A,4308.4703,N,07726.8346,W,39.35,265.81,200319,,,A*45
$GPGGA,154006.200,4308.4701,N,07726.8376,W,1,09,0.93,159.0,M,-34.4,M,,*59
lng=-77.447242, lat=43.141170, altitude=159.00, speed=39.35, satellites=9, angle=265.8100, fixquality=1
$GPRMC,154006.400,A,4308.4699,N,07726.8406,W,39.43,265.62,200319,,,A*4C
$GPGGA,154006.600,4308.4698,N,07726.8435,W,1,09,0.93,159.0,M,-34.4,M,,*5C
lng=-77.447349, lat=43.141162, altitude=159.00, speed=39.43, satellites=9, angle=265.6200, fixquality=1
$GPRMC,154006.800,A,4308.4696,N,07726.8465,W,39.44,265.74,200319,,,A*4A
$GPGGA,154007.000,4308.4694,N,07726.8495,W,1,09,0.93,159.0,M,-34.4,M,,*5D
lng=-77.447441, lat=43.141162, altitude=159.00, speed=39.44, satellites=9, angle=265.7400, fixquality=1
$GPRMC,154007.200,A,4308.4692,N,07726.8525,W,39.24,265.60,200319,,,A*43
$GPGGA,154007.400,4308.4690,N,07726.8555,W,1,09,0.93,158.9,M,-34.4,M,,*58
lng=-77.447540, lat=43.141155, altitude=159.00, speed=39.24, satellites=9, angle=265.6000, fixquality=1
$GPRMC,154007.600,A,4308.4688,N,07726.8584,W,39.02,265.58,200319,,,A*48
$GPGGA,154007.800,4308.4686,N,07726.8614,W,1,09,0.93,158.9,M,-34.4,M,,*55
lng=-77.447639, lat=43.141147, altitude=158.90, speed=39.02, satellites=9, angle=265.5800, fixquality=1
$GPRMC,154008.000,A,4308.4685,N,07726.8643,W,38.80,265.47,200319,,,A*41
$GPGGA,154008.200,4308.4683,N,07726.8673,W,1,09,0.95,158.8,M,-34.4,M,,*53
lng=-77.447738, lat=43.141136, altitude=158.90, speed=38.80, satellites=9, angle=265.4700, fixquality=1
$GPRMC,154008.400,A,4308.4680,N,07726.8703,W,39.02,265.48,200319,,,A*41
$GPGGA,154008.600,4308.4678,N,07726.8733,W,1,09,0.93,158.8,M,-34.4,M,,*50
lng=-77.447837, lat=43.141128, altitude=158.80, speed=39.02, satellites=9, angle=265.4800, fixquality=1
$GPRMC,154008.800,A,4308.4676,N,07726.8763,W,39.24,265.33,200319,,,A*4A
$GPGGA,154009.000,4308.4674,N,07726.8793,W,1,09,0.93,158.8,M,-34.4,M,,*51
lng=-77.447944, lat=43.141128, altitude=158.80, speed=39.24, satellites=9, angle=265.3300, fixquality=1
$GPRMC,154009.200,A,4308.4672,N,07726.8823,W,39.53,265.19,200319,,,A*46
$GPGGA,154009.400,4308.4669,N,07726.8853,W,1,09,0.95,158.7,M,-34.4,M,,*53
lng=-77.448036, lat=43.141120, altitude=158.80, speed=39.53, satellites=9, angle=265.1900, fixquality=1
$GPRMC,154009.600,A,4308.4667,N,07726.8883,W,39.78,264.94,200319,,,A*41
$GPGGA,154009.800,4308.4665,N,07726.8914,W,1,09,0.93,158.7,M,-34.4,M,,*57
lng=-77.448135, lat=43.141113, altitude=158.70, speed=39.78, satellites=9, angle=264.9400, fixquality=1
$GPRMC,154010.000,A,4308.4663,N,07726.8944,W,40.21,264.93,200319,,,A*44
$GPGGA,154010.200,4308.4661,N,07726.8975,W,1,09,0.95,158.6,M,-34.4,M,,*51
lng=-77.448242, lat=43.141105, altitude=158.70, speed=40.21, satellites=9, angle=264.9300, fixquality=1
$GPRMC,154010.400,A,4308.4659,N,07726.9006,W,40.64,264.91,200319,,,A*44
$GPGGA,154010.600,4308.4656,N,07726.9037,W,1,09,0.93,158.6,M,-34.4,M,,*59
lng=-77.448341, lat=43.141098, altitude=158.60, speed=40.64, satellites=9, angle=264.9100, fixquality=1
$GPRMC,154010.800,A,4308.4654,N,07726.9068,W,40.90,265.06,200319,,,A*49
$GPGGA,154011.000,4308.4652,N,07726.9099,W,1,09,0.93,158.5,M,-34.4,M,,*5D
lng=-77.448448, lat=43.141090, altitude=158.60, speed=40.90, satellites=9, angle=265.0600, fixquality=1
$GPRMC,154011.200,A,4308.4650,N,07726.9130,W,40.95,264.85,200319,,,A*45
$GPGGA,154011.400,4308.4647,N,07726.9161,W,1,09,0.95,158.4,M,-34.4,M,,*5C
lng=-77.448554, lat=43.141078, altitude=158.50, speed=40.95, satellites=9, angle=264.8500, fixquality=1
$GPRMC,154011.600,A,4308.4645,N,07726.9193,W,41.08,264.48,200319,,,A*48
$GPGGA,154011.800,4308.4643,N,07726.9224,W,1,09,0.93,158.3,M,-34.4,M,,*57
lng=-77.448654, lat=43.141071, altitude=158.40, speed=41.08, satellites=9, angle=264.4800, fixquality=1
$GPRMC,154012.000,A,4308.4640,N,07726.9256,W,41.30,264.58,200319,,,A*48
$GPGGA,154012.200,4308.4638,N,07726.9287,W,1,09,0.95,158.1,M,-34.4,M,,*5F
lng=-77.448760, lat=43.141063, altitude=158.30, speed=41.30, satellites=9, angle=264.5800, fixquality=1
$GPRMC,154012.400,A,4308.4636,N,07726.9319,W,41.82,264.73,200319,,,A*47
$GPGGA,154012.600,4308.4634,N,07726.9351,W,1,09,0.93,158.0,M,-34.4,M,,*5A
lng=-77.448867, lat=43.141056, altitude=158.10, speed=41.82, satellites=9, angle=264.7300, fixquality=1
$GPRMC,154012.800,A,4308.4632,N,07726.9383,W,42.05,265.07,200319,,,A*42
$GPGGA,154013.000,4308.4630,N,07726.9416,W,1,09,0.95,157.8,M,-34.4,M,,*5C
lng=-77.448974, lat=43.141056, altitude=158.00, speed=42.05, satellites=9, angle=265.0700, fixquality=1
$GPRMC,154013.200,A,4308.4628,N,07726.9448,W,42.42,265.47,200319,,,A*45
$GPGGA,154013.400,4308.4626,N,07726.9481,W,1,09,0.95,157.7,M,-34.4,M,,*5E
lng=-77.449081, lat=43.141048, altitude=157.80, speed=42.42, satellites=9, angle=265.4700, fixquality=1
$GPRMC,154013.600,A,4308.4624,N,07726.9513,W,42.80,265.62,200319,,,A*4B
$GPGGA,154013.800,4308.4622,N,07726.9546,W,1,09,0.93,157.4,M,-34.4,M,,*59
lng=-77.449188, lat=43.141040, altitude=157.70, speed=42.80, satellites=9, angle=265.6200, fixquality=1
$GPRMC,154014.000,A,4308.4620,N,07726.9579,W,43.04,265.81,200319,,,A*42
$GPGGA,154014.200,4308.4618,N,07726.9612,W,1,09,0.95,157.2,M,-34.4,M,,*5F
lng=-77.449302, lat=43.141033, altitude=157.40, speed=43.04, satellites=9, angle=265.8100, fixquality=1
$GPRMC,154014.400,A,4308.4616,N,07726.9645,W,43.24,265.64,200319,,,A*46
$GPGGA,154014.600,4308.4614,N,07726.9678,W,1,09,0.93,157.0,M,-34.4,M,,*5F
lng=-77.449409, lat=43.141025, altitude=157.20, speed=43.24, satellites=9, angle=265.6400, fixquality=1
$GPRMC,154014.800,A,4308.4612,N,07726.9711,W,43.49,265.51,200319,,,A*43
$GPGGA,154015.000,4308.4610,N,07726.9744,W,1,09,0.95,156.8,M,-34.4,M,,*5D
lng=-77.449516, lat=43.141025, altitude=157.00, speed=43.49, satellites=9, angle=265.5100, fixquality=1
$GPRMC,154015.200,A,4308.4608,N,07726.9777,W,43.51,265.50,200319,,,A*4B
$GPGGA,154015.400,4308.4606,N,07726.9811,W,1,09,0.95,156.6,M,-34.4,M,,*5F
lng=-77.449623, lat=43.141014, altitude=156.80, speed=43.51, satellites=9, angle=265.5000, fixquality=1
$GPRMC,154015.600,A,4308.4603,N,07726.9844,W,43.76,265.23,200319,,,A*4A
$GPGGA,154015.800,4308.4601,N,07726.9877,W,1,09,0.93,156.4,M,-34.4,M,,*50
lng=-77.449737, lat=43.141006, altitude=156.60, speed=43.76, satellites=9, angle=265.2300, fixquality=1
$GPRMC,154016.000,A,4308.4599,N,07726.9911,W,43.96,265.23,200319,,,A*40
$GPGGA,154016.200,4308.4597,N,07726.9945,W,1,09,0.95,156.2,M,-34.4,M,,*55
lng=-77.449851, lat=43.140998, altitude=156.40, speed=43.96, satellites=9, angle=265.2300, fixquality=1
$GPRMC,154016.400,A,4308.4595,N,07726.9979,W,44.25,265.72,200319,,,A*4D
$GPGGA,154016.600,4308.4593,N,07727.0012,W,1,09,0.95,156.0,M,-34.4,M,,*54
lng=-77.449966, lat=43.140991, altitude=156.20, speed=44.25, satellites=9, angle=265.7200, fixquality=1
$GPRMC,154016.800,A,4308.4591,N,07727.0046,W,44.28,265.98,200319,,,A*41
$GPGGA,154017.000,4308.4589,N,07727.0080,W,1,09,0.95,155.7,M,-34.4,M,,*57
lng=-77.450073, lat=43.140983, altitude=156.00, speed=44.28, satellites=9, angle=265.9800, fixquality=1
$GPRMC,154017.200,A,4308.4587,N,07727.0113,W,44.27,266.36,200319,,,A*44
$GPGGA,154017.400,4308.4585,N,07727.0147,W,1,09,0.95,155.5,M,-34.4,M,,*57
lng=-77.450187, lat=43.140975, altitude=155.70, speed=44.27, satellites=9, angle=266.3600, fixquality=1
$GPRMC,154017.600,A,4308.4583,N,07727.0181,W,44.43,266.55,200319,,,A*48
$GPGGA,154017.800,4308.4581,N,07727.0215,W,1,09,0.93,155.2,M,-34.4,M,,*5A
lng=-77.450302, lat=43.140975, altitude=155.50, speed=44.43, satellites=9, angle=266.5500, fixquality=1
$GPRMC,154018.000,A,4308.4580,N,07727.0248,W,44.20,267.26,200319,,,A*44
$GPGGA,154018.200,4308.4579,N,07727.0282,W,1,09,0.95,154.9,M,-34.4,M,,*5A
lng=-77.450416, lat=43.140968, altitude=155.20, speed=44.20, satellites=9, angle=267.2600, fixquality=1
$GPRMC,154018.400,A,4308.4577,N,07727.0315,W,44.06,268.11,200319,,,A*4E
$GPGGA,154018.600,4308.4577,N,07727.0349,W,1,09,0.95,154.7,M,-34.4,M,,*58
lng=-77.450531, lat=43.140956, altitude=154.90, speed=44.06, satellites=9, angle=268.1100, fixquality=1
$GPRMC,154018.800,A,4308.4576,N,07727.0382,W,43.66,268.90,200319,,,A*45
$GPGGA,154019.000,4308.4575,N,07727.0415,W,1,09,0.95,154.5,M,-34.4,M,,*51
lng=-77.450637, lat=43.140956, altitude=154.70, speed=43.66, satellites=9, angle=268.9000, fixquality=1
$GPRMC,154019.200,A,4308.4575,N,07727.0448,W,43.54,269.86,200319,,,A*4B
$GPGGA,154019.400,4308.4575,N,07727.0481,W,1,09,0.95,154.2,M,-34.4,M,,*5F
lng=-77.450752, lat=43.140956, altitude=154.50, speed=43.54, satellites=9, angle=269.8600, fixquality=1
$GPRMC,154019.600,A,4308.4575,N,07727.0514,W,43.10,271.20,200319,,,A*42
$GPGGA,154019.800,4308.4576,N,07727.0546,W,1,09,0.95,154.0,M,-34.4,M,,*58
lng=-77.450851, lat=43.140956, altitude=154.20, speed=43.10, satellites=9, angle=271.2000, fixquality=1
$GPRMC,154020.000,A,4308.4577,N,07727.0579,W,43.03,271.47,200319,,,A*44
$GPGGA,154020.200,4308.4577,N,07727.0611,W,1,09,0.95,153.8,M,-34.4,M,,*57
lng=-77.450965, lat=43.140956, altitude=154.00, speed=43.03, satellites=9, angle=271.4700, fixquality=1
$GPRMC,154020.400,A,4308.4578,N,07727.0643,W,42.82,272.33,200319,,,A*4D
$GPGGA,154020.600,4308.4580,N,07727.0676,W,1,09,0.93,153.5,M,-34.4,M,,*51
lng=-77.451072, lat=43.140968, altitude=153.80, speed=42.82, satellites=9, angle=272.3300, fixquality=1
$GPRMC,154020.800,A,4308.4581,N,07727.0708,W,42.81,272.33,200319,,,A*4A
$GPGGA,154021.000,4308.4583,N,07727.0741,W,1,09,0.95,153.3,M,-34.4,M,,*50
lng=-77.451179, lat=43.140968, altitude=153.50, speed=42.81, satellites=9, angle=272.3300, fixquality=1
$GPRMC,154021.200,A,4308.4584,N,07727.0773,W,42.76,273.14,200319,,,A*44
$GPGGA,154021.400,4308.4587,N,07727.0806,W,1,09,0.93,153.1,M,-34.4,M,,*58
lng=-77.451286, lat=43.140975, altitude=153.30, speed=42.76, satellites=9, angle=273.1400, fixquality=1
$GPRMC,154021.600,A,4308.4589,N,07727.0838,W,42.32,273.99,200319,,,A*48
$GPGGA,154021.800,4308.4591,N,07727.0869,W,1,09,0.93,152.9,M,-34.4,M,,*53
lng=-77.451400, lat=43.140983, altitude=153.10, speed=42.32, satellites=9, angle=273.9900, fixquality=1
$GPRMC,154022.000,A,4308.4593,N,07727.0901,W,41.83,274.08,200319,,,A*4B
$GPGGA,154022.200,4308.4595,N,07727.0933,W,1,09,0.95,152.6,M,-34.4,M,,*59
lng=-77.451507, lat=43.140991, altitude=152.90, speed=41.83, satellites=9, angle=274.0800, fixquality=1
$GPRMC,154022.400,A,4308.4598,N,07727.0965,W,41.76,274.68,200319,,,A*4A
$GPGGA,154022.600,4308.4600,N,07727.0996,W,1,09,0.93,152.4,M,-34.4,M,,*59
lng=-77.451614, lat=43.140998, altitude=152.60, speed=41.76, satellites=9, angle=274.6800, fixquality=1
$GPRMC,154022.800,A,4308.4603,N,07727.1028,W,41.81,275.64,200319,,,A*43
$GPGGA,154023.000,4308.4607,N,07727.1060,W,1,09,0.95,152.2,M,-34.4,M,,*58
lng=-77.451713, lat=43.141006, altitude=152.40, speed=41.81, satellites=9, angle=275.6400, fixquality=1
$GPRMC,154023.200,A,4308.4611,N,07727.1092,W,42.22,276.90,200319,,,A*48
$GPGGA,154023.400,4308.4615,N,07727.1124,W,1,09,0.95,152.1,M,-34.4,M,,*5D
lng=-77.451820, lat=43.141014, altitude=152.20, speed=42.22, satellites=9, angle=276.9000, fixquality=1
$GPRMC,154023.600,A,4308.4619,N,07727.1156,W,42.48,278.13,200319,,,A*44
$GPGGA,154023.800,4308.4623,N,07727.1188,W,1,09,0.93,152.0,M,-34.4,M,,*55
lng=-77.451927, lat=43.141033, altitude=152.10, speed=42.48, satellites=9, angle=278.1300, fixquality=1
$GPRMC,154024.000,A,4308.4627,N,07727.1221,W,42.89,278.68,200319,,,A*4A
$GPGGA,154024.200,4308.4631,N,07727.1253,W,1,09,0.95,151.9,M,-34.4,M,,*52
lng=-77.452033, lat=43.141048, altitude=152.00, speed=42.89, satellites=9, angle=278.6800, fixquality=1
$GPRMC,154024.400,A,4308.4635,N,07727.1286,W,42.99,278.53,200319,,,A*49
$GPGGA,154024.600,4308.4639,N,07727.1318,W,1,09,0.93,151.8,M,-34.4,M,,*57
lng=-77.452140, lat=43.141056, altitude=151.90, speed=42.99, satellites=9, angle=278.5300, fixquality=1
$GPRMC,154024.800,A,4308.4643,N,07727.1351,W,43.02,278.51,200319,,,A*4E
$GPGGA,154025.000,4308.4647,N,07727.1383,W,1,09,0.93,151.7,M,-34.4,M,,*54
lng=-77.452255, lat=43.141071, altitude=151.80, speed=43.02, satellites=9, angle=278.5100, fixquality=1
$GPRMC,154025.200,A,4308.4651,N,07727.1415,W,43.04,278.52,200319,,,A*44
$GPGGA,154025.400,4308.4655,N,07727.1448,W,1,09,0.93,151.7,M,-34.4,M,,*53
lng=-77.452362, lat=43.141090, altitude=151.70, speed=43.04, satellites=9, angle=278.5200, fixquality=1
$GPRMC,154025.600,A,4308.4660,N,07727.1480,W,43.25,279.11,200319,,,A*4B
$GPGGA,154025.800,4308.4664,N,07727.1513,W,1,08,1.12,151.6,M,-34.4,M,,*5A
lng=-77.452468, lat=43.141098, altitude=151.70, speed=43.25, satellites=9, angle=279.1100, fixquality=1
$GPRMC,154026.000,A,4308.4668,N,07727.1545,W,43.30,279.41,200319,,,A*4F
$GPGGA,154026.200,4308.4672,N,07727.1578,W,1,08,1.12,151.6,M,-34.4,M,,*59
lng=-77.452568, lat=43.141113, altitude=151.60, speed=43.30, satellites=8, angle=279.4100, fixquality=1
$GPRMC,154026.400,A,4308.4676,N,07727.1610,W,43.34,279.82,200319,,,A*4C
$GPGGA,154026.600,4308.4680,N,07727.1643,W,1,08,1.12,151.5,M,-34.4,M,,*58
lng=-77.452682, lat=43.141128, altitude=151.60, speed=43.34, satellites=8, angle=279.8200, fixquality=1
$GPRMC,154026.800,A,4308.4684,N,07727.1675,W,43.48,279.75,200319,,,A*4D
$GPGGA,154027.000,4308.4688,N,07727.1708,W,1,09,0.93,151.4,M,-34.4,M,,*51
lng=-77.452789, lat=43.141136, altitude=151.50, speed=43.48, satellites=8, angle=279.7500, fixquality=1
$GPRMC,154027.200,A,4308.4692,N,07727.1740,W,43.47,279.73,200319,,,A*4F
$GPGGA,154027.400,4308.4696,N,07727.1773,W,1,09,0.95,151.3,M,-34.4,M,,*57
lng=-77.452896, lat=43.141155, altitude=151.40, speed=43.47, satellites=9, angle=279.7300, fixquality=1
$GPRMC,154027.600,A,4308.4700,N,07727.1805,W,43.44,279.38,200319,,,A*43
$GPGGA,154027.800,4308.4703,N,07727.1838,W,1,08,1.12,151.2,M,-34.4,M,,*58
lng=-77.453010, lat=43.141170, altitude=151.30, speed=43.44, satellites=9, angle=279.3800, fixquality=1
$GPRMC,154028.000,A,4308.4707,N,07727.1871,W,43.41,278.96,200319,,,A*4E
$GPGGA,154028.200,4308.4711,N,07727.1904,W,1,08,1.12,151.1,M,-34.4,M,,*53
lng=-77.453117, lat=43.141178, altitude=151.20, speed=43.41, satellites=8, angle=278.9600, fixquality=1
$GPRMC,154028.400,A,4308.4714,N,07727.1936,W,43.38,278.96,200319,,,A*44
$GPGGA,154028.600,4308.4718,N,07727.1969,W,1,08,1.12,150.9,M,-34.4,M,,*5C
lng=-77.453224, lat=43.141185, altitude=151.10, speed=43.38, satellites=8, angle=278.9600, fixquality=1
$GPRMC,154028.800,A,4308.4721,N,07727.2002,W,43.37,279.11,200319,,,A*42
$GPGGA,154029.000,4308.4725,N,07727.2035,W,1,09,0.95,150.8,M,-34.4,M,,*58
lng=-77.453338, lat=43.141201, altitude=150.90, speed=43.37, satellites=8, angle=279.1100, fixquality=1
$GPRMC,154029.200,A,4308.4729,N,07727.2067,W,43.36,278.63,200319,,,A*47
$GPGGA,154029.400,4308.4734,N,07727.2100,W,1,09,0.95,150.6,M,-34.4,M,,*55
lng=-77.453445, lat=43.141212, altitude=150.80, speed=43.36, satellites=9, angle=278.6300, fixquality=1
$GPRMC,154029.600,A,4308.4738,N,07727.2133,W,43.40,279.55,200319,,,A*46
$GPGGA,154029.800,4308.4742,N,07727.2166,W,1,09,0.95,150.6,M,-34.4,M,,*58
lng=-77.453559, lat=43.141227, altitude=150.60, speed=43.40, satellites=9, angle=279.5500, fixquality=1
$GPRMC,154030.000,A,4308.4746,N,07727.2198,W,43.41,279.60,200319,,,A*47
$GPGGA,154030.200,4308.4750,N,07727.2231,W,1,09,0.95,150.4,M,-34.4,M,,*5A
lng=-77.453659, lat=43.141242, altitude=150.60, speed=43.41, satellites=9, angle=279.6000, fixquality=1
$GPRMC,154030.400,A,4308.4754,N,07727.2264,W,43.44,279.18,200319,,,A*4A
$GPGGA,154030.600,4308.4758,N,07727.2297,W,1,09,0.93,150.4,M,-34.4,M,,*5C
lng=-77.453773, lat=43.141258, altitude=150.40, speed=43.44, satellites=9, angle=279.1800, fixquality=1
$GPRMC,154030.800,A,4308.4763,N,07727.2329,W,43.19,279.38,200319,,,A*40
$GPGGA,154031.000,4308.4767,N,07727.2361,W,1,09,0.95,150.3,M,-34.4,M,,*5E
lng=-77.453880, lat=43.141269, altitude=150.40, speed=43.19, satellites=9, angle=279.3800, fixquality=1
$GPRMC,154031.200,A,4308.4771,N,07727.2394,W,42.99,279.52,200319,,,A*4B
$GPGGA,154031.400,4308.4775,N,07727.2427,W,1,09,0.95,150.3,M,-34.4,M,,*5C
lng=-77.453987, lat=43.141284, altitude=150.30, speed=42.99, satellites=9, angle=279.5200, fixquality=1
$GPRMC,154031.600,A,4308.4778,N,07727.2459,W,43.35,278.66,200319,,,A*41
$GPGGA,154031.800,4308.4782,N,07727.2492,W,1,09,0.95,150.1,M,-34.4,M,,*54
lng=-77.454101, lat=43.141300, altitude=150.30, speed=43.35, satellites=9, angle=278.6600, fixquality=1
$GPRMC,154032.000,A,4308.4786,N,07727.2524,W,42.52,279.13,200319,,,A*4D
$GPGGA,154032.200,4308.4789,N,07727.2556,W,1,09,0.95,150.0,M,-34.4,M,,*5E
lng=-77.454208, lat=43.141307, altitude=150.10, speed=42.52, satellites=9, angle=279.1300, fixquality=1
$GPRMC,154032.400,A,4308.4793,N,07727.2587,W,41.96,279.61,200319,,,A*4A
$GPGGA,154032.600,4308.4797,N,07727.2619,W,1,09,0.93,149.9,M,-34.4,M,,*5A
lng=-77.454315, lat=43.141323, altitude=150.00, speed=41.96, satellites=9, angle=279.6100, fixquality=1
$GPRMC,154032.800,A,4308.4802,N,07727.2650,W,41.84,279.72,200319,,,A*49
$GPGGA,154033.000,4308.4806,N,07727.2681,W,1,09,0.93,149.8,M,-34.4,M,,*5A
lng=-77.454421, lat=43.141334, altitude=149.90, speed=41.84, satellites=9, angle=279.7200, fixquality=1
$GPRMC,154033.200,A,4308.4810,N,07727.2712,W,40.98,279.87,200319,,,A*40
$GPGGA,154033.400,4308.4814,N,07727.2743,W,1,09,0.95,149.7,M,-34.4,M,,*5B
lng=-77.454513, lat=43.141349, altitude=149.80, speed=40.98, satellites=9, angle=279.8700, fixquality=1
$GPRMC,154033.600,A,4308.4818,N,07727.2774,W,40.94,279.66,200319,,,A*4F
$GPGGA,154033.800,4308.4821,N,07727.2804,W,1,09,0.93,149.7,M,-34.4,M,,*5B
lng=-77.454620, lat=43.141365, altitude=149.70, speed=40.94, satellites=9, angle=279.6600, fixquality=1
$GPRMC,154034.000,A,4308.4825,N,07727.2835,W,40.66,279.44,200319,,,A*47
$GPGGA,154034.200,4308.4829,N,07727.2865,W,1,09,0.95,149.7,M,-34.4,M,,*5F
lng=-77.454727, lat=43.141372, altitude=149.70, speed=40.66, satellites=9, angle=279.4400, fixquality=1
$GPRMC,154034.400,A,4308.4832,N,07727.2896,W,40.12,279.73,200319,,,A*4B
$GPGGA,154034.600,4308.4836,N,07727.2926,W,1,09,0.93,149.6,M,-34.4,M,,*54
lng=-77.454826, lat=43.141391, altitude=149.70, speed=40.12, satellites=9, angle=279.7300, fixquality=1
$GPRMC,154034.800,A,4308.4840,N,07727.2955,W,39.69,279.65,200319,,,A*49
$GPGGA,154035.000,4308.4844,N,07727.2985,W,1,09,0.95,149.6,M,-34.4,M,,*59
lng=-77.454925, lat=43.141399, altitude=149.60, speed=39.69, satellites=9, angle=279.6500, fixquality=1
$GPRMC,154035.200,A,4308.4847,N,07727.3015,W,39.38,279.33,200319,,,A*4E
$GPGGA,154035.400,4308.4851,N,07727.3045,W,1,09,0.95,149.6,M,-34.4,M,,*5D
lng=-77.455024, lat=43.141414, altitude=149.60, speed=39.38, satellites=9, angle=279.3300, fixquality=1
$GPRMC,154035.600,A,4308.4855,N,07727.3074,W,39.35,279.84,200319,,,A*4F
$GPGGA,154035.800,4308.4859,N,07727.3103,W,1,09,0.95,149.6,M,-34.4,M,,*5A
lng=-77.455123, lat=43.141422, altitude=149.60, speed=39.35, satellites=9, angle=279.8400, fixquality=1
$GPRMC,154036.000,A,4308.4863,N,07727.3133,W,39.30,280.00,200319,,,A*42
$GPGGA,154036.200,4308.4866,N,07727.3162,W,1,09,0.95,149.5,M,-34.4,M,,*5B
lng=-77.455223, lat=43.141437, altitude=149.60, speed=39.30, satellites=9, angle=280.0000, fixquality=1
$GPRMC,154036.400,A,4308.4870,N,07727.3192,W,39.33,279.84,200319,,,A*46
$GPGGA,154036.600,4308.4874,N,07727.3221,W,1,09,0.95,149.5,M,-34.4,M,,*58
lng=-77.455322, lat=43.141445, altitude=149.50, speed=39.33, satellites=9, angle=279.8400, fixquality=1
$GPRMC,154036.800,A,4308.4877,N,07727.3251,W,39.35,279.98,200319,,,A*4A
$GPGGA,154037.000,4308.4881,N,07727.3281,W,1,09,0.95,149.4,M,-34.4,M,,*5E
lng=-77.455421, lat=43.141464, altitude=149.50, speed=39.35, satellites=9, angle=279.9800, fixquality=1
$GPRMC,154037.200,A,4308.4884,N,07727.3310,W,39.50,279.62,200319,,,A*4F
$GPGGA,154037.400,4308.4888,N,07727.3340,W,1,09,0.95,149.3,M,-34.4,M,,*58
lng=-77.455520, lat=43.141471, altitude=149.40, speed=39.50, satellites=9, angle=279.6200, fixquality=1
$GPRMC,154037.600,A,4308.4891,N,07727.3370,W,39.49,279.83,200319,,,A*4E
$GPGGA,154037.800,4308.4895,N,07727.3400,W,1,09,0.95,149.2,M,-34.4,M,,*5A
lng=-77.455612, lat=43.141487, altitude=149.30, speed=39.49, satellites=9, angle=279.8300, fixquality=1
$GPRMC,154038.000,A,4308.4898,N,07727.3429,W,39.43,278.93,200319,,,A*4F
$GPGGA,154038.200,4308.4901,N,07727.3459,W,1,09,0.95,149.0,M,-34.4,M,,*5D
lng=-77.455711, lat=43.141494, altitude=149.20, speed=39.43, satellites=9, angle=278.9300, fixquality=1
$GPRMC,154038.400,A,4308.4906,N,07727.3488,W,39.15,279.06,200319,,,A*48
$GPGGA,154038.600,4308.4909,N,07727.3518,W,1,09,0.93,149.0,M,-34.4,M,,*53
lng=-77.455810, lat=43.141513, altitude=149.00, speed=39.15, satellites=9, angle=279.0600, fixquality=1
$GPRMC,154038.800,A,4308.4913,N,07727.3547,W,39.06,279.33,200319,,,A*46
$GPGGA,154039.000,4308.4916,N,07727.3576,W,1,09,0.95,149.0,M,-34.4,M,,*54
lng=-77.455909, lat=43.141521, altitude=149.00, speed=39.06, satellites=9, angle=279.3300, fixquality=1
$GPRMC,154039.200,A,4308.4920,N,07727.3605,W,38.92,278.93,200319,,,A*4F
$GPGGA,154039.400,4308.4923,N,07727.3634,W,1,09,0.95,148.9,M,-34.4,M,,*5B
lng=-77.456008, lat=43.141536, altitude=149.00, speed=38.92, satellites=9, angle=278.9300, fixquality=1
$GPRMC,154039.600,A,4308.4927,N,07727.3663,W,38.80,279.29,200319,,,A*4F
$GPGGA,154039.800,4308.4930,N,07727.3691,W,1,09,0.95,148.9,M,-34.4,M,,*5A
lng=-77.456100, lat=43.141544, altitude=148.90, speed=38.80, satellites=9, angle=279.2900, fixquality=1
$GPRMC,154040.000,A,4308.4934,N,07727.3720,W,38.67,279.09,200319,,,A*48
$GPGGA,154040.200,4308.4937,N,07727.3748,W,1,09,0.95,148.9,M,-34.4,M,,*5C
lng=-77.456199, lat=43.141551, altitude=148.90, speed=38.67, satellites=9, angle=279.0900, fixquality=1
$GPRMC,154040.400,A,4308.4941,N,07727.3777,W,38.22,278.77,200319,,,A*45
$GPGGA,154040.600,4308.4944,N,07727.3806,W,1,09,0.95,148.8,M,-34.4,M,,*58
lng=-77.456298, lat=43.141567, altitude=148.90, speed=38.22, satellites=9, angle=278.7700, fixquality=1
$GPRMC,154040.800,A,4308.4947,N,07727.3834,W,38.21,279.08,200319,,,A*4D
$GPGGA,154041.000,4308.4951,N,07727.3863,W,1,09,0.95,148.7,M,-34.4,M,,*57
lng=-77.456390, lat=43.141578, altitude=148.80, speed=38.21, satellites=9, angle=279.0800, fixquality=1
$GPRMC,154041.200,A,4308.4954,N,07727.3892,W,38.27,279.30,200319,,,A*45
$GPGGA,154041.400,4308.4958,N,07727.3921,W,1,09,0.95,148.6,M,-34.4,M,,*5C
lng=-77.456489, lat=43.141593, altitude=148.70, speed=38.27, satellites=9, angle=279.3000, fixquality=1
$GPRMC,154041.600,A,4308.4961,N,07727.3949,W,38.46,279.02,200319,,,A*46
$GPGGA,154041.800,4308.4964,N,07727.3978,W,1,09,0.95,148.5,M,-34.4,M,,*50
lng=-77.456581, lat=43.141601, altitude=148.60, speed=38.46, satellites=9, angle=279.0200, fixquality=1
$GPRMC,154042.000,A,4308.4968,N,07727.4007,W,38.47,278.80,200319,,,A*44
$GPGGA,154042.200,4308.4972,N,07727.4036,W,1,09,0.95,148.4,M,-34.4,M,,*5B
lng=-77.456680, lat=43.141609, altitude=148.50, speed=38.47, satellites=9, angle=278.8000, fixquality=1
$GPRMC,154042.400,A,4308.4975,N,07727.4065,W,38.54,278.77,200319,,,A*42
$GPGGA,154042.600,4308.4979,N,07727.4094,W,1,09,0.93,148.3,M,-34.4,M,,*5D
lng=-77.456779, lat=43.141624, altitude=148.40, speed=38.54, satellites=9, angle=278.7700, fixquality=1
$GPRMC,154042.800,A,4308.4982,N,07727.4123,W,38.57,278.30,200319,,,A*45
$GPGGA,154043.000,4308.4986,N,07727.4152,W,1,09,0.95,148.3,M,-34.4,M,,*57
lng=-77.456871, lat=43.141635, altitude=148.30, speed=38.57, satellites=9, angle=278.3000, fixquality=1
$GPRMC,154043.200,A,4308.4990,N,07727.4181,W,38.60,278.37,200319,,,A*46
$GPGGA,154043.400,4308.4993,N,07727.4210,W,1,09,0.95,148.3,M,-34.4,M,,*52
lng=-77.456962, lat=43.141651, altitude=148.30, speed=38.60, satellites=9, angle=278.3700, fixquality=1
