Vers 57
USE_SERIAL_FEEDBACK=false
DEVELOPMENT_MODE=false
USE_RMC_ONLY=false

$GPRMC,175930.600,A,4308.2983,N,07726.2719,W,0.00,0.00,150319,,,A*7A
$GPGGA,175930.800,4308.2983,N,07726.2720,W,1,06,1.55,146.0,M,-34.4,M,,*59
lng=-77.437866, lat=43.138305, altitude=144.10, speed=0.00, satellites=5, angle=0.0000, fixquality=1
$GPRMC,175931.000,A,4308.2983,N,07726.2720,W,0.39,58.23,150319,,,A*41
$GPGGA,175931.200,4308.2983,N,07726.2720,W,1,06,1.47,146.5,M,-34.4,M,,*54
lng=-77.437866, lat=43.138305, altitude=146.00, speed=0.39, satellites=6, angle=58.2300, fixquality=1
$GPRMC,175931.400,A,4308.2983,N,07726.2719,W,0.21,60.56,150319,,,A*4F
$GPGGA,175931.600,4308.2983,N,07726.2719,W,1,06,1.47,146.9,M,-34.4,M,,*56
lng=-77.437866, lat=43.138305, altitude=146.50, speed=0.21, satellites=6, angle=60.5600, fixquality=1
$GPRMC,175931.800,A,4308.2983,N,07726.2719,W,0.13,46.42,150319,,,A*43
$GPGGA,175932.000,4308.2983,N,07726.2718,W,1,06,1.47,147.2,M,-34.4,M,,*58
lng=-77.437866, lat=43.138305, altitude=146.90, speed=0.13, satellites=6, angle=46.4200, fixquality=1
$GPRMC,175932.200,A,4308.2983,N,07726.2718,W,0.08,77.06,150319,,,A*43
$GPGGA,175932.400,4308.2983,N,07726.2718,W,1,06,1.47,147.2,M,-34.4,M,,*5C
lng=-77.437866, lat=43.138305, altitude=147.20, speed=0.08, satellites=6, angle=77.0600, fixquality=1
$GPRMC,175932.600,A,4308.2983,N,07726.2718,W,0.05,63.27,150319,,,A*4C
$GPGGA,175932.800,4308.2983,N,07726.2719,W,1,06,1.47,147.2,M,-34.4,M,,*51
lng=-77.437866, lat=43.138305, altitude=147.20, speed=0.05, satellites=6, angle=63.2700, fixquality=1
$GPRMC,175933.000,A,4308.2982,N,07726.2717,W,0.01,54.55,150319,,,A*40
$GPGGA,175933.200,4308.2982,N,07726.2716,W,1,06,1.47,149.3,M,-34.4,M,,*5B
lng=-77.437858, lat=43.138305, altitude=147.20, speed=0.01, satellites=6, angle=54.5500, fixquality=1
$GPRMC,175933.400,A,4308.2982,N,07726.2715,W,0.01,79.89,150319,,,A*48
$GPGGA,175933.600,4308.2982,N,07726.2714,W,1,06,1.47,150.1,M,-34.4,M,,*57
lng=-77.437858, lat=43.138305, altitude=149.30, speed=0.01, satellites=6, angle=79.8900, fixquality=1
$GPRMC,175933.800,A,4308.2981,N,07726.2714,W,0.01,43.48,150319,,,A*42
$GPGGA,175934.000,4308.2982,N,07726.2714,W,1,06,1.47,150.4,M,-34.4,M,,*53
lng=-77.437858, lat=43.138305, altitude=150.10, speed=0.01, satellites=6, angle=43.4800, fixquality=1
$GPRMC,175934.200,A,4308.2981,N,07726.2714,W,0.02,91.33,150319,,,A*4F
$GPGGA,175934.400,4308.2981,N,07726.2714,W,1,06,1.47,150.6,M,-34.4,M,,*56
lng=-77.437858, lat=43.138305, altitude=150.40, speed=0.02, satellites=6, angle=91.3300, fixquality=1
$GPRMC,175934.600,A,4308.2981,N,07726.2713,W,0.00,151.46,150319,,,A*71
$GPGGA,175934.800,4308.2981,N,07726.2713,W,1,06,1.47,151.0,M,-34.4,M,,*5A
lng=-77.437858, lat=43.138305, altitude=150.60, speed=0.00, satellites=6, angle=151.4600, fixquality=1
$GPRMC,175935.000,A,4308.2980,N,07726.2713,W,0.02,339.10,150319,,,A*7A
$GPGGA,175935.200,4308.2980,N,07726.2712,W,1,06,1.47,151.3,M,-34.4,M,,*52
lng=-77.437858, lat=43.138298, altitude=151.00, speed=0.02, satellites=6, angle=339.1000, fixquality=1
$GPRMC,175935.400,A,4308.2980,N,07726.2712,W,0.02,79.13,150319,,,A*4B
$GPGGA,175935.600,4308.2979,N,07726.2712,W,1,06,1.47,151.7,M,-34.4,M,,*54
lng=-77.437850, lat=43.138298, altitude=151.30, speed=0.02, satellites=6, angle=79.1300, fixquality=1
$GPRMC,175935.800,A,4308.2979,N,07726.2712,W,0.04,65.25,150319,,,A*4F
$GPGGA,175936.000,4308.2979,N,07726.2712,W,1,06,1.47,152.0,M,-34.4,M,,*55
lng=-77.437850, lat=43.138298, altitude=151.70, speed=0.04, satellites=6, angle=65.2500, fixquality=1
$GPRMC,175936.200,A,4308.2979,N,07726.2711,W,0.02,111.64,150319,,,A*74
$GPGGA,175936.400,4308.2978,N,07726.2711,W,1,06,1.47,152.3,M,-34.4,M,,*50
lng=-77.437850, lat=43.138298, altitude=152.00, speed=0.02, satellites=6, angle=111.6400, fixquality=1
$GPRMC,175936.600,A,4308.2978,N,07726.2712,W,0.01,18.21,150319,,,A*48
$GPGGA,175936.800,4308.2978,N,07726.2711,W,1,06,1.47,152.4,M,-34.4,M,,*5B
lng=-77.437850, lat=43.138298, altitude=152.30, speed=0.01, satellites=6, angle=18.2100, fixquality=1
$GPRMC,175937.000,A,4308.2978,N,07726.2711,W,0.02,49.81,150319,,,A*41
$GPGGA,175937.200,4308.2977,N,07726.2711,W,1,06,1.47,152.6,M,-34.4,M,,*5D
lng=-77.437850, lat=43.138298, altitude=152.40, speed=0.02, satellites=6, angle=49.8100, fixquality=1
$GPRMC,175937.400,A,4308.2977,N,07726.2712,W,0.01,347.18,150319,,,A*77
$GPGGA,175937.600,4308.2977,N,07726.2711,W,1,06,1.55,152.8,M,-34.4,M,,*54
lng=-77.437850, lat=43.138298, altitude=152.60, speed=0.01, satellites=6, angle=347.1800, fixquality=1
$GPRMC,175937.800,A,4308.2977,N,07726.2711,W,0.01,217.47,150319,,,A*76
$GPGGA,175938.000,4308.2976,N,07726.2711,W,1,06,1.47,153.0,M,-34.4,M,,*56
lng=-77.437850, lat=43.138298, altitude=152.80, speed=0.01, satellites=6, angle=217.4700, fixquality=1
$GPRMC,175938.200,A,4308.2976,N,07726.2711,W,0.02,93.80,150319,,,A*44
$GPGGA,175938.400,4308.2976,N,07726.2711,W,1,06,1.47,153.2,M,-34.4,M,,*50
lng=-77.437850, lat=43.138290, altitude=153.00, speed=0.02, satellites=6, angle=93.8000, fixquality=1
$GPRMC,175938.600,A,4308.2976,N,07726.2711,W,0.01,24.77,150319,,,A*47
$GPGGA,175938.800,4308.2975,N,07726.2711,W,1,06,1.47,153.4,M,-34.4,M,,*59
lng=-77.437850, lat=43.138290, altitude=153.20, speed=0.01, satellites=6, angle=24.7700, fixquality=1
$GPRMC,175939.000,A,4308.2975,N,07726.2711,W,0.02,301.25,150319,,,A*73
$GPGGA,175939.200,4308.2975,N,07726.2712,W,1,06,1.47,153.7,M,-34.4,M,,*52
lng=-77.437850, lat=43.138290, altitude=153.40, speed=0.02, satellites=6, angle=301.2500, fixquality=1
$GPRMC,175939.400,A,4308.2974,N,07726.2712,W,0.00,199.82,150319,,,A*79
$GPGGA,175939.600,4308.2974,N,07726.2712,W,1,06,1.47,153.9,M,-34.4,M,,*59
lng=-77.437850, lat=43.138290, altitude=153.70, speed=0.00, satellites=6, angle=199.8200, fixquality=1
$GPRMC,175939.800,A,4308.2974,N,07726.2712,W,0.00,132.67,150319,,,A*7F
$GPGGA,175940.000,4308.2974,N,07726.2712,W,1,06,1.47,154.2,M,-34.4,M,,*5D
lng=-77.437850, lat=43.138290, altitude=153.90, speed=0.00, satellites=6, angle=132.6700, fixquality=1
$GPRMC,175940.200,A,4308.2974,N,07726.2712,W,0.01,296.71,150319,,,A*70
$GPGGA,175940.400,4308.2973,N,07726.2712,W,1,06,1.47,154.4,M,-34.4,M,,*58
lng=-77.437850, lat=43.138290, altitude=154.20, speed=0.01, satellites=6, angle=296.7100, fixquality=1
$GPRMC,175940.600,A,4308.2973,N,07726.2712,W,0.00,184.66,150319,,,A*74
$GPGGA,175940.800,4308.2973,N,07726.2712,W,1,06,1.47,154.6,M,-34.4,M,,*56
lng=-77.437850, lat=43.138290, altitude=154.40, speed=0.00, satellites=6, angle=184.6600, fixquality=1
$GPRMC,175941.000,A,4308.2972,N,07726.2712,W,0.02,302.41,150319,,,A*79
$GPGGA,175941.200,4308.2972,N,07726.2712,W,1,06,1.47,154.8,M,-34.4,M,,*52
lng=-77.437850, lat=43.138290, altitude=154.60, speed=0.02, satellites=6, angle=302.4100, fixquality=1
$GPRMC,175941.400,A,4308.2972,N,07726.2712,W,0.01,7.53,150319,,,A*7B
$GPGGA,175941.600,4308.2972,N,07726.2712,W,1,06,1.55,154.9,M,-34.4,M,,*54
lng=-77.437850, lat=43.138290, altitude=154.80, speed=0.01, satellites=6, angle=7.5300, fixquality=1
$GPRMC,175941.800,A,4308.2972,N,07726.2712,W,0.01,258.09,150319,,,A*70
$GPGGA,175942.000,4308.2971,N,07726.2712,W,1,06,1.47,155.1,M,-34.4,M,,*58
lng=-77.437850, lat=43.138290, altitude=154.90, speed=0.01, satellites=6, angle=258.0900, fixquality=1
$GPRMC,175942.200,A,4308.2971,N,07726.2712,W,0.01,112.53,150319,,,A*78
$GPGGA,175942.400,4308.2971,N,07726.2712,W,1,06,1.47,155.2,M,-34.4,M,,*5F
lng=-77.437850, lat=43.138282, altitude=155.10, speed=0.01, satellites=6, angle=112.5300, fixquality=1
$GPRMC,175942.600,A,4308.2971,N,07726.2712,W,0.02,155.91,150319,,,A*72
$GPGGA,175942.800,4308.2971,N,07726.2712,W,1,06,1.47,155.3,M,-34.4,M,,*52
lng=-77.437850, lat=43.138282, altitude=155.20, speed=0.02, satellites=6, angle=155.9100, fixquality=1
$GPRMC,175943.000,A,4308.2970,N,07726.2712,W,0.00,109.82,150319,,,A*7D
$GPGGA,175943.200,4308.2970,N,07726.2712,W,1,06,1.47,155.4,M,-34.4,M,,*5F
lng=-77.437850, lat=43.138282, altitude=155.30, speed=0.00, satellites=6, angle=109.8200, fixquality=1
$GPRMC,175943.400,A,4308.2970,N,07726.2712,W,0.01,77.10,150319,,,A*4B
$GPGGA,175943.600,4308.2970,N,07726.2713,W,1,06,1.47,155.5,M,-34.4,M,,*5B
lng=-77.437850, lat=43.138282, altitude=155.40, speed=0.01, satellites=6, angle=77.1000, fixquality=1
$GPRMC,175943.800,A,4308.2970,N,07726.2713,W,0.01,70.25,150319,,,A*47
$GPGGA,175944.000,4308.2970,N,07726.2713,W,1,06,1.47,155.5,M,-34.4,M,,*5A
lng=-77.437858, lat=43.138282, altitude=155.50, speed=0.01, satellites=6, angle=70.2500, fixquality=1
$GPRMC,175944.200,A,4308.2970,N,07726.2713,W,0.02,28.24,150319,,,A*45
$GPGGA,175944.400,4308.2970,N,07726.2713,W,1,06,1.47,155.6,M,-34.4,M,,*5D
lng=-77.437858, lat=43.138282, altitude=155.50, speed=0.02, satellites=6, angle=28.2400, fixquality=1
$GPRMC,175944.600,A,4308.2969,N,07726.2713,W,0.01,164.03,150319,,,A*76
$GPGGA,175944.800,4308.2969,N,07726.2713,W,1,06,1.47,155.6,M,-34.4,M,,*59
lng=-77.437858, lat=43.138282, altitude=155.60, speed=0.01, satellites=6, angle=164.0300, fixquality=1
$GPRMC,175945.000,A,4308.2969,N,07726.2713,W,0.02,179.52,150319,,,A*7A
$GPGGA,175945.200,4308.2969,N,07726.2713,W,1,06,1.47,155.7,M,-34.4,M,,*53
lng=-77.437858, lat=43.138282, altitude=155.60, speed=0.02, satellites=6, angle=179.5200, fixquality=1
$GPRMC,175945.400,A,4308.2969,N,07726.2713,W,0.01,311.04,150319,,,A*72
$GPGGA,175945.600,4308.2969,N,07726.2713,W,1,06,1.47,155.7,M,-34.4,M,,*57
lng=-77.437858, lat=43.138282, altitude=155.70, speed=0.01, satellites=6, angle=311.0400, fixquality=1
$GPRMC,175945.800,A,4308.2969,N,07726.2713,W,0.02,61.30,150319,,,A*4E
$GPGGA,175946.000,4308.2969,N,07726.2713,W,1,06,1.47,155.7,M,-34.4,M,,*52
lng=-77.437858, lat=43.138282, altitude=155.70, speed=0.02, satellites=6, angle=61.3000, fixquality=1
$GPRMC,175946.200,A,4308.2969,N,07726.2713,W,0.00,325.07,150319,,,A*72
$GPGGA,175946.400,4308.2969,N,07726.2713,W,1,06,1.47,155.8,M,-34.4,M,,*59
lng=-77.437858, lat=43.138282, altitude=155.70, speed=0.00, satellites=6, angle=325.0700, fixquality=1
$GPRMC,175946.600,A,4308.2969,N,07726.2713,W,0.03,75.58,150319,,,A*49
$GPGGA,175946.800,4308.2969,N,07726.2713,W,1,06,1.47,155.8,M,-34.4,M,,*55
lng=-77.437858, lat=43.138282, altitude=155.80, speed=0.03, satellites=6, angle=75.5800, fixquality=1
$GPRMC,175947.000,A,4308.2969,N,07726.2713,W,0.01,301.07,150319,,,A*76
$GPGGA,175947.200,4308.2969,N,07726.2713,W,1,06,1.47,155.8,M,-34.4,M,,*5E
lng=-77.437858, lat=43.138282, altitude=155.80, speed=0.01, satellites=6, angle=301.0700, fixquality=1
$GPRMC,175947.400,A,4308.2969,N,07726.2713,W,0.03,310.95,150319,,,A*7B
$GPGGA,175947.600,4308.2969,N,07726.2713,W,1,06,1.47,155.8,M,-34.4,M,,*5A
lng=-77.437858, lat=43.138282, altitude=155.80, speed=0.03, satellites=6, angle=310.9500, fixquality=1
$GPRMC,175947.800,A,4308.2969,N,07726.2713,W,0.03,263.65,150319,,,A*7D
$GPGGA,175948.000,4308.2969,N,07726.2713,W,1,06,1.47,155.8,M,-34.4,M,,*53
lng=-77.437858, lat=43.138282, altitude=155.80, speed=0.03, satellites=6, angle=263.6500, fixquality=1
$GPRMC,175948.200,A,4308.2969,N,07726.2712,W,0.02,62.55,150319,,,A*48
$GPGGA,175948.400,4308.2969,N,07726.2712,W,1,06,1.47,155.8,M,-34.4,M,,*56
lng=-77.437850, lat=43.138282, altitude=155.80, speed=0.02, satellites=6, angle=62.5500, fixquality=1
$GPRMC,175948.600,A,4308.2969,N,07726.2712,W,0.01,167.22,150319,,,A*7B
$GPGGA,175948.800,4308.2969,N,07726.2712,W,1,06,1.47,155.8,M,-34.4,M,,*5A
lng=-77.437850, lat=43.138282, altitude=155.80, speed=0.01, satellites=6, angle=167.2200, fixquality=1
$GPRMC,175949.000,A,4308.2969,N,07726.2712,W,0.02,105.80,150319,,,A*73
$GPGGA,175949.200,4308.2969,N,07726.2712,W,1,06,1.47,155.8,M,-34.4,M,,*51
lng=-77.437850, lat=43.138282, altitude=155.80, speed=0.02, satellites=6, angle=105.8000, fixquality=1
$GPRMC,175949.400,A,4308.2969,N,07726.2712,W,0.01,278.07,150319,,,A*72
$GPGGA,175949.600,4308.2969,N,07726.2712,W,1,06,1.47,155.8,M,-34.4,M,,*55
lng=-77.437850, lat=43.138282, altitude=155.80, speed=0.01, satellites=6, angle=278.0700, fixquality=1
$GPRMC,175949.800,A,4308.2969,N,07726.2712,W,0.00,165.08,150319,,,A*7F
$GPGGA,175950.000,4308.2969,N,07726.2712,W,1,06,1.47,155.8,M,-34.4,M,,*5B
lng=-77.437850, lat=43.138282, altitude=155.80, speed=0.00, satellites=6, angle=165.0800, fixquality=1
$GPRMC,175950.200,A,4308.2969,N,07726.2712,W,0.01,15.90,150319,,,A*4B
$GPGGA,175950.400,4308.2970,N,07726.2712,W,1,06,1.47,155.8,M,-34.4,M,,*57
lng=-77.437850, lat=43.138282, altitude=155.80, speed=0.01, satellites=6, angle=15.9000, fixquality=1
$GPRMC,175950.600,A,4308.2970,N,07726.2711,W,0.01,83.95,150319,,,A*4E
$GPGGA,175950.800,4308.2970,N,07726.2711,W,1,06,1.47,155.8,M,-34.4,M,,*58
lng=-77.437850, lat=43.138282, altitude=155.80, speed=0.01, satellites=6, angle=83.9500, fixquality=1
$GPRMC,175951.000,A,4308.2970,N,07726.2711,W,0.02,125.64,150319,,,A*79
$GPGGA,175951.200,4308.2970,N,07726.2711,W,1,06,1.47,155.8,M,-34.4,M,,*53
lng=-77.437850, lat=43.138282, altitude=155.80, speed=0.02, satellites=6, angle=125.6400, fixquality=1
$GPRMC,175951.400,A,4308.2970,N,07726.2711,W,0.02,358.42,150319,,,A*71
$GPGGA,175951.600,4308.2970,N,07726.2711,W,1,06,1.55,155.8,M,-34.4,M,,*54
lng=-77.437850, lat=43.138282, altitude=155.80, speed=0.02, satellites=6, angle=358.4200, fixquality=1
$GPRMC,175951.800,A,4308.2970,N,07726.2711,W,0.02,285.26,150319,,,A*7E
$GPGGA,175952.000,4308.2970,N,07726.2711,W,1,06,1.47,155.7,M,-34.4,M,,*5D
lng=-77.437850, lat=43.138282, altitude=155.80, speed=0.02, satellites=6, angle=285.2600, fixquality=1
$GPRMC,175952.200,A,4308.2970,N,07726.2711,W,0.01,187.28,150319,,,A*7B
$GPGGA,175952.400,4308.2970,N,07726.2711,W,1,06,1.47,155.7,M,-34.4,M,,*59
lng=-77.437850, lat=43.138282, altitude=155.70, speed=0.01, satellites=6, angle=187.2800, fixquality=1
$GPRMC,175952.600,A,4308.2970,N,07726.2711,W,0.03,74.62,150319,,,A*4E
$GPGGA,175952.800,4308.2971,N,07726.2711,W,1,06,1.47,155.6,M,-34.4,M,,*55
lng=-77.437850, lat=43.138282, altitude=155.70, speed=0.03, satellites=6, angle=74.6200, fixquality=1
$GPRMC,175953.000,A,4308.2971,N,07726.2711,W,0.01,27.09,150319,,,A*41
$GPGGA,175953.200,4308.2971,N,07726.2711,W,1,06,1.47,155.6,M,-34.4,M,,*5E
lng=-77.437850, lat=43.138282, altitude=155.60, speed=0.01, satellites=6, angle=27.0900, fixquality=1
$GPRMC,175953.400,A,4308.2971,N,07726.2711,W,0.01,304.61,150319,,,A*79
$GPGGA,175953.600,4308.2971,N,07726.2711,W,1,06,1.47,155.5,M,-34.4,M,,*59
lng=-77.437850, lat=43.138282, altitude=155.60, speed=0.01, satellites=6, angle=304.6100, fixquality=1
$GPRMC,175953.800,A,4308.2971,N,07726.2711,W,0.03,305.06,150319,,,A*77
$GPGGA,175954.000,4308.2971,N,07726.2711,W,1,06,1.47,155.5,M,-34.4,M,,*58
lng=-77.437850, lat=43.138282, altitude=155.50, speed=0.03, satellites=6, angle=305.0600, fixquality=1
$GPRMC,175954.200,A,4308.2971,N,07726.2711,W,0.02,126.00,150319,,,A*7E
$GPGGA,175954.400,4308.2971,N,07726.2711,W,1,06,1.47,155.5,M,-34.4,M,,*5C
lng=-77.437850, lat=43.138282, altitude=155.50, speed=0.02, satellites=6, angle=126.0000, fixquality=1
$GPRMC,175954.600,A,4308.2972,N,07726.2711,W,0.03,108.98,150319,,,A*75
$GPGGA,175954.800,4308.2972,N,07726.2712,W,1,06,1.47,155.4,M,-34.4,M,,*51
lng=-77.437850, lat=43.138290, altitude=155.50, speed=0.03, satellites=6, angle=108.9800, fixquality=1
$GPRMC,175955.000,A,4308.2972,N,07726.2712,W,0.01,150.54,150319,,,A*7E
$GPGGA,175955.200,4308.2972,N,07726.2712,W,1,06,1.47,155.4,M,-34.4,M,,*5A
lng=-77.437850, lat=43.138290, altitude=155.40, speed=0.01, satellites=6, angle=150.5400, fixquality=1
$GPRMC,175955.400,A,4308.2972,N,07726.2712,W,0.01,281.26,150319,,,A*70
$GPGGA,175955.600,4308.2972,N,07726.2712,W,1,06,1.47,155.3,M,-34.4,M,,*59
lng=-77.437850, lat=43.138290, altitude=155.40, speed=0.01, satellites=6, angle=281.2600, fixquality=1
$GPRMC,175955.800,A,4308.2972,N,07726.2712,W,0.01,139.14,150319,,,A*7D
$GPGGA,175956.000,4308.2972,N,07726.2713,W,1,06,1.47,155.2,M,-34.4,M,,*5C
lng=-77.437850, lat=43.138290, altitude=155.30, speed=0.01, satellites=6, angle=139.1400, fixquality=1
$GPRMC,175956.200,A,4308.2972,N,07726.2713,W,0.03,38.51,150319,,,A*46
$GPGGA,175956.400,4308.2972,N,07726.2713,W,1,06,1.47,155.2,M,-34.4,M,,*58
lng=-77.437858, lat=43.138290, altitude=155.20, speed=0.03, satellites=6, angle=38.5100, fixquality=1
$GPRMC,175956.600,A,4308.2973,N,07726.2713,W,0.01,279.27,150319,,,A*77
$GPGGA,175956.800,4308.2973,N,07726.2713,W,1,06,1.47,155.1,M,-34.4,M,,*56
lng=-77.437858, lat=43.138290, altitude=155.20, speed=0.01, satellites=6, angle=279.2700, fixquality=1
$GPRMC,175957.000,A,4308.2973,N,07726.2714,W,0.05,302.30,150319,,,A*78
$GPGGA,175957.200,4308.2973,N,07726.2714,W,1,06,1.47,155.0,M,-34.4,M,,*5B
lng=-77.437858, lat=43.138290, altitude=155.10, speed=0.05, satellites=6, angle=302.3000, fixquality=1
$GPRMC,175957.400,A,4308.2973,N,07726.2714,W,0.02,264.31,150319,,,A*7B
$GPGGA,175957.600,4308.2973,N,07726.2714,W,1,06,1.47,155.0,M,-34.4,M,,*5F
lng=-77.437858, lat=43.138290, altitude=155.00, speed=0.02, satellites=6, angle=264.3100, fixquality=1
$GPRMC,175957.800,A,4308.2973,N,07726.2714,W,0.02,91.30,150319,,,A*4E
$GPGGA,175958.000,4308.2973,N,07726.2715,W,1,06,1.47,154.9,M,-34.4,M,,*5F
lng=-77.437858, lat=43.138290, altitude=155.00, speed=0.02, satellites=6, angle=91.3000, fixquality=1
$GPRMC,175958.200,A,4308.2973,N,07726.2715,W,0.02,7.07,150319,,,A*71
$GPGGA,175958.400,4308.2973,N,07726.2715,W,1,06,1.55,154.8,M,-34.4,M,,*59
lng=-77.437858, lat=43.138290, altitude=154.90, speed=0.02, satellites=6, angle=7.0700, fixquality=1
$GPRMC,175958.600,A,4308.2973,N,07726.2715,W,0.06,185.27,150319,,,A*78
$GPGGA,175958.800,4308.2973,N,07726.2716,W,1,06,1.47,154.8,M,-34.4,M,,*55
lng=-77.437858, lat=43.138290, altitude=154.80, speed=0.06, satellites=6, angle=185.2700, fixquality=1
$GPRMC,175959.000,A,4308.2973,N,07726.2716,W,0.06,121.80,150319,,,A*7F
$GPGGA,175959.200,4308.2973,N,07726.2716,W,1,06,1.47,154.7,M,-34.4,M,,*51
lng=-77.437858, lat=43.138290, altitude=154.80, speed=0.06, satellites=6, angle=121.8000, fixquality=1
$GPRMC,175959.400,A,4308.2973,N,07726.2717,W,0.03,44.44,150319,,,A*45
$GPGGA,175959.600,4308.2973,N,07726.2717,W,1,06,1.47,154.6,M,-34.4,M,,*55
lng=-77.437858, lat=43.138290, altitude=154.70, speed=0.03, satellites=6, angle=44.4400, fixquality=1
$GPRMC,175959.800,A,4308.2973,N,07726.2717,W,0.06,62.00,150319,,,A*48
$GPGGA,180000.000,4308.2973,N,07726.2717,W,1,06,1.47,154.6,M,-34.4,M,,*5C
lng=-77.437858, lat=43.138290, altitude=154.60, speed=0.06, satellites=6, angle=62.0000, fixquality=1
$GPRMC,180000.200,A,4308.2973,N,07726.2718,W,0.02,288.32,150319,,,A*71
$GPGGA,180000.400,4308.2973,N,07726.2718,W,1,06,1.47,154.6,M,-34.4,M,,*57
lng=-77.437866, lat=43.138290, altitude=154.60, speed=0.02, satellites=6, angle=288.3200, fixquality=1
$GPRMC,180000.600,A,4308.2973,N,07726.2718,W,0.02,356.39,150319,,,A*7C
$GPGGA,180000.800,4308.2973,N,07726.2718,W,1,06,1.55,154.5,M,-34.4,M,,*5B
lng=-77.437866, lat=43.138290, altitude=154.60, speed=0.02, satellites=6, angle=356.3900, fixquality=1
$GPRMC,180001.000,A,4308.2973,N,07726.2719,W,0.04,286.80,150319,,,A*72
$GPGGA,180001.200,4308.2973,N,07726.2719,W,1,06,1.47,154.5,M,-34.4,M,,*52
lng=-77.437866, lat=43.138290, altitude=154.50, speed=0.04, satellites=6, angle=286.8000, fixquality=1
$GPRMC,180001.400,A,4308.2973,N,07726.2719,W,0.02,7.29,150319,,,A*78
$GPGGA,180001.600,4308.2973,N,07726.2719,W,1,06,1.55,154.5,M,-34.4,M,,*55
lng=-77.437866, lat=43.138290, altitude=154.50, speed=0.02, satellites=6, angle=7.2900, fixquality=1
$GPRMC,180001.800,A,4308.2973,N,07726.2720,W,0.01,141.52,150319,,,A*72
$GPGGA,180002.000,4308.2973,N,07726.2720,W,1,06,1.47,154.5,M,-34.4,M,,*59
lng=-77.437866, lat=43.138290, altitude=154.50, speed=0.01, satellites=6, angle=141.5200, fixquality=1
$GPRMC,180002.200,A,4308.2973,N,07726.2720,W,0.01,332.02,150319,,,A*78
$GPGGA,180002.400,4308.2973,N,07726.2720,W,1,06,1.47,154.5,M,-34.4,M,,*5D
lng=-77.437866, lat=43.138290, altitude=154.50, speed=0.01, satellites=6, angle=332.0200, fixquality=1
$GPRMC,180002.600,A,4308.2973,N,07726.2720,W,0.03,72.80,150319,,,A*43
$GPGGA,180002.800,4308.2973,N,07726.2721,W,1,06,1.47,154.5,M,-34.4,M,,*50
lng=-77.437866, lat=43.138290, altitude=154.50, speed=0.03, satellites=6, angle=72.8000, fixquality=1
$GPRMC,180003.000,A,4308.2973,N,07726.2721,W,0.01,115.61,150319,,,A*78
$GPGGA,180003.200,4308.2973,N,07726.2721,W,1,06,1.47,154.5,M,-34.4,M,,*5B
lng=-77.437866, lat=43.138290, altitude=154.50, speed=0.01, satellites=6, angle=115.6100, fixquality=1
$GPRMC,180003.400,A,4308.2973,N,07726.2721,W,0.03,216.32,150319,,,A*78
$GPGGA,180003.600,4308.2973,N,07726.2722,W,1,06,1.47,154.5,M,-34.4,M,,*5C
lng=-77.437866, lat=43.138290, altitude=154.50, speed=0.03, satellites=6, angle=216.3200, fixquality=1
$GPRMC,180003.800,A,4308.2973,N,07726.2722,W,0.05,89.60,150319,,,A*42
$GPGGA,180004.000,4308.2973,N,07726.2722,W,1,06,1.47,154.5,M,-34.4,M,,*5D
lng=-77.437866, lat=43.138290, altitude=154.50, speed=0.05, satellites=6, angle=89.6000, fixquality=1
$GPRMC,180004.200,A,4308.2973,N,07726.2722,W,0.01,279.09,150319,,,A*79
$GPGGA,180004.400,4308.2973,N,07726.2722,W,1,06,1.47,154.5,M,-34.4,M,,*59
lng=-77.437866, lat=43.138290, altitude=154.50, speed=0.01, satellites=6, angle=279.0900, fixquality=1
$GPRMC,180004.600,A,4308.2973,N,07726.2722,W,0.02,111.96,150319,,,A*75
$GPGGA,180004.800,4308.2973,N,07726.2722,W,1,06,1.47,154.5,M,-34.4,M,,*55
lng=-77.437866, lat=43.138290, altitude=154.50, speed=0.02, satellites=6, angle=111.9600, fixquality=1
$GPRMC,180005.000,A,4308.2973,N,07726.2722,W,0.01,2.38,150319,,,A*76
$GPGGA,180005.200,4308.2973,N,07726.2722,W,1,06,1.55,154.5,M,-34.4,M,,*5D
lng=-77.437866, lat=43.138290, altitude=154.50, speed=0.01, satellites=6, angle=2.3800, fixquality=1
$GPRMC,180005.400,A,4308.2973,N,07726.2722,W,0.02,50.92,150319,,,A*46
$GPGGA,180005.600,4308.2973,N,07726.2722,W,1,06,1.47,154.5,M,-34.4,M,,*5A
lng=-77.437866, lat=43.138290, altitude=154.50, speed=0.02, satellites=6, angle=50.9200, fixquality=1
$GPRMC,180005.800,A,4308.2973,N,07726.2722,W,0.02,14.58,150319,,,A*4C
$GPGGA,180006.000,4308.2973,N,07726.2722,W,1,06,1.55,154.5,M,-34.4,M,,*5C
lng=-77.437866, lat=43.138290, altitude=154.50, speed=0.02, satellites=6, angle=14.5800, fixquality=1
$GPRMC,180006.200,A,4308.2973,N,07726.2722,W,0.03,68.97,150319,,,A*4C
$GPGGA,180006.400,4308.2973,N,07726.2722,W,1,06,1.47,154.5,M,-34.4,M,,*5B
lng=-77.437866, lat=43.138290, altitude=154.50, speed=0.03, satellites=6, angle=68.9700, fixquality=1
$GPRMC,180006.600,A,4308.2973,N,07726.2722,W,0.01,46.19,150319,,,A*40
$GPGGA,180006.800,4308.2973,N,07726.2722,W,1,06,1.47,154.5,M,-34.4,M,,*57
lng=-77.437866, lat=43.138290, altitude=154.50, speed=0.01, satellites=6, angle=46.1900, fixquality=1
$GPRMC,180007.000,A,4308.2973,N,07726.2722,W,0.03,348.66,150319,,,A*70
$GPGGA,180007.200,4308.2973,N,07726.2722,W,1,06,1.55,154.5,M,-34.4,M,,*5F
lng=-77.437866, lat=43.138290, altitude=154.50, speed=0.03, satellites=6, angle=348.6600, fixquality=1
$GPRMC,180007.400,A,4308.2973,N,07726.2722,W,0.04,324.84,150319,,,A*75
$GPGGA,180007.600,4308.2973,N,07726.2722,W,1,06,1.47,154.5,M,-34.4,M,,*58
lng=-77.437866, lat=43.138290, altitude=154.50, speed=0.04, satellites=6, angle=324.8400, fixquality=1
$GPRMC,180007.800,A,4308.2973,N,07726.2722,W,0.02,137.04,150319,,,A*77
$GPGGA,180008.000,4308.2973,N,07726.2722,W,1,06,1.47,154.5,M,-34.4,M,,*51
lng=-77.437866, lat=43.138290, altitude=154.50, speed=0.02, satellites=6, angle=137.0400, fixquality=1
$GPRMC,180008.200,A,4308.2973,N,07726.2722,W,0.01,234.08,150319,,,A*7D
$GPGGA,180008.400,4308.2973,N,07726.2722,W,1,06,1.47,154.6,M,-34.4,M,,*56
lng=-77.437866, lat=43.138290, altitude=154.50, speed=0.01, satellites=6, angle=234.0800, fixquality=1
$GPRMC,180008.600,A,4308.2973,N,07726.2722,W,0.02,102.46,150319,,,A*76
$GPGGA,180008.800,4308.2973,N,07726.2722,W,1,06,1.47,154.6,M,-34.4,M,,*5A
lng=-77.437866, lat=43.138290, altitude=154.60, speed=0.02, satellites=6, angle=102.4600, fixquality=1
$GPRMC,180009.000,A,4308.2973,N,07726.2722,W,0.02,2.99,150319,,,A*72
$GPGGA,180009.200,4308.2973,N,07726.2722,W,1,06,1.55,154.6,M,-34.4,M,,*52
lng=-77.437866, lat=43.138290, altitude=154.60, speed=0.02, satellites=6, angle=2.9900, fixquality=1
$GPRMC,180009.400,A,4308.2973,N,07726.2722,W,0.02,316.90,150319,,,A*79
$GPGGA,180009.600,4308.2973,N,07726.2722,W,1,06,1.47,154.6,M,-34.4,M,,*55
lng=-77.437866, lat=43.138290, altitude=154.60, speed=0.02, satellites=6, angle=316.9000, fixquality=1
$GPRMC,180009.800,A,4308.2973,N,07726.2722,W,0.04,140.86,150319,,,A*75
$GPGGA,180010.000,4308.2973,N,07726.2722,W,1,06,1.47,154.6,M,-34.4,M,,*5B
lng=-77.437866, lat=43.138290, altitude=154.60, speed=0.04, satellites=6, angle=140.8600, fixquality=1
$GPRMC,180010.200,A,4308.2973,N,07726.2722,W,0.01,336.24,150319,,,A*79
$GPGGA,180010.400,4308.2973,N,07726.2722,W,1,06,1.47,154.6,M,-34.4,M,,*5F
lng=-77.437866, lat=43.138290, altitude=154.60, speed=0.01, satellites=6, angle=336.2400, fixquality=1
$GPRMC,180010.600,A,4308.2973,N,07726.2722,W,0.02,13.96,150319,,,A*43
$GPGGA,180010.800,4308.2973,N,07726.2722,W,1,06,1.55,154.6,M,-34.4,M,,*50
lng=-77.437866, lat=43.138290, altitude=154.60, speed=0.02, satellites=6, angle=13.9600, fixquality=1
$GPRMC,180011.000,A,4308.2973,N,07726.2722,W,0.02,201.56,150319,,,A*79
$GPGGA,180011.200,4308.2973,N,07726.2722,W,1,06,1.47,154.6,M,-34.4,M,,*58
lng=-77.437866, lat=43.138290, altitude=154.60, speed=0.02, satellites=6, angle=201.5600, fixquality=1
$GPRMC,180011.400,A,4308.2973,N,07726.2722,W,0.02,64.72,150319,,,A*4A
$GPGGA,180011.600,4308.2973,N,07726.2722,W,1,06,1.47,154.6,M,-34.4,M,,*5C
lng=-77.437866, lat=43.138290, altitude=154.60, speed=0.02, satellites=6, angle=64.7200, fixquality=1
$GPRMC,180011.800,A,4308.2973,N,07726.2722,W,0.02,207.73,150319,,,A*70
$GPGGA,180012.000,4308.2973,N,07726.2722,W,1,06,1.47,154.6,M,-34.4,M,,*59
lng=-77.437866, lat=43.138290, altitude=154.60, speed=0.02, satellites=6, angle=207.7300, fixquality=1
$GPRMC,180012.200,A,4308.2973,N,07726.2722,W,0.01,188.11,150319,,,A*7A
$GPGGA,180012.400,4308.2973,N,07726.2722,W,1,06,1.55,154.6,M,-34.4,M,,*5E
lng=-77.437866, lat=43.138290, altitude=154.60, speed=0.01, satellites=6, angle=188.1100, fixquality=1
$GPRMC,180012.600,A,4308.2973,N,07726.2722,W,0.02,336.36,150319,,,A*7F
$GPGGA,180012.800,4308.2973,N,07726.2722,W,1,06,1.55,154.6,M,-34.4,M,,*52
lng=-77.437866, lat=43.138290, altitude=154.60, speed=0.02, satellites=6, angle=336.3600, fixquality=1
$GPRMC,180013.000,A,4308.2973,N,07726.2722,W,0.00,227.57,150319,,,A*7C
$GPGGA,180013.200,4308.2973,N,07726.2722,W,1,06,1.55,154.6,M,-34.4,M,,*59
lng=-77.437866, lat=43.138290, altitude=154.60, speed=0.00, satellites=6, angle=227.5700, fixquality=1
$GPRMC,180013.400,A,4308.2973,N,07726.2722,W,0.00,113.09,150319,,,A*77
$GPGGA,180013.600,4308.2973,N,07726.2722,W,1,06,1.55,154.6,M,-34.4,M,,*5D
lng=-77.437866, lat=43.138290, altitude=154.60, speed=0.00, satellites=6, angle=113.0900, fixquality=1
$GPRMC,180013.800,A,4308.2973,N,07726.2722,W,0.00,297.50,150319,,,A*78
$GPGGA,180014.000,4308.2973,N,07726.2722,W,1,06,1.55,154.6,M,-34.4,M,,*5C
lng=-77.437866, lat=43.138290, altitude=154.60, speed=0.00, satellites=6, angle=297.5000, fixquality=1
$GPRMC,180014.200,A,4308.2973,N,07726.2722,W,0.00,135.05,150319,,,A*7E
$GPGGA,180014.400,4308.2973,N,07726.2722,W,1,06,1.55,154.6,M,-34.4,M,,*58
lng=-77.437866, lat=43.138290, altitude=154.60, speed=0.00, satellites=6, angle=135.0500, fixquality=1
$GPRMC,180014.600,A,4308.2973,N,07726.2722,W,0.00,315.71,150319,,,A*79
$GPGGA,180014.800,4308.2973,N,07726.2722,W,1,06,1.55,154.6,M,-34.4,M,,*54
lng=-77.437866, lat=43.138290, altitude=154.60, speed=0.00, satellites=6, angle=315.7100, fixquality=1
$GPRMC,180015.000,A,4308.2973,N,07726.2722,W,0.01,169.14,150319,,,A*75
$GPGGA,180015.200,4308.2973,N,07726.2722,W,1,06,1.55,154.6,M,-34.4,M,,*5F
lng=-77.437866, lat=43.138290, altitude=154.60, speed=0.01, satellites=6, angle=169.1400, fixquality=1
$GPRMC,180015.400,A,4308.2973,N,07726.2722,W,0.00,53.67,150319,,,A*4C
$GPGGA,180015.600,4308.2973,N,07726.2722,W,1,06,1.55,154.6,M,-34.4,M,,*5B
lng=-77.437866, lat=43.138290, altitude=154.60, speed=0.00, satellites=6, angle=53.6700, fixquality=1
$GPRMC,180015.800,A,4308.2973,N,07726.2722,W,0.00,193.18,150319,,,A*75
$GPGGA,180016.000,4308.2973,N,07726.2722,W,1,06,1.55,154.6,M,-34.4,M,,*5E
lng=-77.437866, lat=43.138290, altitude=154.60, speed=0.00, satellites=6, angle=193.1800, fixquality=1
$GPRMC,180016.200,A,4308.2973,N,07726.2722,W,0.01,350.76,150319,,,A*78
$GPGGA,180016.400,4308.2973,N,07726.2722,W,1,06,1.55,154.6,M,-34.4,M,,*5A
lng=-77.437866, lat=43.138290, altitude=154.60, speed=0.01, satellites=6, angle=350.7600, fixquality=1
$GPRMC,180016.600,A,4308.2973,N,07726.2722,W,0.00,329.83,150319,,,A*79
$GPGGA,180016.800,4308.2973,N,07726.2722,W,1,06,1.55,154.6,M,-34.4,M,,*56
lng=-77.437866, lat=43.138290, altitude=154.60, speed=0.00, satellites=6, angle=329.8300, fixquality=1
$GPRMC,180017.000,A,4308.2973,N,07726.2722,W,0.00,187.75,150319,,,A*71
$GPGGA,180017.200,4308.2973,N,07726.2722,W,1,06,1.55,154.6,M,-34.4,M,,*5D
lng=-77.437866, lat=43.138290, altitude=154.60, speed=0.00, satellites=6, angle=187.7500, fixquality=1
$GPRMC,180017.400,A,4308.2973,N,07726.2722,W,0.00,106.91,150319,,,A*76
$GPGGA,180017.600,4308.2973,N,07726.2722,W,1,06,1.55,154.6,M,-34.4,M,,*59
lng=-77.437866, lat=43.138290, altitude=154.60, speed=0.00, satellites=6, angle=106.9100, fixquality=1
$GPRMC,180017.800,A,4308.2973,N,07726.2722,W,0.01,124.21,150319,,,A*70
$GPGGA,180018.000,4308.2973,N,07726.2722,W,1,06,1.55,154.6,M,-34.4,M,,*50
lng=-77.437866, lat=43.138290, altitude=154.60, speed=0.01, satellites=6, angle=124.2100, fixquality=1
$GPRMC,180018.200,A,4308.2973,N,07726.2722,W,0.00,127.65,150319,,,A*77
$GPGGA,180018.400,4308.2973,N,07726.2722,W,1,06,1.55,154.6,M,-34.4,M,,*54
lng=-77.437866, lat=43.138290, altitude=154.60, speed=0.00, satellites=6, angle=127.6500, fixquality=1
$GPRMC,180018.600,A,4308.2973,N,07726.2722,W,0.01,59.44,150319,,,A*49
$GPGGA,180018.800,4308.2973,N,07726.2722,W,1,06,1.55,154.6,M,-34.4,M,,*58
lng=-77.437866, lat=43.138290, altitude=154.60, speed=0.01, satellites=6, angle=59.4400, fixquality=1
$GPRMC,180019.000,A,4308.2973,N,07726.2722,W,0.00,8.61,150319,,,A*7C
$GPGGA,180019.200,4308.2973,N,07726.2722,W,1,06,1.55,154.6,M,-34.4,M,,*53
lng=-77.437866, lat=43.138290, altitude=154.60, speed=0.00, satellites=6, angle=8.6100, fixquality=1
$GPRMC,180019.400,A,4308.2973,N,07726.2722,W,0.00,9.18,150319,,,A*77
$GPGGA,180019.600,4308.2973,N,07726.2722,W,1,06,1.55,154.6,M,-34.4,M,,*57
lng=-77.437866, lat=43.138290, altitude=154.60, speed=0.00, satellites=6, angle=9.1800, fixquality=1
$GPRMC,180019.800,A,4308.2973,N,07726.2722,W,0.00,93.51,150319,,,A*45
$GPGGA,180020.000,4308.2973,N,07726.2722,W,1,06,1.55,154.6,M,-34.4,M,,*5B
lng=-77.437866, lat=43.138290, altitude=154.60, speed=0.00, satellites=6, angle=93.5100, fixquality=1
$GPRMC,180020.200,A,4308.2973,N,07726.2722,W,0.00,276.46,150319,,,A*7A
$GPGGA,180020.400,4308.2973,N,07726.2722,W,1,06,1.55,154.6,M,-34.4,M,,*5F
lng=-77.437866, lat=43.138290, altitude=154.60, speed=0.00, satellites=6, angle=276.4600, fixquality=1
$GPRMC,180020.600,A,4308.2973,N,07726.2722,W,0.00,13.79,150319,,,A*43
$GPGGA,180020.800,4308.2973,N,07726.2722,W,1,06,1.55,154.6,M,-34.4,M,,*53
lng=-77.437866, lat=43.138290, altitude=154.60, speed=0.00, satellites=6, angle=13.7900, fixquality=1
$GPRMC,180021.000,A,4308.2973,N,07726.2722,W,0.00,138.94,150319,,,A*7F
$GPGGA,180021.200,4308.2973,N,07726.2722,W,1,06,1.55,154.6,M,-34.4,M,,*58
lng=-77.437866, lat=43.138290, altitude=154.60, speed=0.00, satellites=6, angle=138.9400, fixquality=1
$GPRMC,180021.400,A,4308.2973,N,07726.2722,W,0.01,51.05,150319,,,A*4C
$GPGGA,180021.600,4308.2973,N,07726.2722,W,1,06,1.55,154.6,M,-34.4,M,,*5C
lng=-77.437866, lat=43.138290, altitude=154.60, speed=0.01, satellites=6, angle=51.0500, fixquality=1
$GPRMC,180021.800,A,4308.2973,N,07726.2722,W,0.01,180.02,150319,,,A*7A
$GPGGA,180022.000,4308.2973,N,07726.2722,W,1,06,1.55,154.6,M,-34.4,M,,*59
lng=-77.437866, lat=43.138290, altitude=154.60, speed=0.01, satellites=6, angle=180.0200, fixquality=1
$GPRMC,180022.200,A,4308.2973,N,07726.2722,W,0.01,133.31,150319,,,A*7B
$GPGGA,180022.400,4308.2973,N,07726.2722,W,1,06,1.55,154.6,M,-34.4,M,,*5D
lng=-77.437866, lat=43.138290, altitude=154.60, speed=0.01, satellites=6, angle=133.3100, fixquality=1
$GPRMC,180022.600,A,4308.2973,N,07726.2722,W,0.01,46.10,150319,,,A*4F
$GPGGA,180022.800,4308.2973,N,07726.2722,W,1,06,1.55,154.6,M,-34.4,M,,*51
lng=-77.437866, lat=43.138290, altitude=154.60, speed=0.01, satellites=6, angle=46.1000, fixquality=1
$GPRMC,180023.000,A,4308.2973,N,07726.2722,W,0.00,289.51,150319,,,A*7D
$GPGGA,180023.200,4308.2973,N,07726.2722,W,1,06,1.55,154.6,M,-34.4,M,,*5A
lng=-77.437866, lat=43.138290, altitude=154.60, speed=0.00, satellites=6, angle=289.5100, fixquality=1
$GPRMC,180023.400,A,4308.2973,N,07726.2722,W,0.00,27.18,150319,,,A*42
$GPGGA,180023.600,4308.2973,N,07726.2722,W,1,06,1.55,154.6,M,-34.4,M,,*5E
lng=-77.437866, lat=43.138290, altitude=154.60, speed=0.00, satellites=6, angle=27.1800, fixquality=1
$GPRMC,180023.800,A,4308.2973,N,07726.2722,W,0.00,72.07,150319,,,A*40
$GPGGA,180024.000,4308.2973,N,07726.2722,W,1,06,1.55,154.6,M,-34.4,M,,*5F
lng=-77.437866, lat=43.138290, altitude=154.60, speed=0.00, satellites=6, angle=72.0700, fixquality=1
$GPRMC,180024.200,A,4308.2973,N,07726.2722,W,0.00,0.00,150319,,,A*7F
$GPGGA,180024.400,4308.2973,N,07726.2722,W,1,06,1.55,154.6,M,-34.4,M,,*5B
lng=-77.437866, lat=43.138290, altitude=154.60, speed=0.00, satellites=6, angle=0.0000, fixquality=1
$GPRMC,180024.600,A,4308.2973,N,07726.2722,W,0.01,98.96,150319,,,A*44
$GPGGA,180024.800,4308.2973,N,07726.2722,W,1,06,1.55,154.6,M,-34.4,M,,*57
lng=-77.437866, lat=43.138290, altitude=154.60, speed=0.01, satellites=6, angle=98.9600, fixquality=1
$GPRMC,180025.000,A,4308.2973,N,07726.2722,W,0.01,267.08,150319,,,A*76
$GPGGA,180025.200,4308.2973,N,07726.2722,W,1,06,1.55,154.6,M,-34.4,M,,*5C
lng=-77.437866, lat=43.138290, altitude=154.60, speed=0.01, satellites=6, angle=267.0800, fixquality=1
$GPRMC,180025.400,A,4308.2973,N,07726.2722,W,0.00,160.50,150319,,,A*7A
$GPGGA,180025.600,4308.2973,N,07726.2722,W,1,06,1.55,154.6,M,-34.4,M,,*58
lng=-77.437866, lat=43.138290, altitude=154.60, speed=0.00, satellites=6, angle=160.5000, fixquality=1
$GPRMC,180025.800,A,4308.2973,N,07726.2722,W,0.01,109.06,150319,,,A*7B
$GPGGA,180026.000,4308.2973,N,07726.2722,W,1,06,1.55,154.6,M,-34.4,M,,*5D
lng=-77.437866, lat=43.138290, altitude=154.60, speed=0.01, satellites=6, angle=109.0600, fixquality=1
$GPRMC,180026.200,A,4308.2973,N,07726.2722,W,0.01,343.69,150319,,,A*77
$GPGGA,180026.400,4308.2973,N,07726.2722,W,1,06,1.55,154.6,M,-34.4,M,,*59
lng=-77.437866, lat=43.138290, altitude=154.60, speed=0.01, satellites=6, angle=343.6900, fixquality=1
$GPRMC,180026.600,A,4308.2973,N,07726.2722,W,0.00,242.92,150319,,,A*76
$GPGGA,180026.800,4308.2973,N,07726.2722,W,1,06,1.55,154.6,M,-34.4,M,,*55
lng=-77.437866, lat=43.138290, altitude=154.60, speed=0.00, satellites=6, angle=242.9200, fixquality=1
$GPRMC,180027.000,A,4308.2973,N,07726.2722,W,0.00,141.27,150319,,,A*7F
$GPGGA,180027.200,4308.2973,N,07726.2722,W,1,06,1.55,154.6,M,-34.4,M,,*5E
lng=-77.437866, lat=43.138290, altitude=154.60, speed=0.00, satellites=6, angle=141.2700, fixquality=1
$GPRMC,180027.400,A,4308.2973,N,07726.2722,W,0.00,272.56,150319,,,A*7E
$GPGGA,180027.600,4308.2973,N,07726.2722,W,1,06,1.55,154.6,M,-34.4,M,,*5A
lng=-77.437866, lat=43.138290, altitude=154.60, speed=0.00, satellites=6, angle=272.5600, fixquality=1
$GPRMC,180027.800,A,4308.2973,N,07726.2722,W,0.00,7.74,150319,,,A*72
$GPGGA,180028.000,4308.2973,N,07726.2722,W,1,06,1.55,154.6,M,-34.4,M,,*53
lng=-77.437866, lat=43.138290, altitude=154.60, speed=0.00, satellites=6, angle=7.7400, fixquality=1
$GPRMC,180028.200,A,4308.2973,N,07726.2722,W,0.01,42.08,150319,,,A*4C
$GPGGA,180028.400,4308.2973,N,07726.2722,W,1,06,1.55,154.6,M,-34.4,M,,*57
lng=-77.437866, lat=43.138290, altitude=154.60, speed=0.01, satellites=6, angle=42.0800, fixquality=1
$GPRMC,180028.600,A,4308.2973,N,07726.2722,W,0.00,216.37,150319,,,A*76
$GPGGA,180028.800,4308.2973,N,07726.2722,W,1,06,1.55,154.6,M,-34.4,M,,*5B
lng=-77.437866, lat=43.138290, altitude=154.60, speed=0.00, satellites=6, angle=216.3700, fixquality=1
$GPRMC,180029.000,A,4308.2973,N,07726.2722,W,0.01,314.65,150319,,,A*74
$GPGGA,180029.200,4308.2973,N,07726.2722,W,1,06,1.55,154.6,M,-34.4,M,,*50
lng=-77.437866, lat=43.138290, altitude=154.60, speed=0.01, satellites=6, angle=314.6500, fixquality=1
$GPRMC,180029.400,A,4308.2973,N,07726.2722,W,0.01,166.17,150319,,,A*72
$GPGGA,180029.600,4308.2973,N,07726.2722,W,1,06,1.55,154.6,M,-34.4,M,,*54
lng=-77.437866, lat=43.138290, altitude=154.60, speed=0.01, satellites=6, angle=166.1700, fixquality=1
$GPRMC,180029.800,A,4308.2973,N,07726.2722,W,0.00,143.17,150319,,,A*78
$GPGGA,180030.000,4308.2973,N,07726.2722,W,1,06,1.55,154.7,M,-34.4,M,,*5B
lng=-77.437866, lat=43.138290, altitude=154.60, speed=0.00, satellites=6, angle=143.1700, fixquality=1
$GPRMC,180030.200,A,4308.2973,N,07726.2722,W,0.00,357.56,150319,,,A*78
$GPGGA,180030.400,4308.2973,N,07726.2722,W,1,06,1.55,154.7,M,-34.4,M,,*5F
lng=-77.437866, lat=43.138290, altitude=154.70, speed=0.00, satellites=6, angle=357.5600, fixquality=1
$GPRMC,180030.600,A,4308.2973,N,07726.2722,W,0.00,252.76,150319,,,A*7A
$GPGGA,180030.800,4308.2973,N,07726.2722,W,1,06,1.55,154.7,M,-34.4,M,,*53
lng=-77.437866, lat=43.138290, altitude=154.70, speed=0.00, satellites=6, angle=252.7600, fixquality=1
$GPRMC,180031.000,A,4308.2973,N,07726.2722,W,0.00,0.00,150319,,,A*79
$GPGGA,180031.200,4308.2973,N,07726.2722,W,1,06,1.55,154.7,M,-34.4,M,,*58
lng=-77.437866, lat=43.138290, altitude=154.70, speed=0.00, satellites=6, angle=0.0000, fixquality=1
$GPRMC,180031.400,A,4308.2973,N,07726.2722,W,0.01,130.06,150319,,,A*78
$GPGGA,180031.600,4308.2973,N,07726.2722,W,1,06,1.55,154.7,M,-34.4,M,,*5C
lng=-77.437866, lat=43.138290, altitude=154.70, speed=0.01, satellites=6, angle=130.0600, fixquality=1
$GPRMC,180031.800,A,4308.2973,N,07726.2722,W,0.01,336.89,150319,,,A*77
$GPGGA,180032.000,4308.2973,N,07726.2722,W,1,06,1.55,154.7,M,-34.4,M,,*59
lng=-77.437866, lat=43.138290, altitude=154.70, speed=0.01, satellites=6, angle=336.8900, fixquality=1
$GPRMC,180032.200,A,4308.2973,N,07726.2722,W,0.00,131.96,150319,,,A*74
$GPGGA,180032.400,4308.2973,N,07726.2722,W,1,06,1.55,154.7,M,-34.4,M,,*5D
lng=-77.437866, lat=43.138290, altitude=154.70, speed=0.00, satellites=6, angle=131.9600, fixquality=1
$GPRMC,180032.600,A,4308.2973,N,07726.2722,W,0.01,292.82,150319,,,A*7E
$GPGGA,180032.800,4308.2973,N,07726.2722,W,1,06,1.55,154.7,M,-34.4,M,,*51
lng=-77.437866, lat=43.138290, altitude=154.70, speed=0.01, satellites=6, angle=292.8200, fixquality=1
$GPRMC,180033.000,A,4308.2973,N,07726.2722,W,0.01,345.33,150319,,,A*78
$GPGGA,180033.200,4308.2973,N,07726.2722,W,1,06,1.55,154.7,M,-34.4,M,,*5A
lng=-77.437866, lat=43.138290, altitude=154.70, speed=0.01, satellites=6, angle=345.3300, fixquality=1
$GPRMC,180033.400,A,4308.2973,N,07726.2722,W,0.00,95.54,150319,,,A*42
$GPGGA,180033.600,4308.2973,N,07726.2722,W,1,06,1.55,154.7,M,-34.4,M,,*5E
lng=-77.437866, lat=43.138290, altitude=154.70, speed=0.00, satellites=6, angle=95.5400, fixquality=1
$GPRMC,180033.800,A,4308.2973,N,07726.2722,W,0.00,335.05,150319,,,A*73
$GPGGA,180034.000,4308.2973,N,07726.2722,W,1,06,1.55,154.7,M,-34.4,M,,*5F
lng=-77.437866, lat=43.138290, altitude=154.70, speed=0.00, satellites=6, angle=335.0500, fixquality=1
$GPRMC,180034.200,A,4308.2973,N,07726.2722,W,0.00,213.91,150319,,,A*76
$GPGGA,180034.400,4308.2973,N,07726.2722,W,1,06,1.55,154.7,M,-34.4,M,,*5B
lng=-77.437866, lat=43.138290, altitude=154.70, speed=0.00, satellites=6, angle=213.9100, fixquality=1
$GPRMC,180034.600,A,4308.2973,N,07726.2722,W,0.01,165.19,150319,,,A*71
$GPGGA,180034.800,4308.2973,N,07726.2722,W,1,06,1.55,154.7,M,-34.4,M,,*57
lng=-77.437866, lat=43.138290, altitude=154.70, speed=0.01, satellites=6, angle=165.1900, fixquality=1
$GPRMC,180035.000,A,4308.2973,N,07726.2722,W,0.02,312.66,150319,,,A*7F
$GPGGA,180035.200,4308.2973,N,07726.2722,W,1,06,1.55,154.7,M,-34.4,M,,*5C
lng=-77.437866, lat=43.138290, altitude=154.70, speed=0.02, satellites=6, angle=312.6600, fixquality=1
$GPRMC,180035.400,A,4308.2973,N,07726.2722,W,0.01,65.25,150319,,,A*4C
$GPGGA,180035.600,4308.2973,N,07726.2722,W,1,06,1.55,154.7,M,-34.4,M,,*58
lng=-77.437866, lat=43.138290, altitude=154.70, speed=0.01, satellites=6, angle=65.2500, fixquality=1
$GPRMC,180035.800,A,4308.2973,N,07726.2722,W,0.00,106.42,150319,,,A*74
$GPGGA,180036.000,4308.2973,N,07726.2722,W,1,06,1.55,154.7,M,-34.4,M,,*5D
lng=-77.437866, lat=43.138290, altitude=154.70, speed=0.00, satellites=6, angle=106.4200, fixquality=1
$GPRMC,180036.200,A,4308.2973,N,07726.2722,W,0.01,78.60,150319,,,A*44
$GPGGA,180036.400,4308.2973,N,07726.2722,W,1,06,1.55,154.7,M,-34.4,M,,*59
lng=-77.437866, lat=43.138290, altitude=154.70, speed=0.01, satellites=6, angle=78.6000, fixquality=1
$GPRMC,180036.600,A,4308.2973,N,07726.2722,W,0.01,78.50,150319,,,A*43
$GPGGA,180036.800,4308.2973,N,07726.2722,W,1,06,1.55,154.7,M,-34.4,M,,*55
lng=-77.437866, lat=43.138290, altitude=154.70, speed=0.01, satellites=6, angle=78.5000, fixquality=1
$GPRMC,180037.000,A,4308.2973,N,07726.2722,W,0.01,306.01,150319,,,A*7A
$GPGGA,180037.200,4308.2973,N,07726.2722,W,1,06,1.55,154.7,M,-34.4,M,,*5E
lng=-77.437866, lat=43.138290, altitude=154.70, speed=0.01, satellites=6, angle=306.0100, fixquality=1
$GPRMC,180037.400,A,4308.2973,N,07726.2722,W,0.01,155.93,150319,,,A*71
$GPGGA,180037.600,4308.2973,N,07726.2722,W,1,06,1.54,154.7,M,-34.4,M,,*5B
lng=-77.437866, lat=43.138290, altitude=154.70, speed=0.01, satellites=6, angle=155.9300, fixquality=1
$GPRMC,180037.800,A,4308.2973,N,07726.2722,W,0.00,15.10,150319,,,A*42
$GPGGA,180038.000,4308.2973,N,07726.2722,W,1,06,1.55,154.7,M,-34.4,M,,*53
lng=-77.437866, lat=43.138290, altitude=154.70, speed=0.00, satellites=6, angle=15.1000, fixquality=1
$GPRMC,180038.200,A,4308.2973,N,07726.2722,W,0.01,268.20,150319,,,A*7D
$GPGGA,180038.400,4308.2973,N,07726.2722,W,1,06,1.54,154.7,M,-34.4,M,,*56
lng=-77.437866, lat=43.138290, altitude=154.70, speed=0.01, satellites=6, angle=268.2000, fixquality=1
$GPRMC,180038.600,A,4308.2973,N,07726.2722,W,0.00,8.36,150319,,,A*7B
$GPGGA,180038.800,4308.2973,N,07726.2722,W,1,06,1.54,154.7,M,-34.4,M,,*5A
lng=-77.437866, lat=43.138290, altitude=154.70, speed=0.00, satellites=6, angle=8.3600, fixquality=1
$GPRMC,180039.000,A,4308.2973,N,07726.2722,W,0.00,92.46,150319,,,A*48
$GPGGA,180039.200,4308.2973,N,07726.2722,W,1,06,1.55,154.7,M,-34.4,M,,*50
lng=-77.437866, lat=43.138290, altitude=154.70, speed=0.00, satellites=6, angle=92.4600, fixquality=1
$GPRMC,180039.400,A,4308.2973,N,07726.2722,W,0.00,261.83,150319,,,A*7B
$GPGGA,180039.600,4308.2973,N,07726.2722,W,1,06,1.54,154.7,M,-34.4,M,,*55
lng=-77.437866, lat=43.138290, altitude=154.70, speed=0.00, satellites=6, angle=261.8300, fixquality=1
$GPRMC,180039.800,A,4308.2973,N,07726.2722,W,0.00,188.45,150319,,,A*79
$GPGGA,180040.000,4308.2973,N,07726.2722,W,1,06,1.54,154.7,M,-34.4,M,,*5D
lng=-77.437866, lat=43.138290, altitude=154.70, speed=0.00, satellites=6, angle=188.4500, fixquality=1
$GPRMC,180040.200,A,4308.2973,N,07726.2722,W,0.01,183.95,150319,,,A*7A
$GPGGA,180040.400,4308.2973,N,07726.2722,W,1,06,1.54,154.7,M,-34.4,M,,*59
lng=-77.437866, lat=43.138290, altitude=154.70, speed=0.01, satellites=6, angle=183.9500, fixquality=1
$GPRMC,180040.600,A,4308.2973,N,07726.2722,W,0.01,249.98,150319,,,A*76
$GPGGA,180040.800,4308.2973,N,07726.2722,W,1,06,1.54,154.7,M,-34.4,M,,*55
lng=-77.437866, lat=43.138290, altitude=154.70, speed=0.01, satellites=6, angle=249.9800, fixquality=1
$GPRMC,180041.000,A,4308.2973,N,07726.2722,W,0.00,336.77,150319,,,A*78
$GPGGA,180041.200,4308.2973,N,07726.2722,W,1,06,1.54,154.7,M,-34.4,M,,*5E
lng=-77.437866, lat=43.138290, altitude=154.70, speed=0.00, satellites=6, angle=336.7700, fixquality=1
$GPRMC,180041.400,A,4308.2973,N,07726.2722,W,0.01,14.25,150319,,,A*49
$GPGGA,180041.600,4308.2973,N,07726.2722,W,1,06,1.54,154.7,M,-34.4,M,,*5A
lng=-77.437866, lat=43.138290, altitude=154.70, speed=0.01, satellites=6, angle=14.2500, fixquality=1
$GPRMC,180041.800,A,4308.2973,N,07726.2722,W,0.00,120.94,150319,,,A*78
$GPGGA,180042.000,4308.2973,N,07726.2722,W,1,06,1.54,154.7,M,-34.4,M,,*5F
lng=-77.437866, lat=43.138290, altitude=154.70, speed=0.00, satellites=6, angle=120.9400, fixquality=1
$GPRMC,180042.200,A,4308.2973,N,07726.2722,W,0.01,95.02,150319,,,A*40
$GPGGA,180042.400,4308.2973,N,07726.2722,W,1,06,1.54,154.7,M,-34.4,M,,*5B
lng=-77.437866, lat=43.138290, altitude=154.70, speed=0.01, satellites=6, angle=95.0200, fixquality=1
$GPRMC,180042.600,A,4308.2973,N,07726.2722,W,0.01,142.92,150319,,,A*76
$GPGGA,180042.800,4308.2973,N,07726.2722,W,1,06,1.54,154.7,M,-34.4,M,,*57
lng=-77.437866, lat=43.138290, altitude=154.70, speed=0.01, satellites=6, angle=142.9200, fixquality=1
$GPRMC,180043.000,A,4308.2973,N,07726.2722,W,0.01,349.48,150319,,,A*7F
$GPGGA,180043.200,4308.2973,N,07726.2722,W,1,06,1.54,154.7,M,-34.4,M,,*5C
lng=-77.437866, lat=43.138290, altitude=154.70, speed=0.01, satellites=6, angle=349.4800, fixquality=1
$GPRMC,180043.400,A,4308.2973,N,07726.2722,W,0.01,159.99,150319,,,A*74
$GPGGA,180043.600,4308.2973,N,07726.2722,W,1,06,1.54,154.7,M,-34.4,M,,*58
lng=-77.437866, lat=43.138290, altitude=154.70, speed=0.01, satellites=6, angle=159.9900, fixquality=1
$GPRMC,180043.800,A,4308.2973,N,07726.2722,W,0.01,170.24,150319,,,A*75
$GPGGA,180044.000,4308.2973,N,07726.2722,W,1,06,1.54,154.7,M,-34.4,M,,*59
lng=-77.437866, lat=43.138290, altitude=154.70, speed=0.01, satellites=6, angle=170.2400, fixquality=1
$GPRMC,180044.200,A,4308.2973,N,07726.2722,W,0.00,125.68,150319,,,A*71
$GPGGA,180044.400,4308.2973,N,07726.2722,W,1,06,1.54,154.7,M,-34.4,M,,*5D
lng=-77.437866, lat=43.138290, altitude=154.70, speed=0.00, satellites=6, angle=125.6800, fixquality=1
$GPRMC,180044.600,A,4308.2973,N,07726.2722,W,0.00,47.18,150319,,,A*47
$GPGGA,180044.800,4308.2973,N,07726.2722,W,1,06,1.54,154.7,M,-34.4,M,,*51
lng=-77.437866, lat=43.138290, altitude=154.70, speed=0.00, satellites=6, angle=47.1800, fixquality=1
$GPRMC,180045.000,A,4308.2973,N,07726.2722,W,0.01,267.51,150319,,,A*7C
$GPGGA,180045.200,4308.2973,N,07726.2722,W,1,06,1.54,154.7,M,-34.4,M,,*5A
lng=-77.437866, lat=43.138290, altitude=154.70, speed=0.01, satellites=6, angle=267.5100, fixquality=1
$GPRMC,180045.400,A,4308.2973,N,07726.2722,W,0.00,118.90,150319,,,A*7F
$GPGGA,180045.600,4308.2973,N,07726.2722,W,1,06,1.54,154.7,M,-34.4,M,,*5E
lng=-77.437866, lat=43.138290, altitude=154.70, speed=0.00, satellites=6, angle=118.9000, fixquality=1
$GPRMC,180045.800,A,4308.2973,N,07726.2722,W,0.01,48.12,150319,,,A*4C
$GPGGA,180046.000,4308.2973,N,07726.2722,W,1,06,1.54,154.7,M,-34.4,M,,*5B
lng=-77.437866, lat=43.138290, altitude=154.70, speed=0.01, satellites=6, angle=48.1200, fixquality=1
$GPRMC,180046.200,A,4308.2973,N,07726.2722,W,0.00,341.59,150319,,,A*71
$GPGGA,180046.400,4308.2973,N,07726.2722,W,1,06,1.54,154.7,M,-34.4,M,,*5F
lng=-77.437866, lat=43.138290, altitude=154.70, speed=0.00, satellites=6, angle=341.5900, fixquality=1
$GPRMC,180046.600,A,4308.2972,N,07726.2722,W,0.00,333.45,150319,,,A*7C
$GPGGA,180046.800,4308.2972,N,07726.2722,W,1,06,1.54,154.7,M,-34.4,M,,*52
lng=-77.437866, lat=43.138290, altitude=154.70, speed=0.00, satellites=6, angle=333.4500, fixquality=1
$GPRMC,180047.000,A,4308.2972,N,07726.2722,W,0.00,274.38,150319,,,A*73
$GPGGA,180047.200,4308.2972,N,07726.2722,W,1,06,1.54,154.7,M,-34.4,M,,*59
lng=-77.437866, lat=43.138290, altitude=154.70, speed=0.00, satellites=6, angle=274.3800, fixquality=1
$GPRMC,180047.400,A,4308.2972,N,07726.2722,W,0.00,351.60,150319,,,A*7C
$GPGGA,180047.600,4308.2972,N,07726.2722,W,1,06,1.54,154.7,M,-34.4,M,,*5D
lng=-77.437866, lat=43.138290, altitude=154.70, speed=0.00, satellites=6, angle=351.6000, fixquality=1
$GPRMC,180047.800,A,4308.2972,N,07726.2722,W,0.01,120.49,150319,,,A*7E
$GPGGA,180048.000,4308.2972,N,07726.2722,W,1,06,1.54,154.7,M,-34.4,M,,*54
lng=-77.437866, lat=43.138290, altitude=154.70, speed=0.01, satellites=6, angle=120.4900, fixquality=1
$GPRMC,180048.200,A,4308.2972,N,07726.2722,W,0.01,55.16,150319,,,A*42
$GPGGA,180048.400,4308.2972,N,07726.2722,W,1,07,1.34,154.7,M,-34.4,M,,*57
lng=-77.437866, lat=43.138290, altitude=154.70, speed=0.01, satellites=6, angle=55.1600, fixquality=1
$GPRMC,180048.600,A,4308.2972,N,07726.2722,W,0.01,166.18,150319,,,A*79
$GPGGA,180048.800,4308.2972,N,07726.2722,W,1,07,1.34,154.7,M,-34.4,M,,*5B
lng=-77.437866, lat=43.138290, altitude=154.70, speed=0.01, satellites=7, angle=166.1800, fixquality=1
$GPRMC,180049.000,A,4308.2972,N,07726.2722,W,0.00,0.00,150319,,,A*77
$GPGGA,180049.200,4308.2972,N,07726.2722,W,1,07,1.34,154.7,M,-34.4,M,,*50
lng=-77.437866, lat=43.138290, altitude=154.70, speed=0.00, satellites=7, angle=0.0000, fixquality=1
$GPRMC,180049.400,A,4308.2972,N,07726.2722,W,0.00,47.86,150319,,,A*4E
$GPGGA,180049.600,4308.2972,N,07726.2722,W,1,07,1.34,154.7,M,-34.4,M,,*54
lng=-77.437866, lat=43.138290, altitude=154.70, speed=0.00, satellites=7, angle=47.8600, fixquality=1
$GPRMC,180049.800,A,4308.2972,N,07726.2722,W,0.01,189.44,150319,,,A*7E
$GPGGA,180050.000,4308.2972,N,07726.2722,W,1,07,1.34,154.7,M,-34.4,M,,*5A
lng=-77.437866, lat=43.138290, altitude=154.70, speed=0.01, satellites=7, angle=189.4400, fixquality=1
$GPRMC,180050.200,A,4308.2972,N,07726.2722,W,0.01,290.94,150319,,,A*7A
$GPGGA,180050.400,4308.2972,N,07726.2722,W,1,07,1.34,154.7,M,-34.4,M,,*5E
lng=-77.437866, lat=43.138290, altitude=154.70, speed=0.01, satellites=7, angle=290.9400, fixquality=1
$GPRMC,180050.600,A,4308.2972,N,07726.2722,W,0.00,134.43,150319,,,A*78
$GPGGA,180050.800,4308.2972,N,07726.2722,W,1,07,1.34,154.7,M,-34.4,M,,*52
lng=-77.437866, lat=43.138290, altitude=154.70, speed=0.00, satellites=7, angle=134.4300, fixquality=1
$GPRMC,180051.000,A,4308.2972,N,07726.2722,W,0.01,151.91,150319,,,A*72
$GPGGA,180051.200,4308.2972,N,07726.2722,W,1,07,1.34,154.7,M,-34.4,M,,*59
lng=-77.437866, lat=43.138290, altitude=154.70, speed=0.01, satellites=7, angle=151.9100, fixquality=1
$GPRMC,180051.400,A,4308.2972,N,07726.2722,W,0.01,332.57,150319,,,A*7B
$GPGGA,180051.600,4308.2972,N,07726.2722,W,1,07,1.34,154.7,M,-34.4,M,,*5D
lng=-77.437866, lat=43.138290, altitude=154.70, speed=0.01, satellites=7, angle=332.5700, fixquality=1
$GPRMC,180051.800,A,4308.2972,N,07726.2722,W,0.00,0.00,150319,,,A*76
$GPGGA,180052.000,4308.2972,N,07726.2722,W,1,07,1.34,154.7,M,-34.4,M,,*58
lng=-77.437866, lat=43.138290, altitude=154.70, speed=0.00, satellites=7, angle=0.0000, fixquality=1
$GPRMC,180052.200,A,4308.2972,N,07726.2722,W,0.01,133.31,150319,,,A*7D
$GPGGA,180052.400,4308.2972,N,07726.2722,W,1,07,1.34,154.7,M,-34.4,M,,*5C
lng=-77.437866, lat=43.138290, altitude=154.70, speed=0.01, satellites=7, angle=133.3100, fixquality=1
$GPRMC,180052.600,A,4308.2972,N,07726.2722,W,0.00,280.93,150319,,,A*7B
$GPGGA,180052.800,4308.2972,N,07726.2722,W,1,07,1.34,154.7,M,-34.4,M,,*50
lng=-77.437866, lat=43.138290, altitude=154.70, speed=0.00, satellites=7, angle=280.9300, fixquality=1
$GPRMC,180053.000,A,4308.2972,N,07726.2722,W,0.00,45.09,150319,,,A*44
$GPGGA,180053.200,4308.2972,N,07726.2722,W,1,07,1.34,154.7,M,-34.4,M,,*5B
lng=-77.437866, lat=43.138290, altitude=154.70, speed=0.00, satellites=7, angle=45.0900, fixquality=1
$GPRMC,180053.400,A,4308.2972,N,07726.2722,W,0.00,350.43,150319,,,A*79
$GPGGA,180053.600,4308.2972,N,07726.2722,W,1,07,1.34,154.7,M,-34.4,M,,*5F
lng=-77.437866, lat=43.138290, altitude=154.70, speed=0.00, satellites=7, angle=350.4300, fixquality=1
$GPRMC,180053.800,A,4308.2972,N,07726.2722,W,0.00,244.71,150319,,,A*70
$GPGGA,180054.000,4308.2972,N,07726.2722,W,1,07,1.34,154.7,M,-34.4,M,,*5E
lng=-77.437866, lat=43.138290, altitude=154.70, speed=0.00, satellites=7, angle=244.7100, fixquality=1
$GPRMC,180054.200,A,4308.2972,N,07726.2722,W,0.00,286.42,150319,,,A*73
$GPGGA,180054.400,4308.2972,N,07726.2722,W,1,07,1.34,154.7,M,-34.4,M,,*5A
lng=-77.437866, lat=43.138290, altitude=154.70, speed=0.00, satellites=7, angle=286.4200, fixquality=1
$GPRMC,180054.600,A,4308.2972,N,07726.2722,W,0.01,333.31,150319,,,A*7D
$GPGGA,180054.800,4308.2972,N,07726.2722,W,1,07,1.34,154.7,M,-34.4,M,,*56
lng=-77.437866, lat=43.138290, altitude=154.70, speed=0.01, satellites=7, angle=333.3100, fixquality=1
$GPRMC,180055.000,A,4308.2972,N,07726.2722,W,0.01,193.55,150319,,,A*70
$GPGGA,180055.200,4308.2972,N,07726.2722,W,1,07,1.34,154.7,M,-34.4,M,,*5D
lng=-77.437866, lat=43.138290, altitude=154.70, speed=0.01, satellites=7, angle=193.5500, fixquality=1
$GPRMC,180055.400,A,4308.2972,N,07726.2722,W,0.01,359.25,150319,,,A*77
$GPGGA,180055.600,4308.2972,N,07726.2722,W,1,07,1.34,154.7,M,-34.4,M,,*59
lng=-77.437866, lat=43.138290, altitude=154.70, speed=0.01, satellites=7, angle=359.2500, fixquality=1
$GPRMC,180055.800,A,4308.2972,N,07726.2722,W,0.00,249.97,150319,,,A*73
$GPGGA,180056.000,4308.2972,N,07726.2722,W,1,07,1.34,154.7,M,-34.4,M,,*5C
lng=-77.437866, lat=43.138290, altitude=154.70, speed=0.00, satellites=7, angle=249.9700, fixquality=1
$GPRMC,180056.200,A,4308.2972,N,07726.2722,W,0.01,156.66,150319,,,A*78
$GPGGA,180056.400,4308.2972,N,07726.2722,W,1,07,1.34,154.7,M,-34.4,M,,*58
lng=-77.437866, lat=43.138290, altitude=154.70, speed=0.01, satellites=7, angle=156.6600, fixquality=1
$GPRMC,180056.600,A,4308.2972,N,07726.2722,W,0.00,4.17,150319,,,A*7D
$GPGGA,180056.800,4308.2972,N,07726.2722,W,1,07,1.34,154.8,M,-34.4,M,,*5B
lng=-77.437866, lat=43.138290, altitude=154.70, speed=0.00, satellites=7, angle=4.1700, fixquality=1
$GPRMC,180057.000,A,4308.2972,N,07726.2722,W,0.01,302.60,150319,,,A*7E
$GPGGA,180057.200,4308.2972,N,07726.2722,W,1,07,1.34,154.8,M,-34.4,M,,*50
lng=-77.437866, lat=43.138290, altitude=154.80, speed=0.01, satellites=7, angle=302.6000, fixquality=1
$GPRMC,180057.400,A,4308.2972,N,07726.2722,W,0.01,120.58,150319,,,A*73
$GPGGA,180057.600,4308.2972,N,07726.2722,W,1,07,1.34,154.8,M,-34.4,M,,*54
lng=-77.437866, lat=43.138290, altitude=154.80, speed=0.01, satellites=7, angle=120.5800, fixquality=1
$GPRMC,180057.800,A,4308.2972,N,07726.2722,W,0.00,290.89,150319,,,A*7A
$GPGGA,180058.000,4308.2972,N,07726.2722,W,1,07,1.34,154.8,M,-34.4,M,,*5D
lng=-77.437866, lat=43.138290, altitude=154.80, speed=0.00, satellites=7, angle=290.8900, fixquality=1
$GPRMC,180058.200,A,4308.2972,N,07726.2722,W,0.00,309.53,150319,,,A*79
$GPGGA,180058.400,4308.2972,N,07726.2722,W,1,07,1.34,154.8,M,-34.4,M,,*59
lng=-77.437866, lat=43.138290, altitude=154.80, speed=0.00, satellites=7, angle=309.5300, fixquality=1
$GPRMC,180058.600,A,4308.2972,N,07726.2722,W,0.00,271.55,150319,,,A*75
$GPGGA,180058.800,4308.2972,N,07726.2722,W,1,07,1.34,154.8,M,-34.4,M,,*55
lng=-77.437866, lat=43.138290, altitude=154.80, speed=0.00, satellites=7, angle=271.5500, fixquality=1
$GPRMC,180059.000,A,4308.2972,N,07726.2722,W,0.00,198.32,150319,,,A*77
$GPGGA,180059.200,4308.2972,N,07726.2722,W,1,07,1.34,154.8,M,-34.4,M,,*5E
lng=-77.437866, lat=43.138290, altitude=154.80, speed=0.00, satellites=7, angle=198.3200, fixquality=1
$GPRMC,180059.400,A,4308.2972,N,07726.2722,W,0.01,158.12,150319,,,A*7C
$GPGGA,180059.600,4308.2972,N,07726.2722,W,1,07,1.34,154.8,M,-34.4,M,,*5A
lng=-77.437866, lat=43.138290, altitude=154.80, speed=0.01, satellites=7, angle=158.1200, fixquality=1
$GPRMC,180059.800,A,4308.2972,N,07726.2722,W,0.00,73.76,150319,,,A*4B
$GPGGA,180100.000,4308.2972,N,07726.2722,W,1,07,1.34,154.8,M,-34.4,M,,*51
lng=-77.437866, lat=43.138290, altitude=154.80, speed=0.00, satellites=7, angle=73.7600, fixquality=1
$GPRMC,180100.200,A,4308.2972,N,07726.2722,W,0.00,253.22,150319,,,A*7D
$GPGGA,180100.400,4308.2972,N,07726.2722,W,1,08,1.04,154.8,M,-34.4,M,,*59
lng=-77.437866, lat=43.138290, altitude=154.80, speed=0.00, satellites=7, angle=253.2200, fixquality=1
$GPRMC,180100.600,A,4308.2972,N,07726.2722,W,0.00,29.40,150319,,,A*42
$GPGGA,180100.800,4308.2972,N,07726.2722,W,1,08,1.04,154.8,M,-34.4,M,,*55
lng=-77.437866, lat=43.138290, altitude=154.80, speed=0.00, satellites=8, angle=29.4000, fixquality=1
$GPRMC,180101.000,A,4308.2972,N,07726.2722,W,0.00,146.92,150319,,,A*72
$GPGGA,180101.200,4308.2972,N,07726.2722,W,1,08,1.04,154.8,M,-34.4,M,,*5E
lng=-77.437866, lat=43.138290, altitude=154.80, speed=0.00, satellites=8, angle=146.9200, fixquality=1
$GPRMC,180101.400,A,4308.2972,N,07726.2722,W,0.01,93.84,150319,,,A*49
$GPGGA,180101.600,4308.2972,N,07726.2722,W,1,08,1.04,154.8,M,-34.4,M,,*5A
lng=-77.437866, lat=43.138290, altitude=154.80, speed=0.01, satellites=8, angle=93.8400, fixquality=1
$GPRMC,180101.800,A,4308.2972,N,07726.2722,W,0.00,293.95,150319,,,A*76
$GPGGA,180102.000,4308.2972,N,07726.2722,W,1,08,1.04,154.8,M,-34.4,M,,*5F
lng=-77.437866, lat=43.138290, altitude=154.80, speed=0.00, satellites=8, angle=293.9500, fixquality=1
$GPRMC,180102.200,A,4308.2972,N,07726.2722,W,0.01,116.45,150319,,,A*7D
$GPGGA,180102.400,4308.2972,N,07726.2722,W,1,08,1.04,154.8,M,-34.4,M,,*5B
lng=-77.437866, lat=43.138290, altitude=154.80, speed=0.01, satellites=8, angle=116.4500, fixquality=1
$GPRMC,180102.600,A,4308.2972,N,07726.2722,W,0.00,101.82,150319,,,A*75
$GPGGA,180102.800,4308.2972,N,07726.2722,W,1,08,1.04,154.8,M,-34.4,M,,*57
lng=-77.437866, lat=43.138290, altitude=154.80, speed=0.00, satellites=8, angle=101.8200, fixquality=1
$GPRMC,180103.000,A,4308.2972,N,07726.2722,W,0.00,5.14,150319,,,A*78
$GPGGA,180103.200,4308.2972,N,07726.2722,W,1,08,1.04,154.8,M,-34.4,M,,*5C
lng=-77.437866, lat=43.138290, altitude=154.80, speed=0.00, satellites=8, angle=5.1400, fixquality=1
$GPRMC,180103.400,A,4308.2972,N,07726.2722,W,0.01,295.02,150319,,,A*71
$GPGGA,180103.600,4308.2972,N,07726.2722,W,1,08,1.04,154.8,M,-34.4,M,,*58
lng=-77.437866, lat=43.138290, altitude=154.80, speed=0.01, satellites=8, angle=295.0200, fixquality=1
$GPRMC,180103.800,A,4308.2972,N,07726.2722,W,0.01,245.42,150319,,,A*74
$GPGGA,180104.000,4308.2972,N,07726.2722,W,1,08,1.04,154.8,M,-34.4,M,,*59
lng=-77.437866, lat=43.138290, altitude=154.80, speed=0.01, satellites=8, angle=245.4200, fixquality=1
$GPRMC,180104.200,A,4308.2972,N,07726.2722,W,0.00,88.71,150319,,,A*4B
$GPGGA,180104.400,4308.2972,N,07726.2722,W,1,08,1.04,154.8,M,-34.4,M,,*5D
lng=-77.437866, lat=43.138290, altitude=154.80, speed=0.00, satellites=8, angle=88.7100, fixquality=1
$GPRMC,180104.600,A,4308.2972,N,07726.2722,W,0.01,289.42,150319,,,A*7D
$GPGGA,180104.800,4308.2972,N,07726.2722,W,1,08,1.04,154.8,M,-34.4,M,,*51
lng=-77.437866, lat=43.138290, altitude=154.80, speed=0.01, satellites=8, angle=289.4200, fixquality=1
$GPRMC,180105.000,A,4308.2972,N,07726.2722,W,0.01,110.34,150319,,,A*78
$GPGGA,180105.200,4308.2972,N,07726.2721,W,1,08,1.04,154.8,M,-34.4,M,,*59
lng=-77.437866, lat=43.138290, altitude=154.80, speed=0.01, satellites=8, angle=110.3400, fixquality=1
$GPRMC,180105.400,A,4308.2972,N,07726.2721,W,0.00,330.92,150319,,,A*72
$GPGGA,180105.600,4308.2972,N,07726.2721,W,1,08,1.04,154.8,M,-34.4,M,,*5D
lng=-77.437866, lat=43.138290, altitude=154.80, speed=0.00, satellites=8, angle=330.9200, fixquality=1
$GPRMC,180105.800,A,4308.2972,N,07726.2721,W,0.01,39.49,150319,,,A*43
$GPGGA,180106.000,4308.2972,N,07726.2721,W,1,08,1.04,154.8,M,-34.4,M,,*58
lng=-77.437866, lat=43.138290, altitude=154.80, speed=0.01, satellites=8, angle=39.4900, fixquality=1
$GPRMC,180106.200,A,4308.2972,N,07726.2721,W,0.01,32.64,150319,,,A*4E
$GPGGA,180106.400,4308.2972,N,07726.2721,W,1,08,1.04,154.8,M,-34.4,M,,*5C
lng=-77.437866, lat=43.138290, altitude=154.80, speed=0.01, satellites=8, angle=32.6400, fixquality=1
$GPRMC,180106.600,A,4308.2972,N,07726.2721,W,0.01,0.03,150319,,,A*7A
$GPGGA,180106.800,4308.2972,N,07726.2721,W,1,08,1.04,154.8,M,-34.4,M,,*50
lng=-77.437866, lat=43.138290, altitude=154.80, speed=0.01, satellites=8, angle=0.0300, fixquality=1
$GPRMC,180107.000,A,4308.2972,N,07726.2721,W,0.01,29.56,150319,,,A*46
$GPGGA,180107.200,4308.2972,N,07726.2721,W,1,08,1.04,154.8,M,-34.4,M,,*5B
lng=-77.437866, lat=43.138290, altitude=154.80, speed=0.01, satellites=8, angle=29.5600, fixquality=1
$GPRMC,180107.400,A,4308.2972,N,07726.2721,W,0.01,327.65,150319,,,A*7F
